,stop_id,stop_name,stop_desc,stop_lat,stop_lon,zone_id,stop_url,location_type,parent_station
0,100646,BOSTON RD/E 180 ST,,40.84256,-73.878334,,,0,
1,103374,BRUSH AV/BRUCKNER BL,,40.828102,-73.840965,,,0,
2,103379,CROSS BX SVC RD/NEWBOLD AV,,40.8325,-73.856995,,,0,
3,103380,CROSS BX SVC RD/TAYLOR AV,,40.835388,-73.86643199999999,,,0,
4,103381,CROSS BX SVC RD/COMMONWEALTH AV,,40.836433,-73.870407,,,0,
5,103383,CROSS BX SVC RD/ROSDALE AV,,40.835547999999996,-73.86981999999999,,,0,
6,103385,CROSS BX SVC RD/PUGSLEY AV,,40.831913,-73.857109,,,0,
7,103392,WESTCHESTER AV/VIRGINIA AV,,40.832924,-73.86174,,,0,
8,103523,CROSS BX SVC RD/CASTLE HILL AV,,40.830078,-73.850822,,,0,
9,103767,LAFAYETTE AV/HUTCHINSON RVR PKY,,40.824951,-73.836975,,,0,
10,103900,CROSS BX SVC RD S/BEACH AV,,40.834919,-73.867287,,,0,
11,103995,CROSS BX SVC RD/HAVILAND AV,,40.830444,-73.850212,,,0,
12,103996,E 180 ST/DEVOE AV,,40.842457,-73.877121,,,0,
13,104003,E TREMONTAV/BOSTON RD,,40.839821,-73.878372,,,0,
14,104004,BRUCKNER BL/BRUSH AV,,40.827861999999996,-73.83892800000001,,,0,
15,400134,5 AV/W 44 ST,,40.754517,-73.98024699999999,,,0,
16,400135,5 AV/W 42 ST,,40.753159000000004,-73.981239,,,0,
17,400316,5 AV/W 56 ST,,40.762015999999996,-73.974785,,,0,
18,400324,5 AV/W 33 ST,,40.747509,-73.985359,,,0,
19,400327,5 AV/W 26 ST,,40.743153,-73.988541,,,0,
20,400353,MADISON AV/E 32 ST,,40.746582000000004,-73.983627,,,0,
21,400354,MADISON AV/E 34 ST,,40.748329,-73.982437,,,0,
22,400358,MADISON AV/E 45 ST,,40.755234,-73.97737099999999,,,0,
23,400359,MADISON AV/E 47 ST,,40.756508000000004,-73.976463,,,0,
24,400360,MADISON AV/E 49 ST,,40.757754999999996,-73.975548,,,0,
25,400361,MADISON AV/E 52 ST,,40.759636,-73.974182,,,0,
26,400362,MADISON AV/E 55  ST,,40.761509000000004,-73.972809,,,0,
27,400363,MADISON AV/E 57 ST,,40.762859000000006,-73.97184,,,0,
28,400514,5 AV/W 53 ST,,40.759926,-73.976303,,,0,
29,400515,5 AV/W 49 ST,,40.75803,-73.977676,,,0,
30,400516,5 AV/W 47 ST,,40.756157,-73.97905,,,0,
31,400518,5 AV/W 42 ST,,40.752827,-73.981461,,,0,
32,400519,5 AV/W 38 ST,,40.750927000000004,-73.982811,,,0,
33,400552,W 32 ST/7 AV,,40.749404999999996,-73.99101999999999,,,0,
34,400555,E 32 ST/5 AV,,40.746986,-73.985374,,,0,
35,400561,MADISON AV/E 42 ST,,40.753338,-73.97876,,,0,
36,401840,E 34 ST/3 AV,,40.745903000000006,-73.97835500000001,,,0,
37,401842,E 34 ST/PARK AV,,40.747234000000006,-73.981544,,,0,
38,402130,E 23 ST/BROADWAY,,40.741141999999996,-73.988792,,,0,
39,402133,E 23 ST/LEXINGTON  AV,,40.739208000000005,-73.984299,,,0,
40,402134,E 23 ST/3 AV,,40.738566999999996,-73.982773,,,0,
41,402143,E 23 ST/1 AV,,40.737091,-73.97886700000001,,,0,
42,402146,E 23 ST/LEXINGTON AV,,40.739697,-73.98496999999999,,,0,
43,402212,E 57 ST/PARK AV,,40.761326000000004,-73.970322,,,0,
44,402214,E 57 ST/LEXINGTON AV,,40.760674,-73.968773,,,0,
45,402215,E 57 ST/3 AV,,40.759876,-73.966827,,,0,
46,402224,E 57 ST/3 AV,,40.760521000000004,-73.967934,,,0,
47,402377,E 59 ST/MADISON AV,,40.763374,-73.971161,,,0,
48,402378,E 59 ST/PARK AV,,40.762695,-73.969635,,,0,
49,402379,E 59 ST/LEXINGTON AV,,40.762085,-73.968086,,,0,
50,402380,E 59 ST/3 AV,,40.761375,-73.966476,,,0,
51,402441,E 60 ST/2 AV,,40.761513,-73.964417,,,0,
52,402443,E 60 ST/LEXINGTON AV,,40.762985,-73.96779599999999,,,0,
53,402444,E 60 ST/PARK AV,,40.763737,-73.969612,,,0,
54,402446,5 AV/W 58 ST,,40.763496,-73.973709,,,0,
55,402679,3 AV/E 42 ST,,40.751068,-73.974083,,,0,
56,402681,3 AV/E 47 ST,,40.754215,-73.971802,,,0,
57,403266,5 AV/W 56 ST,,40.761798999999996,-73.974937,,,0,
58,403456,MADISON AV/E 37 ST,,40.750126,-73.98107900000001,,,0,
59,403457,MADISON AV/E 40  ST,,40.752041,-73.979729,,,0,
60,403539,W 32 ST/AV OF THE AMERICAS,,40.748379,-73.98859399999999,,,0,
61,403593,E 60 ST/MADISON AV,,40.764441999999995,-73.971298,,,0,
62,403617,E 57 ST/LEXINGTON AV,,40.761185,-73.969505,,,0,
63,404169,3 AV/E 55 ST,,40.759201000000004,-73.968147,,,0,
64,404295,MADISON AV/E 25 ST,,40.742004,-73.987083,,,0,
65,404296,MADISON AV/E 29 ST,,40.744244,-73.98541999999999,,,0,
66,404297,MADISON AV/E 33 ST,,40.746967,-73.983437,,,0,
67,404298,MADISON AV/E 40 ST,,40.751419,-73.980194,,,0,
68,404299,MADISON AV/E 48 ST,,40.756847,-73.976112,,,0,
69,404300,MADISON AV/E 54 ST,,40.760616,-73.973465,,,0,
70,404302,E 59 ST/2 AV,,40.760571,-73.964561,,,0,
71,405179,5 AV/W 45 ST,,40.754871,-73.979965,,,0,
72,450123,5 AV/W 50 ST,,40.758891999999996,-73.97706600000001,,,0,
73,450375,W 37 ST/5 AV,,40.750572,-73.983559,,,0,
74,500002,165 ST/HILLSIDE AV,,40.709152,-73.797134,,,0,
75,500003,HILLSIDE AV/169 ST,,40.710594,-73.793091,,,0,
76,500004,HILLSIDE AV/171 ST,,40.711388,-73.79085500000001,,,0,
77,500005,HILLSIDE AV/173 ST,,40.711964,-73.788834,,,0,
78,500007,HILLSIDE AV/180 ST,,40.713039,-73.781891,,,0,
79,500008,HILLSIDE AV/182 PL,,40.713528000000004,-73.779831,,,0,
80,500009,HILLSIDE AV/184 ST,,40.714062,-73.777496,,,0,
81,500010,HILLSIDE AV/187 ST,,40.714481,-73.775902,,,0,
82,500011,HILLSIDE AV/189 ST,,40.715278999999995,-73.77278100000001,,,0,
83,500012,HILLSIDE AV/191 ST,,40.716011,-73.77068299999999,,,0,
84,500013,HILLSIDE AV/193 ST,,40.716713,-73.768654,,,0,
85,500014,HILLSIDE AV/195 PL,,40.717341999999995,-73.76696,,,0,
86,500015,HILLSIDE AV/197 ST,,40.718449,-73.765015,,,0,
87,500017,HILLSIDE AV/202 ST,,40.719856,-73.762024,,,0,
88,500018,HILLSIDE AV/205 ST,,40.720943,-73.75954399999999,,,0,
89,500019,HILLSIDE AV/207 ST,,40.721725,-73.758301,,,0,
90,500022,HILLSIDE AV/212 ST,,40.724823,-73.753662,,,0,
91,500023,HILLSIDE AV/214 ST,,40.726089,-73.75128199999999,,,0,
92,500024,HILLSIDE AV/215 PL,,40.727253000000005,-73.748962,,,0,
93,500025,HILLSIDE AV/218 ST,,40.728344,-73.746902,,,0,
94,500026,HILLSIDE AV/SPRINGFIELD BL,,40.729671,-73.744637,,,0,
95,500027,SPRINGFIELD BL/89 AV,,40.729076,-73.744034,,,0,
96,500028,SPRINGFIELD BL/90 AV,,40.726543,-73.741341,,,0,
97,500029,SPRINGFIELD BL/91 AV,,40.725407000000004,-73.740143,,,0,
98,500030,SPRINGFIELD BL/92 AV,,40.724292999999996,-73.73895300000001,,,0,
99,500031,SPRINGFIELD BL/93 AV,,40.722126,-73.73687,,,0,
100,500032,SPRINGFIELD BL/94 AV,,40.720909000000006,-73.73629,,,0,
101,500033,SPRINGFIELD BL/94 DR,,40.719516999999996,-73.735703,,,0,
102,500034,SPRINGFIELD BL/JAMAICA AV,,40.718636,-73.735428,,,0,
103,500035,AMBOY LA/SPRINGFIELD BL,,40.717834,-73.735626,,,0,
104,500036,BRADDOCK AV/89 AV,,40.729877,-73.742722,,,0,
105,500037,BRADDOCK AV/221 PL,,40.729286,-73.74006700000001,,,0,
106,500038,BRADDOCK AV/90 AV,,40.728634,-73.737274,,,0,
107,500039,BRADDOCK AV/WINCHESTER BL,,40.72826,-73.73561099999999,,,0,
108,500040,BRADDOCK AV/222 ST,,40.728149,-73.735123,,,0,
109,500041,BRADDOCK AV /224 ST,,40.727795,-73.733513,,,0,
110,500042,BRADDOCK AV/92 AV,,40.727425,-73.73185,,,0,
111,500043,BRADDOCK AV/92 RD,,40.726963,-73.730476,,,0,
112,500044,BRADDOCK AV /240 ST,,40.726437,-73.72863000000001,,,0,
113,500045,BRADDOCK AV/242 ST,,40.725964000000005,-73.726036,,,0,
114,500048,SPRINGFIELD BL/JAMAICA AV,,40.718987,-73.735283,,,0,
115,500049,SPRINGFIELD BL/94 DR,,40.720181,-73.735733,,,0,
116,500050,SPRINGFIELD BL / 94 AV,,40.721428,-73.736313,,,0,
117,500051,SPRINGFIELD BL/93 AV,,40.722771,-73.737061,,,0,
118,500052,SPRINGFIELD BL/92 AV,,40.724895000000004,-73.739319,,,0,
119,500053,SPRINGFIELD BL/91 AV,,40.725978999999995,-73.74051700000001,,,0,
120,500054,SPRINGFIELD BL/90 AV,,40.7271,-73.74166899999999,,,0,
121,500055,SPRINGFIELD BL/89 AV,,40.729321,-73.74404100000001,,,0,
122,500056,BRADDOCK AV/CROSS ISLAND PY,,40.72583,-73.72506,,,0,
123,500057,BRADDOCK AV/242 ST,,40.726387,-73.726753,,,0,
124,500058,BRADDOCK AV /240 ST,,40.72665,-73.7286,,,0,
125,500059,BRADDOCK AV/238 ST,,40.727016,-73.729881,,,0,
126,500061,BRADDOCK AV/LYMAN ST,,40.727909000000004,-73.73307,,,0,
127,500062,BRADDOCK AV/RANSOM ST,,40.728531,-73.735794,,,0,
128,500063,BRADDOCK AV/WINCHESTER BL,,40.728935,-73.73761,,,0,
129,500064,BRADDOCK AV/BILLINGS ST,,40.729229,-73.738907,,,0,
130,500065,BRADDOCK AV/221 PL,,40.73,-73.742203,,,0,
131,500066,HILLSIDE AV/SPRINGFIELD BL,,40.729759,-73.745224,,,0,
132,500069,HILLSIDE AV/215 PL,,40.727123,-73.749626,,,0,
133,500070,HILLSIDE AV/214 ST,,40.72591,-73.75215899999999,,,0,
134,500071,HILLSIDE AV/212 ST,,40.724552,-73.754524,,,0,
135,500072,HILLSIDE AV/211 ST,,40.72348,-73.75617199999999,,,0,
136,500073,HILLSIDE AV/209 ST,,40.72242,-73.75762900000001,,,0,
137,500074,HILLSIDE AV/FRANCIS LEWIS BL,,40.720729999999996,-73.760262,,,0,
138,500078,HILLSIDE AV/193 ST,,40.716595,-73.76963,,,0,
139,500079,HILLSIDE AV/191 ST,,40.715934999999995,-73.77153,,,0,
140,500080,HILLSIDE AV/188 ST,,40.71524,-73.77350600000001,,,0,
141,500081,HILLSIDE AV/187 ST,,40.714806,-73.775284,,,0,
142,500084,HILLSIDE AV/175 ST,,40.711895,-73.787643,,,0,
143,500087,HILLSIDE AV/HOMELAWN ST,,40.710823,-73.792923,,,0,
144,500095,HILLSIDE AV/179 ST,,40.712528000000006,-73.784081,,,0,
145,500099,187 PL/90 AV,,40.712532,-73.77291899999999,,,0,
146,500100,187 PL/JAMAICA AV,,40.710442,-73.771843,,,0,
147,500101,HOLLIS AV/190 ST,,40.709793,-73.769104,,,0,
148,500102,HOLLIS AV/191 ST,,40.709339,-73.767288,,,0,
149,500103,HOLLIS AV/102 AV,,40.708504,-73.765945,,,0,
150,500104,HOLLIS AV/104 AV,,40.70734,-73.76474,,,0,
151,500105,HOLLIS AV/109 AV,,40.706604,-73.762199,,,0,
152,500109,HOLLIS AV /204 ST,,40.706787,-73.753311,,,0,
153,500110,HOLLIS AV/FRANCIS LEWIS BL,,40.707333,-73.75074000000001,,,0,
154,500111,HOLLIS AV/208 ST,,40.707783,-73.749588,,,0,
155,500112,HOLLIS AV/209 PL,,40.708385,-73.748108,,,0,
156,500113,HOLLIS AV/212 ST,,40.709396000000005,-73.745926,,,0,
157,500114,HOLLIS AV/214 ST,,40.709782000000004,-73.744049,,,0,
158,500115,HOLLIS AV/216 ST,,40.710178000000006,-73.742233,,,0,
159,500116,HOLLIS AV/217 PL,,40.711033,-73.739464,,,0,
160,500118,HOLLIS AV/SPRINGFIELD BL,,40.71188,-73.736641,,,0,
161,500119,SPRINGFIELD BL/HEMPSTEAD AV,,40.713165000000004,-73.735764,,,0,
162,500120,HEMPSTEAD AV/220 ST,,40.712639,-73.733704,,,0,
163,500121,HEMPSTEAD AV/223 ST,,40.711940999999996,-73.73086500000001,,,0,
164,500122,HEMPSTEAD AV/225 ST,,40.711597,-73.72914899999999,,,0,
165,500123,HEMPSTEAD AV/225 ST,,40.71162,-73.729233,,,0,
166,500124,HEMPSTEAD AV/224 ST,,40.711853000000005,-73.730034,,,0,
167,500125,HEMPSTEAD AV/221 ST,,40.712719,-73.73326899999999,,,0,
168,500126,SPRINGFIELD BL/HEMPSTEAD AV,,40.712963,-73.736069,,,0,
169,500127,SPRINGFIELD BL/HOLLIS AV,,40.712055,-73.73655699999999,,,0,
170,500128,HOLLIS AV/217 LA,,40.711182,-73.739304,,,0,
171,500130,HOLLIS AV/215 ST,,40.710064,-73.743225,,,0,
172,500131,HOLLIS AV/212 PL,,40.709675,-73.745094,,,0,
173,500132,HOLLIS AV/211 ST,,40.708969,-73.74722299999999,,,0,
174,500133,HOLLIS AV/207 ST,,40.707623,-73.750259,,,0,
175,500134,HOLLIS AV/FRANCIS LEWIS BL,,40.707268,-73.751717,,,0,
176,500135,HOLLIS AV/205 ST,,40.706894,-73.75344799999999,,,0,
177,500136,HOLLIS AV/203 ST,,40.706497,-73.755264,,,0,
178,500137,HOLLIS AV/201 ST,,40.706238,-73.75703399999999,,,0,
179,500138,HOLLIS AV/199 ST,,40.706409,-73.759132,,,0,
180,500139,HOLLIS AV/197 ST,,40.706573,-73.760651,,,0,
181,500140,HOLLIS AV/195 ST,,40.706818,-73.762718,,,0,
182,500141,HOLLIS AV/104 AV,,40.707291,-73.764488,,,0,
183,500142,HOLLIS AV/100 AV,,40.708847,-73.766159,,,0,
184,500143,HOLLIS AV/99 AV,,40.709625,-73.76767,,,0,
185,500145,188 ST/JAMAICA AV,,40.710739000000004,-73.770477,,,0,
186,500146,188 ST/90 AV,,40.712703999999995,-73.771889,,,0,
187,500147,188 ST/89 AV,,40.713833,-73.772644,,,0,
188,500157,FARMERS BL/ROCKAWAY BL,,40.65984,-73.773247,,,0,
189,500158,FARMERS BL/147 AV,,40.661541,-73.770569,,,0,
190,500159,FARMERS BL/176 ST,,40.662369,-73.769806,,,0,
191,500161,FARMERS BL/145 RD,,40.665915999999996,-73.767387,,,0,
192,500163,FARMERS BL/144 AV,,40.668427,-73.766182,,,0,
193,500164,FARMERS BL/142 AV,,40.670555,-73.764999,,,0,
194,500165,FARMERS BL/140 AV,,40.671181,-73.76463299999999,,,0,
195,500166,FARMERS BL/182 ST,,40.673157,-73.763855,,,0,
196,500167,FARMERS BL/WESTGATE ST,,40.674652,-73.763573,,,0,
197,500168,FARMERS BL/134 AV,,40.67625,-73.763367,,,0,
198,500169,FARMERS BL/BENNETT CT,,40.678501000000004,-73.762062,,,0,
199,500170,FARMERS BL/MERRICK BL,,40.680279,-73.76132199999999,,,0,
200,500171,FARMERS BL/122 AV,,40.683712,-73.760368,,,0,
201,500182,FARMERS BL/112 AV,,40.700813000000004,-73.764252,,,0,
202,500183,FARMERS BL/111 AV,,40.702003000000005,-73.76561,,,0,
203,500184,FARMERS BL/109 AV,,40.703712,-73.766632,,,0,
204,500187,FARMERS BL/HOLLIS AV,,40.709362,-73.768112,,,0,
205,500197,HILLSIDE AV/EDGERTON BL,,40.712272999999996,-73.78581199999999,,,0,
206,500209,HILLSIDE AV/178 ST,,40.712364,-73.78454599999999,,,0,
207,500216,FARMERS BL/HENDERSON AV,,40.708473,-73.76799799999999,,,0,
208,500220,FARMERS BL/JORDAN AV,,40.701683,-73.765511,,,0,
209,500221,FARMERS BL/KEESEVILLE AV,,40.7005,-73.76416800000001,,,0,
210,500222,FARMERS BL/113 AV,,40.69923,-73.763039,,,0,
211,500230,LIBERTY AV/REMINGTON ST,,40.692223,-73.809433,,,0,
212,500231,FARMERS BL/121 AV,,40.685154,-73.760841,,,0,
213,500235,FARMERS BL/132 AV,,40.678028000000005,-73.762627,,,0,
214,500236,FARMERS BL/133 RD,,40.676426,-73.763504,,,0,
215,500237,FARMERS BL/WESTGATE ST,,40.674419,-73.76379399999999,,,0,
216,500238,FARMERS BL/138 AV,,40.672913,-73.76413000000001,,,0,
217,500239,FARMERS BL/140 AV,,40.671154,-73.764839,,,0,
218,500241,FARMERS BL/143 RD,,40.668873,-73.76616700000001,,,0,
219,500242,FARMERS BL/144 RD,,40.667576000000004,-73.7668,,,0,
220,500243,FARMERS BL/145 RD,,40.664993,-73.768089,,,0,
221,500244,FARMERS BL/GUY R BREWER BL,,40.663845,-73.768837,,,0,
222,500245,FARMERS BL/177 ST,,40.662624,-73.769829,,,0,
223,500246,FARMERS BL/175 ST,,40.660931,-73.771286,,,0,
224,500247,FARMERS BL/ROCKAWAY BL,,40.65995,-73.773445,,,0,
225,500249,HILLSIDE AV/PARSONS BL,,40.707565,-73.80291700000001,,,0,
226,500251,HILLSIDE AV/163 ST,,40.708576,-73.799385,,,0,
227,500252,HILLSIDE AV/165 ST,,40.709137,-73.797386,,,0,
228,500255,MERRICK BL/LIBERTY AV,,40.702453999999996,-73.79143499999999,,,0,
229,500256,LIBERTY AV/168 PL,,40.702702,-73.790115,,,0,
230,500257,LIBERTY AV/170 ST,,40.703334999999996,-73.78842900000001,,,0,
231,500258,LIBERTY AV/173 ST,,40.704464,-73.784874,,,0,
232,500259,LIBERTY AV/177 ST,,40.705315,-73.78265400000001,,,0,
233,500264,LIBERTY AV/CAMDEN AV,,40.704239,-73.770554,,,0,
234,500265,LIBERTY AV/ELMIRA AV,,40.703709,-73.768517,,,0,
235,500266,LIBERTY AV/HILBURN AV,,40.703201,-73.76715899999999,,,0,
236,500271,MURDOCK AV/194 ST,,40.698555,-73.760063,,,0,
237,500272,MURDOCK AV/196 ST,,40.699135,-73.757828,,,0,
238,500273,MURDOCK AV/198 ST,,40.699574,-73.756058,,,0,
239,500280,MURDOCK AV/212 ST,,40.702709000000006,-73.743973,,,0,
240,500281,MURDOCK AV/SPRINGFIELD BL,,40.703423,-73.740898,,,0,
241,500282,COLFAX ST/212 ST,,40.702312,-73.74305,,,0,
242,500283,COLFAX ST/SPRINGFIELD BL,,40.70179,-73.741348,,,0,
243,500284,114 AV/219 ST,,40.701843,-73.738327,,,0,
244,500285,114 AV/221 ST,,40.701782,-73.73638199999999,,,0,
245,500286,114 AV/223 ST,,40.701725,-73.734459,,,0,
246,500287,114 AV/225 ST,,40.70166,-73.73249100000001,,,0,
247,500288,114 AV/227 ST,,40.701565,-73.730583,,,0,
248,500289,227 ST/113 DR,,40.702263,-73.730339,,,0,
249,500290,SPRINGFIELD BL/112 RD,,40.705185,-73.739723,,,0,
250,500291,SPRINGFIELD BL/111 RD,,40.706207,-73.739326,,,0,
251,500293,SPRINGFIELD BL/107 AV,,40.710426,-73.737267,,,0,
252,500294,SPRINGFIELD BL/104 AV,,40.712383,-73.736137,,,0,
253,500296,SPRINGFIELD BL/100 AV,,40.715252,-73.735489,,,0,
254,500297,SPRINGFIELD BL/98 AV,,40.716656,-73.735374,,,0,
255,500298,AMBOY LA/JAMAICA AV,,40.717921999999994,-73.73638199999999,,,0,
256,500300,113 DR/225 ST,,40.702477,-73.732231,,,0,
257,500301,113 DR/223 ST,,40.702521999999995,-73.734184,,,0,
258,500302,113 DR/221 ST,,40.702576,-73.736145,,,0,
259,500303,113 DR/219 ST,,40.702652,-73.738075,,,0,
260,500304,SPRINGFIELD BL/AMBOY LA,,40.717762,-73.73548100000001,,,0,
261,500305,SPRINGFIELD BL/99 AV,,40.715351,-73.735641,,,0,
262,500309,SPRINGFIELD BL/107 AV,,40.710285,-73.73755600000001,,,0,
263,500310,SPRINGFIELD BL/109 AV,,40.709099,-73.73820500000001,,,0,
264,500312,SPRINGFIELD BL/111 RD,,40.705688,-73.739754,,,0,
265,500313,SPRINGFIELD BL/112 RD,,40.704426,-73.740387,,,0,
266,500315,MURDOCK AV/SPRINGFIELD BL,,40.703548,-73.74095200000001,,,0,
267,500317,MURDOCK AV/210 ST,,40.702477,-73.745453,,,0,
268,500318,MURDOCK AV/208 ST,,40.702011,-73.74722299999999,,,0,
269,500320,MURDOCK AV/204 ST,,40.700893,-73.75153399999999,,,0,
270,500321,MURDOCK AV/202 ST,,40.700424,-73.753326,,,0,
271,500322,MURDOCK AV/200 ST,,40.699959,-73.755112,,,0,
272,500323,MURDOCK AV/198 ST,,40.699482,-73.756874,,,0,
273,500331,LIBERTY AV/187 ST,,40.704227,-73.76992,,,0,
274,500332,LIBERTY AV/184 ST,,40.704956,-73.773163,,,0,
275,500334,LIBERTY AV/182 ST,,40.705696,-73.77813,,,0,
276,500335,LIBERTY AV/180 ST,,40.705486,-73.780304,,,0,
277,500336,LIBERTY AV/177 ST,,40.705391,-73.783035,,,0,
278,500337,LIBERTY AV/172 ST,,40.704277000000005,-73.78600300000001,,,0,
279,500340,168 ST/DOUGLAS AV,,40.703959999999995,-73.790977,,,0,
280,500361,HILLSIDE AV/PARSONS BL,,40.707687,-73.803253,,,0,
281,500367,MERRICK BL/107 AV,,40.699707000000004,-73.78855899999999,,,0,
282,500368,MERRICK BL/108 AV,,40.698414,-73.78714000000001,,,0,
283,500369,MERRICK BL/169 PL,,40.697842,-73.78595,,,0,
284,500370,MERRICK BL/109 AV,,40.696743,-73.783928,,,0,
285,500371,MERRICK BL/110 AV,,40.695679,-73.78265400000001,,,0,
286,500372,MERRICK BL/111 AV,,40.694134000000005,-73.781357,,,0,
287,500373,MERRICK BL/SAYRES AV,,40.692596,-73.780106,,,0,
288,500374,LINDEN BL/172 ST,,40.691807,-73.778275,,,0,
289,500375,LINDEN BL/174 ST,,40.69236,-73.77595500000001,,,0,
290,500376,LINDEN BL/175 PL,,40.692787,-73.774185,,,0,
291,500377,LINDEN BL/177 ST,,40.692989000000004,-73.772324,,,0,
292,500378,LINDEN BL/178 ST,,40.692661,-73.77005,,,0,
293,500380,LINDEN BL/NEWBURG ST,,40.692196,-73.766785,,,0,
294,500382,LINDEN BL/FARMERS BL,,40.691689000000004,-73.761932,,,0,
295,500383,LINDEN BL/190 ST,,40.692054999999996,-73.760651,,,0,
296,500384,LINDEN BL/192 ST,,40.692482,-73.75909399999999,,,0,
297,500385,LINDEN BL/195 ST,,40.693207,-73.756485,,,0,
298,500386,LINDEN BL/197 ST,,40.6936,-73.754814,,,0,
299,500387,LINDEN BL/199 ST,,40.694111,-73.75318100000001,,,0,
300,500388,LINDEN BL/201 ST,,40.694569,-73.751526,,,0,
301,500389,LINDEN BL/202 ST,,40.694981,-73.75012199999999,,,0,
302,500390,LINDEN BL/204 ST,,40.695503,-73.748177,,,0,
303,500391,LINDEN BL/FRANCIS LEWIS BL,,40.696090999999996,-73.746063,,,0,
304,500392,LINDEN BL/SPRINGFIELD BL,,40.695965,-73.743225,,,0,
305,500393,LINDEN BL/219 ST,,40.695190000000004,-73.740829,,,0,
306,500394,LINDEN BL/222 ST,,40.694396999999995,-73.73820500000001,,,0,
307,500395,LINDEN BL/225 ST,,40.693515999999995,-73.73558,,,0,
308,500396,LINDEN BL/228 ST,,40.692768,-73.73281899999999,,,0,
309,500397,LINDEN BL/230 ST,,40.692135,-73.731155,,,0,
310,500398,LINDEN BL/232 ST,,40.69125,-73.729568,,,0,
311,500401,LINDEN BL/231 ST,,40.692211,-73.730995,,,0,
312,500403,LINDEN BL/228 ST,,40.693134,-73.733521,,,0,
313,500404,LINDEN BL/225 ST,,40.693954,-73.736122,,,0,
314,500406,LINDEN BL/222 ST,,40.694889,-73.73912800000001,,,0,
315,500407,LINDEN BL/219 ST,,40.695564000000005,-73.74115,,,0,
316,500408,LINDEN BL/217 ST,,40.696125,-73.743065,,,0,
317,500410,LINDEN BL/FRANCIS LEWIS BL,,40.696125,-73.74633,,,0,
318,500411,LINDEN BL/204 ST,,40.695564000000005,-73.748421,,,0,
319,500412,LINDEN BL/201 ST,,40.694859,-73.750984,,,0,
320,500413,LINDEN BL/199 ST,,40.694324,-73.752998,,,0,
321,500414,LINDEN BL/197 ST,,40.693740999999996,-73.754982,,,0,
322,500415,LINDEN BL/195 ST,,40.693256,-73.756813,,,0,
323,500416,LINDEN BL/193 ST,,40.692657000000004,-73.758965,,,0,
324,500417,LINDEN BL/191 ST,,40.692188,-73.760666,,,0,
325,500418,LINDEN BL/FARMERS BL,,40.691765000000004,-73.762856,,,0,
326,500419,LINDEN BL/NEWBURG ST,,40.692188,-73.765762,,,0,
327,500420,LINDEN BL/179 ST,,40.692593,-73.768585,,,0,
328,500421,LINDEN BL/178 ST,,40.692978000000004,-73.77131700000001,,,0,
329,500422,LINDEN BL/176 ST,,40.693039,-73.773735,,,0,
330,500424,LINDEN BL/MURDOCK AV,,40.692223,-73.777153,,,0,
331,500426,MERRICK BL/SAYRES AV,,40.693329,-73.780357,,,0,
332,500428,MERRICK BL/110 AV,,40.696315999999996,-73.782944,,,0,
333,500429,MERRICK BL/109 AV,,40.697052,-73.783958,,,0,
334,500430,MERRICK BL/108 AV,,40.69836,-73.786613,,,0,
335,500431,MERRICK BL/107 AV,,40.699653999999995,-73.788147,,,0,
336,500433,MERRICK BL/LIBERTY AV,,40.702290000000005,-73.790497,,,0,
337,500451,MERRICK BL/LINDEN BL,,40.691757,-73.779449,,,0,
338,500452,MERRICK BL/115 AV,,40.689537,-73.77777900000001,,,0,
339,500453,MERRICK BL/116 AV,,40.688046,-73.776466,,,0,
340,500454,MERRICK BL/FOCH BL,,40.686726,-73.77467299999999,,,0,
341,500455,MERRICK BL/VICTORIA RD,,40.684975,-73.772141,,,0,
342,500456,120 AV/IRWIN PL,,40.684441,-73.768898,,,0,
343,500457,120 AV/SUNBURY RD,,40.684914,-73.767021,,,0,
344,500458,120 AV/178 PL,,40.685123,-73.76616700000001,,,0,
345,500459,120 AV/180 ST,,40.685783,-73.763535,,,0,
346,500460,120 AV/FARMERS BL,,40.686344,-73.761299,,,0,
347,500461,120 AV/LUCAS ST,,40.687389,-73.758408,,,0,
348,500462,120 AV/192 ST,,40.687927,-73.756966,,,0,
349,500463,120 AV/194 ST,,40.688522,-73.755325,,,0,
350,500464,120 AV/196 ST,,40.689114000000004,-73.753716,,,0,
351,500465,120 AV/198 ST,,40.689701,-73.75209,,,0,
352,500466,120 AV/200 ST,,40.690468,-73.750008,,,0,
353,500467,120 AV/NASHVILLE BL,,40.691326000000004,-73.747551,,,0,
354,500468,120 AV/SPRINGFIELD BL,,40.691078000000005,-73.745834,,,0,
355,500469,120 AV/218 ST,,40.690548,-73.744095,,,0,
356,500470,120 AV/FRANCIS LEWIS BL,,40.689934,-73.742073,,,0,
357,500471,120 AV/222 ST,,40.689484,-73.740585,,,0,
358,500472,120 AV/224 ST,,40.68895,-73.73880799999999,,,0,
359,500473,120 AV/226 ST,,40.688427000000004,-73.737099,,,0,
360,500474,120 AV/228 ST,,40.687884999999994,-73.735352,,,0,
361,500475,120 AV/230 ST,,40.687378,-73.733589,,,0,
362,500476,120 AV/232 ST,,40.686844,-73.731842,,,0,
363,500477,120 AV/234 ST,,40.68631,-73.730087,,,0,
364,500478,120 AV/237 ST,,40.685547,-73.727554,,,0,
365,500479,238 ST/121 AV,,40.683464,-73.728081,,,0,
366,500480,238 ST/128 AV,,40.681656,-73.728897,,,0,
367,500483,237 ST/128 AV,,40.6824,-73.729431,,,0,
368,500484,237 ST/121 AV,,40.684371999999996,-73.7285,,,0,
369,500485,120 AV/237 ST,,40.685885999999996,-73.728172,,,0,
370,500486,120 AV/234 ST,,40.686699,-73.73082,,,0,
371,500487,120 AV/231 ST,,40.687496,-73.733482,,,0,
372,500488,120 AV/229 ST,,40.688007,-73.735161,,,0,
373,500489,120 AV/227 ST,,40.688396000000004,-73.73645,,,0,
374,500490,120 AV/224 ST,,40.689323,-73.739517,,,0,
375,500491,120 AV/222 ST,,40.689865000000005,-73.741295,,,0,
376,500492,120 AV/FRANCIS LEWIS BL,,40.690521000000004,-73.743492,,,0,
377,500493,120 AV/217 ST,,40.691165999999996,-73.745621,,,0,
378,500494,120 AV/SPRINGFIELD BL,,40.691466999999996,-73.746628,,,0,
379,500495,120 AV/202 ST,,40.691132,-73.74854300000001,,,0,
380,500496,120 AV/200 ST,,40.690371999999996,-73.75054200000001,,,0,
381,500497,120 AV/199 ST,,40.689941,-73.751717,,,0,
382,500498,120 AV/197 ST,,40.689476,-73.752998,,,0,
383,500499,120 AV/195 ST,,40.688751,-73.754997,,,0,
384,500500,120 AV/193 ST,,40.688117999999996,-73.756721,,,0,
385,500501,120 AV/190 ST,,40.687199,-73.75923900000001,,,0,
386,500502,120 AV/FARMERS BL,,40.686543,-73.76104000000001,,,0,
387,500503,120 AV/180 ST,,40.685963,-73.76342,,,0,
388,500504,120 AV/178 ST,,40.685509,-73.765198,,,0,
389,500505,120 AV/177 ST,,40.685089000000005,-73.766876,,,0,
390,500507,MERRICK BL/BAISLEY BL,,40.684113,-73.770142,,,0,
391,500508,MERRICK BL/VICTORIA RD,,40.685551000000004,-73.772591,,,0,
392,500509,MERRICK BL/FOCH BL,,40.687317,-73.775085,,,0,
393,500510,MERRICK BL/116 AV,,40.688637,-73.776718,,,0,
394,500511,MERRICK BL/115 AV,,40.690319,-73.77803,,,0,
395,500512,MERRICK BL/LINDEN BL,,40.691578,-73.778984,,,0,
396,500541,MERRICK BL/119 AV,,40.685787,-73.773338,,,0,
397,500543,MERRICK BL/BAISLEY BL,,40.683716,-73.77005,,,0,
398,500544,MERRICK BL/125 AV,,40.682156,-73.766937,,,0,
399,500545,MERRICK BL/127 AV,,40.681290000000004,-73.76514399999999,,,0,
400,500546,MERRICK BL/129 AV,,40.68058,-73.763672,,,0,
401,500547,MERRICK BL/130 RD,,40.679840000000006,-73.762085,,,0,
402,500548,MERRICK BL/BELKNAP ST,,40.678829,-73.75936899999999,,,0,
403,500549,MERRICK BL/MONTAUK ST,,40.679451,-73.757126,,,0,
404,500550,MERRICK BL/PINEVILLE LA,,40.680058,-73.755585,,,0,
405,500551,MERRICK BL/SPRINGFIELD BL,,40.680035,-73.753685,,,0,
406,500552,MERRICK BL/218 ST,,40.679504,-73.75116,,,0,
407,500553,MERRICK BL/220 ST,,40.678802000000005,-73.748962,,,0,
408,500554,MERRICK BL/222 ST,,40.678112,-73.746666,,,0,
409,500555,MERRICK BL/224 ST,,40.677658,-73.74526999999999,,,0,
410,500556,MERRICK BL/226 ST,,40.677067,-73.74361400000001,,,0,
411,500557,MERRICK BL/228 ST,,40.676456,-73.74182900000001,,,0,
412,500559,MERRICK BL/231 ST,,40.675278000000006,-73.738312,,,0,
413,500560,MERRICK BL/233 ST,,40.674862,-73.737083,,,0,
414,500561,MERRICK BL/LAURELTON PY,,40.673946,-73.73524499999999,,,0,
415,500562,MERRICK BL/241 ST,,40.673592,-73.732414,,,0,
416,500563,MERRICK BL/243 ST,,40.673836,-73.73088800000001,,,0,
417,500564,MERRICK BL/HOOK CREEK BL,,40.674049,-73.727692,,,0,
418,500565,HOOK CREEK BL/133 DR,,40.672066,-73.72805,,,0,
419,500566,HOOK CREEK BL/135 AV,,40.669945,-73.728729,,,0,
420,500567,HOOK CREEK BL/136 AV,,40.668545,-73.729233,,,0,
421,500568,HOOK CREEK BL/SUNRISE HY,,40.665661,-73.72995,,,0,
422,500572,BROOKVILLE BL/137 AV,,40.669487,-73.73616,,,0,
423,500573,BROOKVILLE BL/136 AV,,40.672466,-73.73432199999999,,,0,
424,500575,BROOKVILLE BL/MERRICK BL,,40.67345,-73.733559,,,0,
425,500576,MERRICK BL/LAURELTON PY,,40.674232,-73.73532900000001,,,0,
426,500578,MERRICK BL/231 ST,,40.675724,-73.73895999999999,,,0,
427,500579,MERRICK BL/230 ST,,40.676342,-73.740814,,,0,
428,500580,MERRICK BL/228 ST,,40.676914000000004,-73.742531,,,0,
429,500581,MERRICK BL/226 ST,,40.677513,-73.744247,,,0,
430,500582,MERRICK BL/224 ST,,40.678093,-73.74593399999999,,,0,
431,500583,MERRICK BL/222 ST,,40.678631,-73.74767299999999,,,0,
432,500584,MERRICK BL/220 ST,,40.679165000000005,-73.74942,,,0,
433,500585,MERRICK BL/218 ST,,40.679684,-73.75103,,,0,
434,500586,MERRICK BL/SPRINGFIELD BL,,40.680183,-73.752724,,,0,
435,500587,MERRICK BL/RIDGEDALE AV,,40.680298,-73.75386800000001,,,0,
436,500588,MERRICK BL/PINEVILLE LA,,40.680199,-73.755844,,,0,
437,500589,MERRICK BL/MONTAUK ST,,40.679619,-73.75733199999999,,,0,
438,500590,MERRICK BL/BELKNAP ST,,40.679161,-73.760246,,,0,
439,500591,MERRICK BL/FARMERS BL,,40.680084,-73.762085,,,0,
440,500592,MERRICK BL/ZOLLER RD,,40.681118,-73.764313,,,0,
441,500593,MERRICK BL/SELOVER RD,,40.681667,-73.765411,,,0,
442,500594,MERRICK BL/URSINA RD,,40.682602,-73.767365,,,0,
443,500607,MERRICK BL/105 AV,,40.700779,-73.789337,,,0,
444,500633,BAISLEY BL/MERRILL ST,,40.683014,-73.770439,,,0,
445,500634,BAISLEY BL/172 ST,,40.681847,-73.77211,,,0,
446,500636,BEDELL ST/BAISLEY BL,,40.680222,-73.774445,,,0,
447,500637,BEDELL ST/127 AV,,40.679435999999995,-73.77317,,,0,
448,500638,BEDELL ST/130 AV,,40.677963,-73.77080500000001,,,0,
449,500639,BEDELL ST/133 AV,,40.676272999999995,-73.76808199999999,,,0,
450,500640,BEDELL ST/134 RD,,40.674877,-73.765831,,,0,
451,500649,140 AV/180 ST,,40.671577,-73.76391600000001,,,0,
452,500651,140 AV/183 ST,,40.672160999999996,-73.76078000000001,,,0,
453,500652,140 AV/THURSTON ST,,40.672484999999995,-73.759125,,,0,
454,500655,SPRINGFIELD BL/144 AV,,40.66713,-73.757423,,,0,
455,500657,S CONDUIT AV/223 ST,,40.665421,-73.754364,,,0,
456,500658,S CONDUIT AV/225 ST,,40.665428000000006,-73.7519,,,0,
457,500660,S CONDUIT AV/231 ST,,40.665306,-73.744507,,,0,
458,500661,S CONDUIT AV/BROOKVILLE BL,,40.665184,-73.73984499999999,,,0,
459,500663,243 ST/S. CONDUIT AV,,40.665081,-73.735901,,,0,
460,500664,243 ST/MEMPHIS AV,,40.663895000000004,-73.736839,,,0,
461,500665,243 ST/142 AV,,40.662566999999996,-73.737732,,,0,
462,500666,243 ST/WELLER AV,,40.661324,-73.73867,,,0,
463,500667,243 ST/145 AV,,40.659481,-73.740082,,,0,
464,500668,243 ST/HUXLEY ST,,40.657585,-73.741501,,,0,
465,500670,BEDELL ST/134 RD,,40.675228000000004,-73.766098,,,0,
466,500671,BEDELL ST/133 AV,,40.676491,-73.768127,,,0,
467,500672,BEDELL ST/130 AV,,40.678219,-73.770912,,,0,
468,500673,BEDELL ST/127 AV,,40.679691,-73.773285,,,0,
469,500674,BEDELL ST/BAISLEY BL,,40.68042,-73.774452,,,0,
470,500675,BAISLEY BL/172 ST,,40.681778,-73.771843,,,0,
471,500676,BAISLEY BL/MERRILL ST,,40.683147,-73.769897,,,0,
472,500677,243 ST/147 AV,,40.657738,-73.74121099999999,,,0,
473,500678,243 ST/144 AV,,40.660568,-73.739067,,,0,
474,500679,243 ST/WELLER AV,,40.661457,-73.738411,,,0,
475,500680,243 ST/142 AV,,40.662731,-73.737442,,,0,
476,500681,243 ST/MEMPHIS AV,,40.663708,-73.73661,,,0,
477,500683,SUNRISE HY/BROOKVILLE BL,,40.665676,-73.738831,,,0,
478,500684,N CONDUIT AV/230 PL,,40.6665,-73.745132,,,0,
479,500685,N CONDUIT AV/225 ST,,40.666453999999995,-73.752121,,,0,
480,500686,N CONDUIT AV/222 ST,,40.666470000000004,-73.755066,,,0,
481,500687,SPRINGFIELD BL/144 AV,,40.66713,-73.757118,,,0,
482,500688,SPRINGFIELD BL/143 AV,,40.668304,-73.756584,,,0,
483,500689,SPRINGFIELD BL/141 RD,,40.670815000000005,-73.75631700000001,,,0,
484,500690,SPRINGFIELD BL/141 AV,,40.671928,-73.756294,,,0,
485,500691,140 AV/SOUTHGATE ST,,40.672588,-73.759033,,,0,
486,500694,140 AV/FARMERS BL,,40.67165,-73.76413000000001,,,0,
487,500750,HILLSIDE AV/168 ST,,40.710049,-73.794327,,,0,
488,500851,ROOSEVELT AV/BOWNE ST,,40.760883,-73.824577,,,0,
489,500852,BOWNE ST/41 AV,,40.759541,-73.823891,,,0,
490,500853,SANFORD AV/BOWNE ST,,40.758224,-73.822769,,,0,
491,500854,SANFORD AV/PARSONS BL,,40.758774,-73.82073199999999,,,0,
492,500855,SANFORD AV/147 ST,,40.759815,-73.816872,,,0,
493,500856,SANFORD AV/149 ST,,40.760418,-73.81465899999999,,,0,
494,500857,SANFORD AV/MURRAY ST,,40.761158,-73.811844,,,0,
495,500858,SANFORD AV/156 ST,,40.761162,-73.809113,,,0,
496,500859,SANFORD AV/158 ST,,40.760815,-73.80729699999999,,,0,
497,500860,SANFORD AV/160 ST,,40.760467999999996,-73.80545,,,0,
498,500861,SANFORD AV/162 ST,,40.760135999999996,-73.803589,,,0,
499,500862,SANFORD AV/165 ST,,40.759659,-73.800606,,,0,
500,500863,NORTHERN BL/168 ST,,40.758823,-73.798141,,,0,
501,500864,NORTHERN BL/171 ST,,40.758022,-73.795937,,,0,
502,500865,NORTHERN BL/AUBURNDALE LA,,40.757629,-73.794525,,,0,
503,500866,NORTHERN BL/UTOPIA PY,,40.757659999999994,-73.792526,,,0,
504,500867,NORTHERN BL/190 ST,,40.757683,-73.791595,,,0,
505,500868,NORTHERN BL/192 ST,,40.757754999999996,-73.789009,,,0,
506,500869,NORTHERN BL/194 ST,,40.757816,-73.787132,,,0,
507,500870,NORTHERN BL/196 ST,,40.75782,-73.785255,,,0,
508,500871,NORTHERN BL/FRANCIS LEWIS BL,,40.757671,-73.783653,,,0,
509,500872,NORTHERN BL/202 ST,,40.757492,-73.78115799999999,,,0,
510,500873,NORTHERN BL/204 ST,,40.757690000000004,-73.778885,,,0,
511,500874,NORTHERN BL/CLEARVIEW EP,,40.758301,-73.77655,,,0,
512,500875,NORTHERN BL/CORPORAL KENNEDY ST,,40.759174,-73.773308,,,0,
513,500876,NORTHERN BL/211 ST,,40.759693,-73.771385,,,0,
514,500877,NORTHERN BL/BELL BL,,40.760349,-73.76823399999999,,,0,
515,500878,NORTHERN BL/215 ST,,40.760456,-73.76709,,,0,
516,500879,NORTHERN BL/217 ST,,40.760906,-73.764359,,,0,
517,500880,NORTHERN BL/SPRINGFIELD BL,,40.761223,-73.762421,,,0,
518,500881,NORTHERN BL/220 PL,,40.761551000000004,-73.760437,,,0,
519,500882,NORTHERN BL/223 ST,,40.761868,-73.758606,,,0,
520,500883,NORTHERN BL/230 ST,,40.763809,-73.74942800000001,,,0,
521,500885,NORTHERN BL/ALAMEDA AV,,40.76498,-73.745232,,,0,
522,500887,NORTHERN BL/244 ST,,40.765488,-73.741722,,,0,
523,500888,NORTHERN BL/248 ST,,40.766758,-73.739281,,,0,
524,500889,NORTHERN BL/MARATHON PY,,40.768162,-73.73764,,,0,
525,500890,NORTHERN BL/BROWVALE LA,,40.769897,-73.73597,,,0,
526,500891,LITTLE NECK PY/NORTHERN BL,,40.770466,-73.735085,,,0,
527,500892,PEMBROKE AV/GLENWOOD ST,,40.771767,-73.733307,,,0,
528,500893,NORTHERN BL/MORGAN ST,,40.771725,-73.734749,,,0,
529,500895,NORTHERN BL/LITTLE NECK PY,,40.770458000000005,-73.73583199999999,,,0,
530,500896,NORTHERN BL/MARATHON PY,,40.768229999999996,-73.737915,,,0,
531,500897,NORTHERN BL/248 ST,,40.76722,-73.739067,,,0,
532,500898,NORTHERN BL/245 ST,,40.765839,-73.741196,,,0,
533,500899,NORTHERN BL/DOUGLASTON PY,,40.765471999999995,-73.744209,,,0,
534,500900,NORTHERN BL/ALAMEDA AV,,40.764858000000004,-73.746078,,,0,
535,500901,NORTHERN BL/232 ST,,40.764641,-73.746902,,,0,
536,500902,NORTHERN BL/223 ST,,40.76202,-73.758911,,,0,
537,500903,NORTHERN BL/221 ST,,40.7617,-73.760765,,,0,
538,500904,NORTHERN BL/219 ST,,40.761272,-73.763382,,,0,
539,500905,NORTHERN BL/217 ST,,40.760983,-73.765221,,,0,
540,500906,NORTHERN BL/215 PL,,40.760677,-73.767021,,,0,
541,500907,NORTHERN BL/BELL BL,,40.760277,-73.769318,,,0,
542,500908,NORTHERN BL/212 ST,,40.759861,-73.771568,,,0,
543,500909,NORTHERN BL/CORPORAL KENNEDY ST,,40.759151,-73.774254,,,0,
544,500910,NORTHERN BL/CLEARVIEW EP,,40.758446,-73.776871,,,0,
545,500911,NORTHERN BL/204 ST,,40.757759,-73.779747,,,0,
546,500912,NORTHERN BL/202 ST,,40.757709999999996,-73.781548,,,0,
547,500913,NORTHERN BL/FRANCIS LEWIS BL,,40.757793,-73.78335600000001,,,0,
548,500914,NORTHERN BL/196 ST,,40.758072,-73.786079,,,0,
549,500915,NORTHERN BL/194 ST,,40.757984,-73.788025,,,0,
550,500916,NORTHERN BL/192 ST,,40.757931,-73.789864,,,0,
551,500917,NORTHERN BL/189 ST,,40.757862,-73.792564,,,0,
552,500918,NORTHERN BL/172 ST,,40.757828,-73.79441800000001,,,0,
553,500919,NORTHERN BL/171 ST,,40.758327,-73.79615799999999,,,0,
554,500920,NORTHERN BL/169 ST,,40.758987,-73.797966,,,0,
555,500921,NORTHERN BL/167 ST,,40.759640000000005,-73.799759,,,0,
556,500922,SANFORD AV/165 ST,,40.760048,-73.802139,,,0,
557,500923,SANFORD AV/162 ST,,40.76041,-73.80439799999999,,,0,
558,500924,SANFORD AV/160 ST,,40.760754,-73.80624399999999,,,0,
559,500925,SANFORD AV/158 ST,,40.761093,-73.808037,,,0,
560,500926,SANFORD AV/156 ST,,40.761398,-73.809898,,,0,
561,500927,SANFORD AV/MURRAY ST,,40.761086,-73.81268299999999,,,0,
562,500929,SANFORD AV/149 ST,,40.760319,-73.815529,,,0,
563,500930,SANFORD AV/147 ST,,40.759724,-73.817734,,,0,
564,500931,SANFORD AV/PARSONS BL,,40.758784999999996,-73.821205,,,0,
565,500939,LITTLE NECK PY/87 AV,,40.731274,-73.71086899999999,,,0,
566,500940,LITTLE NECK PY/86 AV,,40.73283,-73.711388,,,0,
567,500941,LITTLE NECK PY/85 AV,,40.734535,-73.712502,,,0,
568,500942,LITTLE NECK PY/HILLSIDE AV,,40.736542,-73.713669,,,0,
569,500943,LITTLE NECK PY/83 AV,,40.738224,-73.714722,,,0,
570,500945,LITTLE NECK PY/81 AV,,40.741989000000004,-73.716583,,,0,
571,500946,LITTLE NECK PY/80 AV,,40.743809000000006,-73.717392,,,0,
572,500947,LITTLE NECK PY/75 AV,,40.745712,-73.718254,,,0,
573,500948,LITTLE NECK PY/74 AV,,40.747303,-73.718849,,,0,
574,500949,LITTLE NECK PY/73 RD,,40.749733,-73.71994000000001,,,0,
575,500950,LITTLE NECK PY/260 ST,,40.751801,-73.72087900000001,,,0,
576,500951,LITTLE NECK PY/GRAND CENTRAL PY,,40.754425,-73.72303000000001,,,0,
577,500952,LITTLE NECK PY/255 ST,,40.756671999999995,-73.722603,,,0,
578,500953,LITTLE NECK PY/61 AV,,40.7593,-73.722504,,,0,
579,500954,LITTLE NECK PY/58 AV,,40.761784000000006,-73.723061,,,0,
580,500955,LITTLE NECK PY/HORACE HARDING EXP,,40.764896,-73.724304,,,0,
581,500956,LITTLE NECK PY/LEEDS RD,,40.767212,-73.727654,,,0,
582,500957,LITTLE NECK PY/BATES RD,,40.768444,-73.729683,,,0,
583,500958,LITTLE NECK PY/ANNANDALE LA,,40.769138,-73.731567,,,0,
584,500959,LITTLE NECK PY/WEST END DR,,40.770336,-73.733932,,,0,
585,500960,LITTLE NECK PY/NORTHERN BL,,40.770775,-73.73593100000001,,,0,
586,500961,LITTLE NECK PY/43 AV,,40.770813000000004,-73.737762,,,0,
587,500962,41 AV/LITTLE NECK PY,,40.772587,-73.741127,,,0,
588,500963,40 AV/LITTLE NECK PY,,40.773129,-73.741417,,,0,
589,500965,LITTLE NECK PY/MARATHON PY,,40.770683,-73.73838,,,0,
590,500967,LITTLE NECK PY/WEST END DR,,40.769802,-73.73288000000001,,,0,
591,500968,LITTLE NECK PY/ANNANDALE LA,,40.768913,-73.731262,,,0,
592,500969,LITTLE NECK PY/BRATTLE AV,,40.767703999999995,-73.72910300000001,,,0,
593,500970,LITTLE NECK PY/LEEDS RD,,40.766827,-73.72718,,,0,
594,500971,LITTLE NECK PY/NASSAU BL,,40.764912,-73.72451,,,0,
595,500973,LITTLE NECK PY/58 AV,,40.761555,-73.723206,,,0,
596,500974,LITTLE NECK PY/60 AV,,40.759747,-73.722771,,,0,
597,500975,LITTLE NECK PY/61 AV,,40.75816,-73.722572,,,0,
598,500976,LITTLE NECK PY/CULLMAN AV,,40.755512,-73.72328900000001,,,0,
599,500977,LITTLE NECK PY/GRAND CENTRAL PY,,40.753116999999996,-73.722397,,,0,
600,500978,LITTLE NECK PY/252 ST,,40.752098,-73.721252,,,0,
601,500979,LITTLE NECK PY/73 RD,,40.749522999999996,-73.720108,,,0,
602,500980,LITTLE NECK PY/74 AV,,40.746990000000004,-73.719101,,,0,
603,500981,LITTLE NECK PY/SHILOH AV,,40.745708,-73.718529,,,0,
604,500982,LITTLE NECK PY/UNION TP,,40.744106,-73.717812,,,0,
605,500983,LITTLE NECK PY/81 AV,,40.741318,-73.71656,,,0,
606,500984,LITTLE NECK PY/82 AV,,40.739952,-73.715958,,,0,
607,500985,LITTLE NECK PY/83 AV,,40.737392,-73.714775,,,0,
608,500986,LITTLE NECK PY/HILLSIDE AV,,40.736271,-73.714111,,,0,
609,500987,LITTLE NECK PY/85 AV,,40.733871,-73.712448,,,0,
610,500988,LITTLE NECK PY/86 AV,,40.732166,-73.711487,,,0,
611,500989,LITTLE NECK PY/87 AV,,40.7295,-73.710823,,,0,
612,500994,MAIN ST/NORTHERN BL,,40.762703,-73.831673,,,0,
613,500995,NORTHERN BL/UNION ST,,40.763874,-73.82772800000001,,,0,
614,500996,NORTHERN BL/BOWNE ST,,40.764309000000004,-73.825462,,,0,
615,500997,NORTHERN BL/PARSONS BL,,40.764606,-73.822975,,,0,
616,500999,NORTHERN BL/149 ST,,40.765240000000006,-73.816826,,,0,
617,501000,NORTHERN BL/150 ST,,40.765171,-73.815292,,,0,
618,501001,NORTHERN BL/MURRAY ST,,40.764862,-73.8125,,,0,
619,501004,NORTHERN BL/157 ST,,40.763560999999996,-73.807861,,,0,
620,501005,NORTHERN BL/159 ST,,40.762955,-73.806053,,,0,
621,501007,NORTHERN BL/163 ST,,40.761089,-73.802589,,,0,
622,501008,NORTHERN BL/166 ST,,40.759479999999996,-73.799934,,,0,
623,501023,BELL BL/NORTHERN BL,,40.760567,-73.769432,,,0,
624,501024,BELL BL/42 AV,,40.762985,-73.770554,,,0,
625,501025,BELL BL/40 AV,,40.764565000000005,-73.771385,,,0,
626,501026,BELL BL/38 AV,,40.766472,-73.77241500000001,,,0,
627,501027,BELL BL/36 AV,,40.767944,-73.773155,,,0,
628,501030,BELL BL/33 AV,,40.772419,-73.774467,,,0,
629,501031,BELL BL/32 AV,,40.773567,-73.774712,,,0,
630,501032,BELL BL/29 AV,,40.775653999999996,-73.775162,,,0,
631,501033,BELL BL/28 AV,,40.777367,-73.775536,,,0,
632,501035,BELL BL/24 AV,,40.779216999999996,-73.775482,,,0,
633,501037,BELL BL/23 AV,,40.782776,-73.776634,,,0,
634,501038,BELL BL/18 AV,,40.78389,-73.777428,,,0,
635,501039,BELL BL/16 AV,,40.785744,-73.778778,,,0,
636,501040,BELL BL/14 AV,,40.78812,-73.780807,,,0,
637,501041,BELL BL/212 ST,,40.788715,-73.782074,,,0,
638,501044,BELL BL/212 ST,,40.788082,-73.78109,,,0,
639,501045,BELL BL/14 AV,,40.787594,-73.780457,,,0,
640,501046,BELL BL/16 AV,,40.785156,-73.778603,,,0,
641,501047,BELL BL/18 AV,,40.783485,-73.777466,,,0,
642,501048,BELL BL/23 AV,,40.782101000000004,-73.77640500000001,,,0,
643,501049,BELL BL/24 AV,,40.779846,-73.77550500000001,,,0,
644,501050,BELL BL/28 AV,,40.7771,-73.775635,,,0,
645,501051,BELL BL/29 AV,,40.774978999999995,-73.775177,,,0,
646,501052,BELL BL/32 AV,,40.773742999999996,-73.77490999999999,,,0,
647,501053,BELL BL/33 AV,,40.771763,-73.77449,,,0,
648,501054,BELL BL/33 RD,,40.770702,-73.774261,,,0,
649,501055,BELL BL/35 AV,,40.76862,-73.773689,,,0,
650,501056,BELL BL/38 AV,,40.768078,-73.773415,,,0,
651,501057,BELL BL/39 AV,,40.764973,-73.771835,,,0,
652,501058,BELL BL/41 AV,,40.763283,-73.77091999999999,,,0,
653,501059,BELL BL/43 AV,,40.761505,-73.770096,,,0,
654,501060,BELL BL/NORTHERN BL,,40.760387,-73.769577,,,0,
655,501075,NORTHERN BL/165 ST,,40.760529,-73.801468,,,0,
656,501076,NORTHERN BL/STATION RD,,40.761459,-73.802711,,,0,
657,501077,NORTHERN BL/161 ST,,40.762828999999996,-73.80501600000001,,,0,
658,501078,NORTHERN BL/159 ST,,40.763443,-73.806839,,,0,
659,501079,NORTHERN BL/157 ST,,40.764027,-73.808617,,,0,
660,501080,NORTHERN BL/154 ST,,40.764877,-73.81144,,,0,
661,501081,NORTHERN BL/MURRAY ST,,40.765228,-73.813377,,,0,
662,501082,NORTHERN BL/150 ST,,40.76535,-73.815002,,,0,
663,501083,NORTHERN BL/149 ST,,40.765423,-73.817863,,,0,
664,501084,NORTHERN BL/147 ST,,40.765182,-73.819885,,,0,
665,501085,NORTHERN BL/PARSONS BL,,40.764671,-73.824158,,,0,
666,501086,NORTHERN BL/BOWNE ST,,40.764477,-73.825806,,,0,
667,501093,UNION ST/35 AV,,40.765246999999995,-73.827797,,,0,
668,501094,UNION ST/33 AV,,40.767864,-73.826813,,,0,
669,501095,UNION ST/BAYSIDE AV,,40.770008000000004,-73.82648499999999,,,0,
670,501096,UNION ST/28 AV,,40.773037,-73.82639300000001,,,0,
671,501097,UNION ST/26 AV,,40.774848999999996,-73.82605699999999,,,0,
672,501098,WILLETS PT BL/PARSONS BL,,40.776527,-73.82470699999999,,,0,
673,501110,150 ST/CROSS ISLAND PKY SVC RD S,,40.78759,-73.813271,,,0,
674,501111,150 ST/14 AV,,40.789146,-73.813858,,,0,
675,501112,150 ST/12 AV,,40.790657,-73.814461,,,0,
676,501113,150 ST/10 AV,,40.792728000000004,-73.815292,,,0,
677,501114,150 ST/8 AV,,40.794228000000004,-73.815887,,,0,
678,501115,7 AV/150 ST,,40.794815,-73.81575,,,0,
679,501118,150 ST/7 AV,,40.79446,-73.81611600000001,,,0,
680,501119,150 ST/9 AV,,40.792805,-73.81546,,,0,
681,501120,150 ST/11 AV,,40.791168,-73.81480400000001,,,0,
682,501122,150 ST/14 AV,,40.788494,-73.813744,,,0,
683,501135,UNION ST/25 RD,,40.775517,-73.826065,,,0,
684,501136,UNION ST/26 AV,,40.77412,-73.826447,,,0,
685,501137,UNION ST/28 AV,,40.772696999999994,-73.82663000000001,,,0,
686,501138,UNION ST/31 RD,,40.770252,-73.826645,,,0,
687,501139,UNION ST/33 AV,,40.76762,-73.82710300000001,,,0,
688,501140,UNION ST/35 AV,,40.765469,-73.827927,,,0,
689,501141,UNION ST/NORTHERN BL,,40.764202000000004,-73.828171,,,0,
690,501148,41 AV/PARSONS BL,,40.760578,-73.821129,,,0,
691,501149,41 AV/147 ST,,40.761517,-73.817665,,,0,
692,501150,41 AV/149 ST,,40.762122999999995,-73.815445,,,0,
693,501152,150 ST/ROOSEVELT AV,,40.763992,-73.81450699999999,,,0,
694,501153,150 ST/NORTHERN BL,,40.765633,-73.815117,,,0,
695,501154,150 ST/34 AV,,40.767821999999995,-73.81536899999999,,,0,
696,501155,150 ST/33 AV,,40.769249,-73.815529,,,0,
697,501156,150 ST/BAYSIDE AV,,40.771412,-73.815781,,,0,
698,501157,150 ST/29 AV,,40.772533,-73.81551400000001,,,0,
699,501158,150 ST/27 AV,,40.773926,-73.81517,,,0,
700,501159,150 ST/25 DR,,40.775337,-73.814941,,,0,
701,501160,150 ST/24 RD,,40.776756,-73.814751,,,0,
702,501161,150 ST/23 AV,,40.778209999999994,-73.814552,,,0,
703,501162,150 ST/21 AV,,40.780155,-73.814285,,,0,
704,501163,150 ST/20 AV,,40.781578,-73.814087,,,0,
705,501164,150 ST/18 AV,,40.783001,-73.813896,,,0,
706,501165,150 ST/17 AV,,40.784420000000004,-73.813698,,,0,
707,501166,150 ST/15 DR,,40.7855,-73.81356,,,0,
708,501172,CROSS ISLAND PKY/CLINTONVILLE ST,,40.786304,-73.80954,,,0,
709,501174,154 ST/CRYDERS LA,,40.786934,-73.807823,,,0,
710,501175,154 ST/14 AV,,40.789757,-73.80749499999999,,,0,
711,501176,154 ST/12 RD,,40.791157,-73.807304,,,0,
712,501177,154 ST/11 AV,,40.792183,-73.807167,,,0,
713,501184,166 ST/POWELLS COVE BL,,40.793839,-73.79742399999999,,,0,
714,501189,POWELLS COVE BL/162 ST,,40.794189,-73.79948399999999,,,0,
715,501190,POWELLS COVE BL/160 ST,,40.794338,-73.8013,,,0,
716,501195,154 ST/12 RD,,40.790565,-73.807549,,,0,
717,501196,154 ST/14 AV,,40.789139,-73.807808,,,0,
718,501197,154 ST/CROSS ISLAND PY,,40.787098,-73.808075,,,0,
719,501198,CROSS ISLAND PKY/CLINTONVILLE ST,,40.787167,-73.810165,,,0,
720,501199,CROSS ISLAND PY/150 PL,,40.787357,-73.811729,,,0,
721,501201,150 ST/16 RD,,40.784542,-73.813828,,,0,
722,501202,150 ST/17 RD,,40.783112,-73.814026,,,0,
723,501203,150 ST/19 AV,,40.7817,-73.814224,,,0,
724,501204,150 ST/20 RD,,40.780273,-73.814415,,,0,
725,501205,150 ST/22 AV,,40.778584,-73.814651,,,0,
726,501210,150 ST/BAYSIDE AV,,40.771175,-73.815926,,,0,
727,501211,150 ST/33 AV,,40.76865,-73.815636,,,0,
728,501212,150 ST/34 AV,,40.767227,-73.815475,,,0,
729,501213,150 ST/35 AV,,40.766083,-73.81534599999999,,,0,
730,501214,150 ST/NORTHERN BL,,40.764915,-73.81513199999999,,,0,
731,501217,41 AV/149 ST,,40.762012,-73.816322,,,0,
732,501218,41 AV/147 ST,,40.761421,-73.818504,,,0,
733,501219,41 AV/PARSONS BL,,40.760479,-73.822006,,,0,
734,501232,BAYSIDE AV/PARSONS BL,,40.770424,-73.82423399999999,,,0,
735,501233,BAYSIDE AV/146 ST,,40.770824,-73.821457,,,0,
736,501234,BAYSIDE AV/148 ST,,40.771332,-73.817924,,,0,
737,501235,BAYSIDE AV/150 ST,,40.771460999999995,-73.815453,,,0,
738,501236,BAYSIDE AV/MURRAY LA,,40.771503,-73.81366700000001,,,0,
739,501237,BAYSIDE AV/152 ST,,40.771522999999995,-73.811607,,,0,
740,501238,BAYSIDE AV/154 ST,,40.771526,-73.80963100000001,,,0,
741,501239,29 AV/156 ST,,40.771415999999995,-73.80825,,,0,
742,501240,29 AV/158 ST,,40.771152,-73.806412,,,0,
743,501241,29 AV/160 ST,,40.771053,-73.804039,,,0,
744,501242,29 AV/162 ST,,40.771111,-73.80214699999999,,,0,
745,501243,29 AV/164 ST,,40.771004,-73.800758,,,0,
746,501246,29 AV/170 ST,,40.770565000000005,-73.795158,,,0,
747,501247,29 AV/FRANCIS LEWIS BL,,40.770428,-73.793297,,,0,
748,501248,FRANCIS LEWIS BL/28 AV,,40.771805,-73.794235,,,0,
749,501249,FRANCIS LEWIS BL/27 AV,,40.772628999999995,-73.795067,,,0,
750,501250,UTOPIA PY/26 AV,,40.774296,-73.792679,,,0,
751,501251,UTOPIA PY/24 AV,,40.775723,-73.792961,,,0,
752,501252,UTOPIA PY/22 AV,,40.777336,-73.79328199999999,,,0,
753,501253,UTOPIA PY/21 AV,,40.779049,-73.79361,,,0,
754,501254,UTOPIA PY/19 AV,,40.780781,-73.793953,,,0,
755,501255,UTOPIA PY/17 AV,,40.78257,-73.794304,,,0,
756,501256,UTOPIA PY/16 AV,,40.783955,-73.794579,,,0,
757,501257,FRANCIS LEWIS BL/169 ST,,40.77343,-73.796143,,,0,
758,501258,FRANCIS LEWIS BL/25 AV,,40.774689,-73.797928,,,0,
759,501259,FRANCIS LEWIS BL/24 AV,,40.776215,-73.79929399999999,,,0,
760,501260,FRANCIS LEWIS BL/163 ST,,40.778023,-73.800827,,,0,
761,501261,FRANCIS LEWIS BL/WILLETS PT BL,,40.780121,-73.802254,,,0,
762,501262,WILLETS PT BL/19 AV,,40.781269,-73.80119300000001,,,0,
763,501263,WILLETS PT BL/163-54 WILLETS POINT BL,,40.782295,-73.800064,,,0,
764,501264,WILLETS PT BL/17 AV,,40.783234,-73.79890400000001,,,0,
765,501265,WILLETS PT BL/15 DR,,40.784855,-73.796684,,,0,
766,501266,WILLETS PT BL/UTOPIA PY,,40.785763,-73.795204,,,0,
767,501267,CROSS ISLAND PKWY/201 ST,,40.786308,-73.793335,,,0,
768,501268,CROSS ISLAND PKWY/GOLF COURSE,,40.787265999999995,-73.791512,,,0,
769,501269,CROSS ISLAND PKWY/BAYRIDGE CONDO,,40.788754,-73.787811,,,0,
770,501270,CROSS ISLAND PKWY/208 PL,,40.788742,-73.78456899999999,,,0,
771,501273,UTOPIA PY/16 AV,,40.783733000000005,-73.79480699999999,,,0,
772,501275,UTOPIA PY/19 AV,,40.780105999999996,-73.79409799999999,,,0,
773,501276,UTOPIA PY/21 RD,,40.777515,-73.79357900000001,,,0,
774,501278,UTOPIA PY/24 AV,,40.775180999999996,-73.793121,,,0,
775,501279,UTOPIA PY/25 AV,,40.77412,-73.792908,,,0,
776,501281,CROSS ISLAND PKWY/208 PL,,40.788853,-73.785057,,,0,
777,501282,CROSS ISLAND PKWY/BAYRIDGE CONDO,,40.788895000000004,-73.787788,,,0,
778,501283,CROSS ISLAND PKWY/GOLF COURSE,,40.787262,-73.791847,,,0,
779,501284,CROSS ISLE PY/UTOPIA PY,,40.785934000000005,-73.794907,,,0,
780,501285,WILLETS PT BL/CROSS ISLE PY SR S,,40.784451000000004,-73.797478,,,0,
781,501286,WILLETS PT BL/17 AV,,40.782742,-73.799789,,,0,
782,501287,WILLETS PT BL/160-57 WILLETS PT BL,,40.782013,-73.80062099999999,,,0,
783,501288,FRANCIS LEWIS BL/WILLETS PT BL,,40.779736,-73.80246,,,0,
784,501289,FRANCIS LEWIS BL/21 AV,,40.778587,-73.801704,,,0,
785,501290,FRANCIS LEWIS BL/163 ST,,40.777054,-73.80043,,,0,
786,501291,FRANCIS LEWIS BL/24 AV,,40.775703,-73.799171,,,0,
787,501292,FRANCIS LEWIS BL/25 AV,,40.774165999999994,-73.79780600000001,,,0,
788,501293,FRANCIS LEWIS BL/168 ST,,40.77319,-73.796196,,,0,
789,501294,FRANCIS LEWIS BL/169 ST,,40.772587,-73.795296,,,0,
790,501295,FRANCIS LEWIS BL/170 ST,,40.771721,-73.79451800000001,,,0,
791,501296,29 AV/171 ST,,40.770579999999995,-73.793983,,,0,
792,501297,29 AV/169 ST,,40.770733,-73.79586,,,0,
793,501298,29 AV/167 ST,,40.770916,-73.798233,,,0,
794,501299,29 AV/165 ST,,40.771060999999996,-73.800095,,,0,
795,501301,29 AV/161 ST,,40.771187,-73.803841,,,0,
796,501302,29 AV/159 ST,,40.771190999999995,-73.805748,,,0,
797,501303,29 AV/157 ST,,40.771431,-73.807594,,,0,
798,501304,BAYSIDE AV/154 ST,,40.771656,-73.810516,,,0,
799,501305,BAYSIDE AV/MURRAY ST,,40.771629,-73.81309499999999,,,0,
800,501306,BAYSIDE AV/150 ST,,40.771564,-73.815697,,,0,
801,501307,BAYSIDE AV/149 ST,,40.771522999999995,-73.817444,,,0,
802,501308,BAYSIDE AV/148 ST,,40.77129,-73.819122,,,0,
803,501309,BAYSIDE AV/146 ST,,40.770809,-73.822311,,,0,
804,501310,BAYSIDE AV/PARSONS BL,,40.770386,-73.825127,,,0,
805,501311,BAYSIDE AV/UNION ST,,40.770199,-73.826408,,,0,
806,501318,165 ST/TERMINAL,,40.707832,-73.795425,,,0,
807,501320,HILLSIDE AV/168 PL,,40.710407000000004,-73.793472,,,0,
808,501324,HILLSIDE AV/178 ST,,40.712276,-73.784935,,,0,
809,501328,188 ST/87 DR,,40.715709999999994,-73.77379599999999,,,0,
810,501329,188 ST/HENLEY RD,,40.717781,-73.774796,,,0,
811,501330,188 ST/SOHO DR,,40.719440000000006,-73.77559699999999,,,0,
812,501331,188 ST/MCLAUGHLIN AV,,40.721291,-73.776489,,,0,
813,501332,188 ST/AVON RD,,40.723587,-73.778122,,,0,
814,501333,188 ST/ABERDEEN RD,,40.726147,-73.77963299999999,,,0,
815,501334,188 ST/81 AV,,40.727757000000004,-73.780388,,,0,
816,501335,188 ST/UNION TP,,40.729084,-73.781006,,,0,
817,501336,188 ST/75 AV,,40.731552,-73.782173,,,0,
818,501337,188 ST/73 AV,,40.733028000000004,-73.782875,,,0,
819,501338,188 ST/69 AV,,40.735607,-73.78392,,,0,
820,501339,188 ST/64 AV,,40.739025,-73.785461,,,0,
821,501340,188 ST/HORACE HARDING EP,,40.740543,-73.786415,,,0,
822,501341,HORACE HARDING EXP/188 ST,,40.741035,-73.787315,,,0,
823,501342,HORACE HARDING EXP/185 ST,,40.740452000000005,-73.789452,,,0,
824,501343,HORACE HARDING EXP/183 ST,,40.739834,-73.79169499999999,,,0,
825,501345,HORACE HARDING EXP/FRESH MEADOW LA,,40.738566999999996,-73.796829,,,0,
826,501346,HORACE HARDING EXP/170 ST,,40.738541,-73.7995,,,0,
827,501347,HORACE HARDING EXP/168 ST,,40.738609000000004,-73.801292,,,0,
828,501348,HORACE HARDING EXP/164 ST,,40.738728,-73.804466,,,0,
829,501349,HORACE HARDING EXP/162 ST,,40.738876,-73.806976,,,0,
830,501350,HORACE HARDING EXP/160 ST,,40.738857,-73.808815,,,0,
831,501351,HORACE HARDING EXP/PARSONS BL,,40.738937,-73.810799,,,0,
832,501352,HORACE HARDING EXP/156 ST,,40.73901,-73.812675,,,0,
833,501353,KISSENA BL/HORACE HARDING EP,,40.739498,-73.81501,,,0,
834,501355,KISSENA BL/58 AV,,40.7425,-73.81435400000001,,,0,
835,501356,KISSENA BL/ROSE AV,,40.746421999999995,-73.814362,,,0,
836,501357,KISSENA BL/POPLAR AV,,40.747516999999995,-73.815567,,,0,
837,501358,KISSENA BL/NEGUNDO AV,,40.748543,-73.81675,,,0,
838,501360,KISSENA BL/HOLLY AV,,40.750893,-73.819305,,,0,
839,501361,KISSENA BL/45 AV,,40.752541,-73.82103000000001,,,0,
840,501362,KISSENA BL/CHERRY AV,,40.754162,-73.823006,,,0,
841,501363,KISSENA BL/ASH AV,,40.755127,-73.82415,,,0,
842,501364,KISSENA BL/MAPLE AV,,40.756347999999996,-73.825638,,,0,
843,501365,KISSENA BL/SANFORD AV,,40.757469,-73.827545,,,0,
844,501368,MAIN ST/ROOSEVELT AV,,40.759644,-73.830299,,,0,
845,501369,KISSENA BL/MAIN ST,,40.757919,-73.828629,,,0,
846,501370,KISSENA BL/SANFORD AV,,40.756908,-73.826851,,,0,
847,501371,KISSENA BL/FRANKLIN AV,,40.755157000000004,-73.824455,,,0,
848,501372,KISSENA BL/BEECH AV,,40.754383000000004,-73.82354000000001,,,0,
849,501373,KISSENA BL/ELDER AV,,40.752857,-73.821724,,,0,
850,501374,KISSENA BL/45 AV,,40.751942,-73.820663,,,0,
851,501377,KISSENA BL/MULBERRY AV,,40.748482,-73.81691,,,0,
852,501378,KISSENA BL/OAK AV,,40.747482,-73.81579599999999,,,0,
853,501379,KISSENA BL/ROSE AV,,40.746159000000006,-73.814316,,,0,
854,501380,KISSENA BL/BOOTH MEMORIAL,,40.742706,-73.814491,,,0,
855,501382,KISSENA BL/60 AV,,40.739651,-73.815224,,,0,
856,501383,HORACE HARDING EXP/KISSENA BL,,40.738392,-73.813362,,,0,
857,501384,HORACE HARDING EXP/156 ST,,40.738327000000005,-73.811897,,,0,
858,501385,HORACE HARDING EXP/PARSONS BL,,40.738258,-73.809967,,,0,
859,501386,HORACE HARDING EXP/160 ST,,40.73819,-73.80806700000001,,,0,
860,501387,HORACE HARDING EXP/162 ST,,40.738116999999995,-73.806206,,,0,
861,501388,HORACE HARDING EXP/164 ST,,40.738037,-73.804138,,,0,
862,501389,HORACE HARDING EXP/166 ST,,40.737999,-73.80233,,,0,
863,501390,HORACE HARDING EXP/168 ST,,40.737934,-73.800529,,,0,
864,501391,HORACE HARDING EXP/170 ST,,40.737869,-73.798721,,,0,
865,501392,HORACE HARDING EXP/172 ST,,40.737797,-73.796921,,,0,
866,501393,HORACE HARDING EXP/64 AV,,40.738171,-73.79528,,,0,
867,501394,HORACE HARDING EXP/UTOPIA PY,,40.739005999999996,-73.792229,,,0,
868,501395,HORACE HARDING EXP/183 ST,,40.739452,-73.79061899999999,,,0,
869,501396,HORACE HARDING EXP/186 ST,,40.740177,-73.787971,,,0,
870,501397,188 ST/HORACE HARDING EXP,,40.740276,-73.786552,,,0,
871,501398,188 ST/64 AV,,40.738735,-73.785957,,,0,
872,501399,188 ST/186 LA #1,,40.736221,-73.784653,,,0,
873,501400,188 ST/186 LA #2,,40.734085,-73.783585,,,0,
874,501401,188 ST/73 AV,,40.732777,-73.782967,,,0,
875,501402,188 ST/75 AV,,40.730934000000005,-73.782089,,,0,
876,501403,188 ST/UNION TP,,40.729335999999996,-73.781334,,,0,
877,501404,188 ST/80 RD,,40.728081,-73.780746,,,0,
878,501405,188 ST/PERTH RD,,40.726089,-73.7798,,,0,
879,501406,188 ST/MIDLAND PY,,40.724628,-73.778976,,,0,
880,501407,188 ST/AVON RD,,40.722972999999996,-73.777962,,,0,
881,501408,188 ST/GRAND CENTRAL PY,,40.721252,-73.77664200000001,,,0,
882,501409,188 ST/HENLEY RD,,40.718395,-73.775246,,,0,
883,501410,188 ST/WEXFORD TER,,40.715519,-73.773872,,,0,
884,501414,HILLSIDE AV/179 ST SUBWAY,,40.712849,-73.783455,,,0,
885,501419,HILLSIDE AV/169 ST,,40.710716,-73.793091,,,0,
886,501422,170 ST/JAMAICA AV,,40.707561,-73.789856,,,0,
887,501424,HOMELAWN ST/HIGHLAND AV,,40.712856,-73.793243,,,0,
888,501426,HOMELAWN ST/ASPEN PL,,40.715946,-73.792435,,,0,
889,501427,HOMELAWN ST/CROYDON RD,,40.717712,-73.792076,,,0,
890,501428,HOMELAWN ST/CHARLECOTE RIDGE,,40.718559,-73.791298,,,0,
891,501430,UTOPIA PY/KILDARE RD,,40.721695000000004,-73.79016899999999,,,0,
892,501431,UTOPIA PY/80 DR,,40.724506,-73.790947,,,0,
893,501433,UTOPIA PY/76 AV,,40.727123,-73.792152,,,0,
894,501434,UTOPIA PY/75 AV,,40.728783,-73.792847,,,0,
895,501435,UTOPIA PY/73 AV,,40.730396,-73.793533,,,0,
896,501436,UTOPIA PY/JEWEL AV,,40.731559999999995,-73.793671,,,0,
897,501437,UTOPIA PY/69 AV,,40.733089,-73.79319,,,0,
898,501438,UTOPIA PY/67 AV,,40.735191,-73.793053,,,0,
899,501439,UTOPIA PY/65 AV,,40.736683,-73.792946,,,0,
900,501441,UTOPIA PY/HORACE HARDING EXP,,40.7388,-73.79280899999999,,,0,
901,501444,HORACE HARDING EXP/188 ST,,40.740688,-73.786102,,,0,
902,501445,HORACE HARDING EXP/190 ST,,40.74118,-73.784317,,,0,
903,501447,HORACE HARDING EXP/194 ST,,40.741904999999996,-73.78166999999999,,,0,
904,501448,HORACE HARDING EXP/PECK AV,,40.742278999999996,-73.780128,,,0,
905,501449,HORACE HARDING EXP/FRANCIS LEWIS BL,,40.74292,-73.775795,,,0,
906,501450,HORACE HARDING EXP/OCEANIA ST,,40.745594,-73.76718100000001,,,0,
907,501451,HORACE HARDING EXP/211 ST,,40.746078000000004,-73.765411,,,0,
908,501452,HORACE HARDING EXP/214 ST,,40.746807000000004,-73.76275600000001,,,0,
909,501453,HORACE HARDING EXP/BELL BL,,40.747355999999996,-73.76087199999999,,,0,
910,501454,HORACE HARDING EXP/218 ST,,40.748020000000004,-73.759232,,,0,
911,501455,HORACE HARDING EXP/SPRINGFIELD BL,,40.748985,-73.756844,,,0,
912,501456,HORACE HARDING EXP/224 ST,,40.749851,-73.753357,,,0,
913,501457,HORACE HARDING EXP/CLOVERDALE BL,,40.750343,-73.750694,,,0,
914,501458,HORACE HARDING EXP/230 ST,,40.75095,-73.748001,,,0,
915,501460,DOUGLASTON PY/65 AV,,40.752968,-73.741455,,,0,
916,501462,HORACE HARDING EXP/DOUGLASTON PY,,40.756908,-73.73877,,,0,
917,501463,HORACE HARDING EXP/244 ST,,40.757996,-73.736977,,,0,
918,501464,HORACE HARDING EXP/246 CR,,40.758804,-73.73565699999999,,,0,
919,501465,HORACE HARDING EXP/246 PL,,40.759483,-73.734184,,,0,
920,501466,HORACE HARDING EXP/MARATHON PY,,40.760471,-73.7313,,,0,
921,501467,HORACE HARDING EXP/251 ST,,40.761749,-73.729279,,,0,
922,501468,HORACE HARDING EXP/254 ST,,40.763259999999995,-73.72627299999999,,,0,
923,501470,NASSAU BL/LITTLE NECK PY,,40.765076,-73.725037,,,0,
924,501471,NASSAU BL/LITTLE NECK PY,,40.764969,-73.72511300000001,,,0,
925,501472,HORACE HARDING EXP/254 ST,,40.763718,-73.727249,,,0,
926,501473,HORACE HARDING EXP/252 ST,,40.762828999999996,-73.728882,,,0,
927,501474,HORACE HARDING EXP/251 PL,,40.761951,-73.730278,,,0,
928,501475,HORACE HARDING EXP/MARATHON PY,,40.760746000000005,-73.732567,,,0,
929,501476,HORACE HARDING EXP/248 ST,,40.759659,-73.73532900000001,,,0,
930,501478,DOUGLASTON PY/61 AV,,40.755901,-73.739388,,,0,
931,501479,DOUGLASTON PY/65 AV,,40.752762,-73.741585,,,0,
932,501480,W ALLEY RD/233 ST,,40.751652,-73.74556,,,0,
933,501481,HORACE HARDING EXP/E HAMPTON BL,,40.752148,-73.74754300000001,,,0,
934,501482,HORACE HARDING EXP/229 ST,,40.751217,-73.749687,,,0,
935,501483,HORACE HARDING EXP/CLOVERDALE BL,,40.750851000000004,-73.751587,,,0,
936,501484,HORACE HARDING EXP/SPRINGFIELD BL,,40.749481,-73.75745400000001,,,0,
937,501486,HORACE HARDING EXP/BELL BL,,40.747681,-73.762047,,,0,
938,501487,HORACE HARDING EXP/213 ST,,40.746964,-73.764679,,,0,
939,501488,HORACE HARDING EXP/211 ST,,40.746479,-73.766426,,,0,
940,501489,HORACE HARDING EXP/OCEANIA ST,,40.745964,-73.768311,,,0,
941,501490,HORACE HARDING EXP/207 ST,,40.745483,-73.770065,,,0,
942,501492,HORACE HARDING EXP/202 ST,,40.744254999999995,-73.774536,,,0,
943,501493,HORACE HARDING EXP/FRANCIS LEWIS BL,,40.743697999999995,-73.776566,,,0,
944,501496,HORACE HARDING EXP/PECK AV,,40.742325,-73.782639,,,0,
945,501501,UTOPIA PY/HORACE HARDING EXP,,40.738514,-73.793098,,,0,
946,501502,UTOPIA PY/65 AV,,40.736027,-73.793266,,,0,
947,501503,UTOPIA PY/67 AV,,40.734161,-73.79338800000001,,,0,
948,501504,UTOPIA PY/69 AV,,40.732784,-73.79348,,,0,
949,501505,UTOPIA PY/JEWEL AV,,40.73093,-73.793976,,,0,
950,501506,UTOPIA PY/73 AV,,40.729694,-73.793518,,,0,
951,501507,UTOPIA PY/75 AV,,40.728107,-73.792847,,,0,
952,501508,UTOPIA PY/76 AV,,40.726807,-73.79229699999999,,,0,
953,501509,UTOPIA PY/UNION TP,,40.725914,-73.791924,,,0,
954,501510,UTOPIA PY/80 RD,,40.724979,-73.791527,,,0,
955,501511,UTOPIA PKY/ST. JOHNS UNIVERSITY,,40.723064,-73.790504,,,0,
956,501512,UTOPIA PKY/82 AV,,40.721077,-73.790428,,,0,
957,501513,UTOPIA PY/GRAND CENTRAL PY N,,40.719883,-73.790565,,,0,
958,501514,HOMELAWN ST/173 ST,,40.718475,-73.79167199999999,,,0,
959,501516,HOMELAWN ST/84 RD,,40.715931,-73.792633,,,0,
960,501517,HOMELAWN ST/GOTHIC DR,,40.714058,-73.793678,,,0,
961,501518,HOMELAWN ST/HIGHLAND AV,,40.712666,-73.79332,,,0,
962,501520,169 ST/89 AV,,40.709278000000005,-73.792274,,,0,
963,501530,PARSONS BL/CHERRY AV,,40.756847,-73.817635,,,0,
964,501531,PARSONS BL/ELM AV,,40.755978000000006,-73.816292,,,0,
965,501532,PARSONS BL/HAWTHORNE AV,,40.754738,-73.81437700000001,,,0,
966,501533,46 AV/PARSONS BL,,40.75415,-73.81295,,,0,
967,501534,46 AV/156 ST,,40.754124,-73.810112,,,0,
968,501535,46 AV/158 ST,,40.754013,-73.808739,,,0,
969,501536,46 AV/160 ST,,40.753859999999996,-73.806854,,,0,
970,501537,46 AV/162 ST,,40.753716,-73.80502299999999,,,0,
971,501538,46 AV/164 ST,,40.753632,-73.803093,,,0,
972,501539,46 AV/166 ST,,40.753677,-73.801216,,,0,
973,501540,46 AV/168 ST,,40.753777,-73.799324,,,0,
974,501541,46 AV/170 ST,,40.753822,-73.797394,,,0,
975,501542,46 AV/AUBURNDALE LA,,40.753440999999995,-73.794197,,,0,
976,501543,46 AV/UTOPIA PY,,40.752857,-73.791878,,,0,
977,501544,HOLLIS CT BL/190 ST,,40.752303999999995,-73.789963,,,0,
978,501545,HOLLIS CT BL/47 AV,,40.751518,-73.78849,,,0,
979,501548,HOLLIS CT BL/195 ST,,40.748631,-73.78409599999999,,,0,
980,501549,HOLLIS CT BL/53 AV,,40.747704,-73.78263100000001,,,0,
981,501550,HOLLIS CT BL/56 AV,,40.74646,-73.780441,,,0,
982,501551,HOLLIS CT BL/199 ST,,40.745499,-73.778687,,,0,
983,501554,HOLLIS CT BL/56 AV,,40.746655,-73.780495,,,0,
984,501555,HOLLIS CT BL/WEEKS LA,,40.748009,-73.78280600000001,,,0,
985,501556,HOLLIS CT BL/50 AV,,40.748829,-73.78407299999999,,,0,
986,501557,HOLLIS CT BL/194 ST,,40.750362,-73.786446,,,0,
987,501560,HOLLIS CT BL/190 ST,,40.752415,-73.78994,,,0,
988,501561,46 AV/UTOPIA PY,,40.753273,-73.792862,,,0,
989,501562,46 AV/AUBURNDALE LA,,40.753624,-73.794464,,,0,
990,501563,46 AV/171 ST,,40.753857,-73.796768,,,0,
991,501564,46 AV/169 ST,,40.753918,-73.798645,,,0,
992,501565,46 AV/167 ST,,40.753811,-73.800552,,,0,
993,501566,46 AV/164 ST,,40.753761,-73.802864,,,0,
994,501568,46 AV/160 ST,,40.753956,-73.80660999999999,,,0,
995,501569,46 AV/158 ST,,40.754143,-73.80900600000001,,,0,
996,501570,46 AV/156 ST,,40.754265000000004,-73.81088299999999,,,0,
997,501571,46 AV/149 ST,,40.754261,-73.81210300000001,,,0,
998,501573,PARSONS BL/45 AV,,40.755375,-73.81513199999999,,,0,
999,501574,PARSONS BL/CHERRY AV,,40.756972999999995,-73.817612,,,0,
1000,501575,PARSONS BL/BEECH AV,,40.757754999999996,-73.818825,,,0,
1001,501590,HOLLY AV/KISSENA BL,,40.750797,-73.818748,,,0,
1002,501591,HOLLY AV/ROBINSON ST,,40.751953,-73.816963,,,0,
1003,501592,HOLLY AV/SMART ST,,40.752838,-73.815613,,,0,
1004,501593,HOLLY AV/PARSONS BL,,40.754146999999996,-73.813591,,,0,
1005,501605,47 AV/193 ST,,40.751778,-73.787979,,,0,
1006,501606,47 AV/195 ST,,40.752483000000005,-73.786034,,,0,
1007,501608,47 AV/FRANCIS LEWIS BL,,40.753353000000004,-73.77999100000001,,,0,
1008,501610,ROCKY HILL RD/202 ST,,40.753353000000004,-73.778549,,,0,
1009,501611,ROCKY HILL RD/203 ST,,40.753215999999995,-73.77714499999999,,,0,
1010,501612,48 AV/206 ST,,40.753681,-73.774109,,,0,
1011,501613,48 AV/208 ST,,40.754329999999996,-73.772385,,,0,
1012,501617,48 AV/215 ST,,40.755733,-73.765709,,,0,
1013,501622,SPRINGFIELD BL/58 AV,,40.751053000000006,-73.757988,,,0,
1014,501623,SPRINGFIELD BL/HORACE HARDING EP,,40.749634,-73.757126,,,0,
1015,501624,SPRINGFIELD BL/HORACE HARDING EP,,40.748749,-73.756622,,,0,
1016,501625,SPRINGFIELD BL/64 AV,,40.747409999999995,-73.755951,,,0,
1017,501626,SPRINGFIELD BL/67 AV,,40.745262,-73.75489,,,0,
1018,501627,SPRINGFIELD BL/73 AV,,40.742496,-73.75361600000001,,,0,
1019,501628,SPRINGFIELD BL/75 AV,,40.740215,-73.751564,,,0,
1020,501629,SPRINGFIELD BL/76 AV,,40.739353,-73.749725,,,0,
1021,501630,SPRINGFIELD BL/77 AV,,40.738186,-73.74868000000001,,,0,
1022,501631,SPRINGFIELD BL/KINGSBURY AV,,40.737190000000005,-73.747772,,,0,
1023,501632,SPRINGFIELD BL/UNION TP,,40.735405,-73.746483,,,0,
1024,501633,SPRINGFIELD BL/223 ST,,40.733562,-73.74649000000001,,,0,
1025,501634,SPRINGFIELD BL/SAWYER AV,,40.730923,-73.746101,,,0,
1026,501635,SPRINGFIELD BL/HILLSIDE AV,,40.729965,-73.74498,,,0,
1027,501654,SPRINGFIELD BL/HILLSIDE AV,,40.730267,-73.745079,,,0,
1028,501655,SPRINGFIELD BL/SAWYER AV,,40.731173999999996,-73.746162,,,0,
1029,501656,SPRINGFIELD BL/GRAND CENTRAL PKWY,,40.734322,-73.74591099999999,,,0,
1030,501657,SPRINGFIELD BL/UNION TP,,40.73621,-73.746796,,,0,
1031,501658,SPRINGFIELD BL/KINGSBURY AV,,40.737759000000004,-73.748001,,,0,
1032,501659,SPRINGFIELD BL/76 AV,,40.739944,-73.75018299999999,,,0,
1033,501660,SPRINGFIELD BL/73 AV,,40.742264,-73.753304,,,0,
1034,501661,SPRINGFIELD BL/69 AV,,40.743408,-73.75383000000001,,,0,
1035,501662,SPRINGFIELD BL/67 AV,,40.745174,-73.754631,,,0,
1036,501663,SPRINGFIELD BL/64 AV,,40.747662,-73.75586700000001,,,0,
1037,501664,SPRINGFIELD BL/HORACE HARDING EXP S,,40.749008,-73.75655400000001,,,0,
1038,501665,SPRINGFIELD BL/HORACE HARDING EP N,,40.749866,-73.75708,,,0,
1039,501666,SPRINGFIELD BL/58 AV,,40.750423,-73.757622,,,0,
1040,501667,SPRINGFIELD BL/56 AV,,40.752354,-73.759148,,,0,
1041,501671,48 AV/216 ST,,40.755984999999995,-73.764717,,,0,
1042,501672,48 AV/215 ST,,40.755817,-73.76606,,,0,
1043,501673,48 AV/BELL BL,,40.755623,-73.7677,,,0,
1044,501674,48 AV/212 ST,,40.755219,-73.76949300000001,,,0,
1045,501675,48 AV/OCEANIA ST,,40.754513,-73.772293,,,0,
1046,501679,ROCKY HILL RD/202 ST,,40.753547999999995,-73.77941899999999,,,0,
1047,501680,47 AV/FRANCIS LEWIS BL,,40.753311,-73.780991,,,0,
1048,501681,47 AV/197 ST,,40.752949,-73.783386,,,0,
1049,501682,47 AV/196 ST,,40.75267,-73.785263,,,0,
1050,501684,47 AV/193 ST,,40.751938,-73.787758,,,0,
1051,501698,HOLLY AV/BURLING ST,,40.752978999999996,-73.81559,,,0,
1052,501699,HOLLY AV/BOWNE ST,,40.752078999999995,-73.816971,,,0,
1053,501719,NORTHERN BL/ROOSEVELT AV,,40.764091,-73.80954,,,0,
1054,501722,CROCHERON AV/162 ST,,40.762440000000005,-73.803818,,,0,
1055,501723,CROCHERON AV/164 ST,,40.762718,-73.801407,,,0,
1056,501724,CROCHERON AV/166 ST,,40.762836,-73.799477,,,0,
1057,501725,CROCHERON AV/168 ST,,40.762695,-73.7976,,,0,
1058,501726,CROCHERON AV/171 ST,,40.762867,-73.79474599999999,,,0,
1059,501727,CROCHERON AV/UTOPIA PY,,40.763134,-73.792816,,,0,
1060,501728,CROCHERON AV/192 ST,,40.763664,-73.789833,,,0,
1061,501730,FRANCIS LEWIS BL/35 AV,,40.76458,-73.788376,,,0,
1062,501731,FRANCIS LEWIS BL/34 AV,,40.766459999999995,-73.78969599999999,,,0,
1063,501732,FRANCIS LEWIS BL/33 AV,,40.767696,-73.790649,,,0,
1064,501733,FRANCIS LEWIS BL/32 RD,,40.768615999999994,-73.791451,,,0,
1065,501735,32 AV/202 ST,,40.770283,-73.787163,,,0,
1066,501736,32 AV/205 ST,,40.771060999999996,-73.784531,,,0,
1067,501737,32 AV/208 ST,,40.771828,-73.781952,,,0,
1068,501738,CORPORAL KENNEDY ST/32 AV,,40.772625,-73.780617,,,0,
1069,501739,CORPORAL KENNEDY ST/28 RD,,40.774803000000006,-73.781525,,,0,
1070,501741,CORPORAL KENNEDY ST/23 AV,,40.779049,-73.783051,,,0,
1071,501742,18 AV/211 ST,,40.781803000000004,-73.783562,,,0,
1072,501743,211 ST/18 AV,,40.781731,-73.78179200000001,,,0,
1073,501744,211 ST/23 AV,,40.779938,-73.78072399999999,,,0,
1074,501750,CORPORAL KENNEDY ST/28 AV,,40.774788,-73.781746,,,0,
1075,501751,CORPORAL KENNEDY ST/32 AV,,40.772213,-73.78041800000001,,,0,
1076,501754,32 AV/204 ST,,40.770835999999996,-73.785698,,,0,
1077,501755,32 AV/201 ST,,40.769901000000004,-73.788834,,,0,
1078,501756,32 AV/JORDAN ST,,40.769451000000004,-73.790314,,,0,
1079,501757,FRANCIS LEWIS BL/32 AV,,40.768639,-73.791824,,,0,
1080,501758,FRANCIS LEWIS BL/33 AV,,40.767025,-73.790436,,,0,
1081,501759,FRANCIS LEWIS BL/192 ST,,40.765827,-73.78958100000001,,,0,
1082,501760,FRANCIS LEWIS BL/35 AV,,40.764412,-73.788635,,,0,
1083,501761,CROCHERON AV/192 ST,,40.763626,-73.790657,,,0,
1084,501762,CROCHERON AV/UTOPIA PY,,40.763134,-73.793701,,,0,
1085,501763,CROCHERON AV/171 ST,,40.762882,-73.795532,,,0,
1086,501764,CROCHERON AV/169 ST,,40.762828999999996,-73.79692800000001,,,0,
1087,501765,CROCHERON AV/168 ST,,40.762859000000006,-73.798386,,,0,
1088,501766,CROCHERON AV/166 ST,,40.763011999999996,-73.800255,,,0,
1089,501767,CROCHERON AV/164 ST,,40.762679999999996,-73.802155,,,0,
1090,501804,UTOPIA PY/58 AV,,40.741627,-73.792587,,,0,
1091,501805,UTOPIA PY/56 AV,,40.743365999999995,-73.792511,,,0,
1092,501806,UTOPIA PY/50 AV,,40.744995,-73.792397,,,0,
1093,501807,UTOPIA PY/UNDERHILL AV,,40.746643,-73.79229000000001,,,0,
1094,501808,UTOPIA PY/48 AV,,40.748833000000005,-73.792152,,,0,
1095,501809,UTOPIA PY/47 AV,,40.750793,-73.792023,,,0,
1096,501811,UTOPIA PY/HOLLIS CT BL,,40.752876,-73.792213,,,0,
1097,501825,BELL BL/46 AV,,40.758587,-73.76831800000001,,,0,
1098,501832,35 AV/211 ST,,40.768570000000004,-73.776123,,,0,
1099,501847,CORPORAL KENNEDY ST/33 AV,,40.770679,-73.779839,,,0,
1100,501848,CORPORAL KENNEDY ST/35 AV,,40.768032,-73.778481,,,0,
1101,501850,35 AV/212 ST,,40.768524,-73.775726,,,0,
1102,501857,BELL BL/46 AV,,40.757931,-73.76823399999999,,,0,
1103,501871,UTOPIA PY/46 AV,,40.752701,-73.79244200000001,,,0,
1104,501872,UTOPIA PY/47 AV,,40.750183,-73.792328,,,0,
1105,501873,UTOPIA PY/FAIRCHILD AV,,40.748718,-73.792427,,,0,
1106,501874,UTOPIA PY/PIDGEON MEADOW RD,,40.747310999999996,-73.792511,,,0,
1107,501875,UTOPIA PY/PECK AV,,40.745396,-73.792641,,,0,
1108,501876,UTOPIA PY/50 AV,,40.744167,-73.792725,,,0,
1109,501877,UTOPIA PY/56 AV,,40.742443,-73.792839,,,0,
1110,501878,UTOPIA PY/BOOTH MEMORIAL AV,,40.740864,-73.792938,,,0,
1111,501903,HILLSIDE AV/169 ST,,40.710758,-73.792603,,,0,
1112,501908,HILLSIDE AV/180 ST,,40.713055,-73.781876,,,0,
1113,501924,212 PL/89 AV,,40.723704999999995,-73.75170899999999,,,0,
1114,501925,212 PL/90 AV,,40.721752,-73.749344,,,0,
1115,501926,212 PL/91 AV,,40.720721999999995,-73.748276,,,0,
1116,501927,212 PL/93 AV,,40.719021000000005,-73.74736,,,0,
1117,501928,212 PL/94 AV,,40.717232,-73.74638399999999,,,0,
1118,501929,212 PL/JAMAICA AV,,40.716072,-73.745773,,,0,
1119,501930,JAMAICA AV/213 ST,,40.716029999999996,-73.744865,,,0,
1120,501931,JAMAICA AV/214 PL,,40.716460999999995,-73.743011,,,0,
1121,501932,JAMAICA AV/215 ST,,40.71698,-73.740799,,,0,
1122,501933,JAMAICA AV/216 ST,,40.717521999999995,-73.738419,,,0,
1123,501934,JAMAICA AV/218 ST,,40.717827,-73.736908,,,0,
1124,501936,JAMAICA AV/220 ST,,40.718952,-73.73410799999999,,,0,
1125,501937,JAMAICA AV/222 ST,,40.720535,-73.731934,,,0,
1126,501938,JAMAICA AV/224 ST,,40.72168,-73.730721,,,0,
1127,501939,JAMAICA AV/240 ST,,40.723296999999995,-73.727257,,,0,
1128,501940,JAMAICA AV/MASSACHUSETTS BL,,40.725322999999996,-73.72045899999999,,,0,
1129,501941,JAMAICA AV/COMMONWEALTH BL,,40.725876,-73.718414,,,0,
1130,501942,JAMAICA AV/PENNSYLVANIA BL,,40.726397999999996,-73.715477,,,0,
1131,501945,257 ST/JAMAICA AV,,40.727818,-73.70871,,,0,
1132,501946,256 ST/JAMAICA AV,,40.727776,-73.708687,,,0,
1133,501947,JAMAICA AV/LITTLE NECK PY,,40.727268,-73.710991,,,0,
1134,501948,JAMAICA AV/250 ST,,40.726715000000006,-73.715363,,,0,
1135,501949,JAMAICA AV/COMMONWEALTH BL,,40.726036,-73.718742,,,0,
1136,501950,JAMAICA AV/91 AV,,40.725471,-73.720833,,,0,
1137,501951,JAMAICA AV/246 ST,,40.725037,-73.722466,,,0,
1138,501952,JAMAICA AV/BRADDOCK AV,,40.724655,-73.72399899999999,,,0,
1139,501953,JAMAICA AV/242 ST,,40.724037,-73.726074,,,0,
1140,501954,JAMAICA AV/239 ST,,40.723145,-73.7285,,,0,
1141,501955,JAMAICA AV/224 ST,,40.721458,-73.731323,,,0,
1142,501956,JAMAICA AV/222 ST,,40.720028000000006,-73.732811,,,0,
1143,501957,JAMAICA AV/SPRINGFIELD BL,,40.718716,-73.735046,,,0,
1144,501958,JAMAICA AV/218 ST,,40.717918,-73.737442,,,0,
1145,501959,JAMAICA AV/216 ST,,40.717529,-73.739334,,,0,
1146,501960,JAMAICA AV/215 ST,,40.717098,-73.741196,,,0,
1147,501961,JAMAICA AV/214 PL,,40.716590999999994,-73.743378,,,0,
1148,501962,JAMAICA AV/212 PL,,40.71627,-73.745018,,,0,
1149,501963,212 ST/94 AV,,40.717548,-73.747414,,,0,
1150,501964,212 ST/93 AV,,40.718959999999996,-73.748177,,,0,
1151,501965,212 ST/91 AV,,40.720535,-73.749031,,,0,
1152,501966,212 ST/90 AV,,40.72184,-73.75048100000001,,,0,
1153,501967,212 ST/89 AV,,40.723484,-73.75251,,,0,
1154,501994,177 ST/104 AV,,40.703922,-73.781631,,,0,
1155,501995,177 ST/106 AV,,40.702957,-73.780991,,,0,
1156,501996,POLHEMAS AV/WATSON PL,,40.702087,-73.782066,,,0,
1157,501997,FERN PL/REX RD,,40.700901,-73.781082,,,0,
1158,501998,174 ST/108 AV,,40.699787,-73.781853,,,0,
1159,501999,174 ST/109 AV,,40.698513,-73.780914,,,0,
1160,502000,174 ST/110 AV,,40.696915000000004,-73.77975500000001,,,0,
1161,502001,174 ST/111 AV,,40.695705,-73.77887,,,0,
1162,502002,111 AV/175 ST,,40.696059999999996,-73.777534,,,0,
1163,502003,111 AV/177 ST,,40.696537,-73.776344,,,0,
1164,502004,SAYRES AV/178 ST,,40.697410999999995,-73.77549,,,0,
1165,502005,SAYRES AV/179 ST,,40.698608,-73.77462,,,0,
1166,502006,SAYRES AV/180 ST,,40.699612,-73.77399399999999,,,0,
1167,502007,SAYRES AV/179 PL,,40.6991,-73.774498,,,0,
1168,502009,SAYRES AV/178 ST,,40.697117,-73.775925,,,0,
1169,502010,111 AV/177 ST,,40.696545,-73.77667199999999,,,0,
1170,502011,111 AV/175 ST,,40.695858,-73.778351,,,0,
1171,502012,174 ST/110 AV,,40.69751,-73.780045,,,0,
1172,502013,174 ST/109 AV,,40.699078,-73.781189,,,0,
1173,502014,174 ST/108 AV,,40.700008000000004,-73.781876,,,0,
1174,502015,REX RD/FERN PL,,40.700813000000004,-73.780937,,,0,
1175,502016,FERN PL/POLHEMAS AV,,40.701389,-73.782257,,,0,
1176,502017,106 AV/177 ST,,40.70282,-73.780968,,,0,
1177,502019,177 ST/LIBERTY AV,,40.705311,-73.782402,,,0,
1178,502030,SUTPHIN BL/JAMAICA AV,,40.70216,-73.807976,,,0,
1179,502031,SUTPHIN BL/89 AV,,40.703734999999995,-73.808662,,,0,
1180,502032,SUTPHIN BL/HILLSIDE AV,,40.705601,-73.80953199999999,,,0,
1181,502033,HILLSIDE AV/150 ST,,40.706497,-73.806671,,,0,
1182,502044,HILLSIDE AV/180 ST,,40.712856,-73.78270699999999,,,0,
1183,502045,HILLSIDE AV/181 ST,,40.713009,-73.781868,,,0,
1184,502065,HILLSIDE AV/88 AV,,40.731705,-73.741089,,,0,
1185,502067,HILLSIDE AV/231 ST,,40.732822,-73.739067,,,0,
1186,502069,HILLSIDE AV/WINCHESTER BL,,40.733376,-73.73575600000001,,,0,
1187,502070,HILLSIDE AV/RANGE ST,,40.732887,-73.73275799999999,,,0,
1188,502071,HILLSIDE AV/CREEDMOORE HOSPITAL,,40.732571,-73.731102,,,0,
1189,502072,HILLSIDE AV/239 ST,,40.733536,-73.725487,,,0,
1190,502073,HILLSIDE AV/241 ST,,40.733684999999994,-73.7248,,,0,
1191,502074,HILLSIDE AV/CROSS ISLAND PY,,40.733994,-73.72335799999999,,,0,
1192,502075,HILLSIDE AV/COMMONWEALTH BL,,40.734435999999995,-73.721298,,,0,
1193,502078,HILLSIDE AV/251 ST,,40.73555,-73.71611800000001,,,0,
1194,502079,HILLSIDE AV/LITTLE NECK PY,,40.736012,-73.713959,,,0,
1195,502080,HILLSIDE AV/256 ST,,40.736542,-73.71151,,,0,
1196,502081,HILLSIDE AV/259 ST,,40.737125,-73.708794,,,0,
1197,502082,HILLSIDE AV/261 ST,,40.737514000000004,-73.706978,,,0,
1198,502083,HILLSIDE AV/264 ST,,40.73811,-73.704201,,,0,
1199,502084,HILLSIDE AV/267 ST,,40.738701,-73.701454,,,0,
1200,502085,HILLSIDE AV/268 ST,,40.73877,-73.70186600000001,,,0,
1201,502086,HILLSIDE AV/266 ST,,40.738529,-73.703239,,,0,
1202,502087,HILLSIDE AV/264 ST,,40.738129,-73.705093,,,0,
1203,502088,HILLSIDE AV/261 ST,,40.737541,-73.70784,,,0,
1204,502091,HILLSIDE AV/LITTLE NECK PY,,40.736137,-73.714371,,,0,
1205,502092,HILLSIDE AV/251 ST,,40.735683,-73.716476,,,0,
1206,502095,HILLSIDE AV/COMMONWEALTH BL,,40.734562,-73.721687,,,0,
1207,502096,HILLSIDE AV/243 ST,,40.734047,-73.724083,,,0,
1208,502098,HILLSIDE AV/CREEDMORE HOSPITAL,,40.73275,-73.730476,,,0,
1209,502099,HILLSIDE AV/RANGE ST,,40.733154,-73.733017,,,0,
1210,502100,HILLSIDE AV/WINCHESTER BL,,40.733543,-73.735069,,,0,
1211,502102,HILLSIDE AV/231 ST,,40.73296,-73.739403,,,0,
1212,502103,HILLSIDE AV/229 ST,,40.732243,-73.741028,,,0,
1213,502104,HILLSIDE AV/MANOR RD,,40.730946,-73.743248,,,0,
1214,502115,HILLSIDE AV/202 ST,,40.719947999999995,-73.76236,,,0,
1215,502131,HILLSIDE AV/166 ST,,40.70966,-73.796318,,,0,
1216,502132,HILLSIDE AV/164 ST,,40.70892,-73.798927,,,0,
1217,502136,HILLSIDE AV/150 ST,,40.706615,-73.807014,,,0,
1218,502137,SUTPHIN BL/HILLSIDE AV,,40.705379,-73.809608,,,0,
1219,502138,SUTPHIN BL/90 AV,,40.703091,-73.808563,,,0,
1220,502139,SUTPHIN BL/JAMAICA AV,,40.701904,-73.808044,,,0,
1221,502145,JAMAICA AV/150 ST,,40.702228999999996,-73.80432900000001,,,0,
1222,502158,MAIN ST/78 RD,,40.719691999999995,-73.818024,,,0,
1223,502159,MAIN ST/77 RD,,40.721016,-73.818703,,,0,
1224,502163,MAIN ST/73 AV,,40.72501,-73.820747,,,0,
1225,502164,MAIN ST/72 AV,,40.727024,-73.82178499999999,,,0,
1226,502165,MAIN ST/71 AV,,40.72834,-73.822464,,,0,
1227,502166,MAIN ST/JEWEL AV,,40.729939,-73.82328000000001,,,0,
1228,502168,MAIN ST/68 DR,,40.732304,-73.824501,,,0,
1229,502169,MAIN ST/MELBOURNE AV,,40.733963,-73.825188,,,0,
1230,502171,MAIN ST & 65-21 MAIN ST,,40.737282,-73.824905,,,0,
1231,502172,MAIN ST/146 ST,,40.740120000000005,-73.82489,,,0,
1232,502173,MAIN ST/61 RD,,40.741287,-73.825066,,,0,
1233,502174,MAIN ST/60 AV,,40.743034,-73.825447,,,0,
1234,502175,MAIN ST/58 RD,,40.744846,-73.825745,,,0,
1235,502179,MAIN ST/ELDER AV,,40.751404,-73.82584399999999,,,0,
1236,502180,MAIN ST/CHERRY AV,,40.7528,-73.82695799999999,,,0,
1237,502181,MAIN ST/FRANKLIN AV,,40.754608000000005,-73.82785,,,0,
1238,502182,MAIN ST/MAPLE AV,,40.75573,-73.8283,,,0,
1239,502183,MAIN ST/SANFORD AV,,40.757015,-73.828812,,,0,
1240,502184,MAIN ST/KISSENA BL,,40.758125,-73.829308,,,0,
1241,502185,MAIN ST/39 AV,,40.760277,-73.83040600000001,,,0,
1242,502241,PARSONS BL/17 RD,,40.784172,-73.821396,,,0,
1243,502246,PARSONS BL/WILLETS PT BL,,40.777252000000004,-73.824318,,,0,
1244,502254,MAIN ST/NORTHERN BL,,40.762446999999995,-73.831795,,,0,
1245,502256,MAIN ST/39 AV,,40.75993,-73.830437,,,0,
1246,502257,MAIN ST/41 AV,,40.757824,-73.829422,,,0,
1247,502258,MAIN ST/SANFORD AV,,40.75631,-73.828773,,,0,
1248,502259,MAIN ST/MAPLE AV,,40.755047,-73.82826999999999,,,0,
1249,502260,MAIN ST/BLOSSOM AV,,40.752949,-73.827301,,,0,
1250,502261,MAIN ST/ELDER AV,,40.751003000000004,-73.825951,,,0,
1251,502263,MAIN ST/56 AV,,40.748009,-73.826141,,,0,
1252,502264,MAIN ST/BOOTH MEMORIAL AV,,40.746165999999995,-73.826225,,,0,
1253,502265,MAIN ST/58 AV,,40.745003000000004,-73.826012,,,0,
1254,502267,MAIN ST/62 AV,,40.741141999999996,-73.825264,,,0,
1255,502268,MAIN ST/63 AV,,40.739334,-73.824966,,,0,
1256,502271,MAIN ST/MELBOURNE AV,,40.734066,-73.825462,,,0,
1257,502272,MAIN ST/68 AV,,40.732997999999995,-73.825142,,,0,
1258,502273,MAIN ST/68 DR,,40.731689,-73.824471,,,0,
1259,502274,MAIN ST/JEWEL AV,,40.730083,-73.823647,,,0,
1260,502275,MAIN ST/70 RD,,40.728703,-73.822937,,,0,
1261,502276,MAIN ST/72 AV,,40.726372,-73.82173900000001,,,0,
1262,502277,MAIN ST/73 AV,,40.724739,-73.8209,,,0,
1263,502278,MAIN ST/76 AV,,40.722332,-73.81965600000001,,,0,
1264,502279,MAIN ST/77 RD,,40.720345,-73.818634,,,0,
1265,502280,MAIN ST/78 RD,,40.719032,-73.81796999999999,,,0,
1266,502281,MAIN ST/UNION TP,,40.71777,-73.81732199999999,,,0,
1267,502287,MAIN ST/UNION TP,,40.717796,-73.81736,,,0,
1268,502300,UNION TP/135 ST,,40.715934999999995,-73.823669,,,0,
1269,502301,UNION TP/141 ST,,40.717048999999996,-73.819374,,,0,
1270,502302,UNION TP/MAIN ST,,40.717728,-73.816536,,,0,
1271,502303,UNION TP/147 ST,,40.718102,-73.815201,,,0,
1272,502304,UNION TP/150 ST,,40.71907,-73.811691,,,0,
1273,502305,UNION TP/PARSONS BL,,40.719772,-73.809166,,,0,
1274,502306,UNION TP/160 ST,,40.720543,-73.806839,,,0,
1275,502307,UNION TP/164 ST,,40.721278999999996,-73.804733,,,0,
1276,502308,UNION TP/165 ST,,40.722076,-73.802406,,,0,
1277,502309,UNION TP/168 ST,,40.722965,-73.799789,,,0,
1278,502310,UNION TP/170 ST,,40.72356,-73.798058,,,0,
1279,502311,UNION TP/173 ST,,40.724461,-73.795425,,,0,
1280,502312,UNION TP/175 ST,,40.72501,-73.793808,,,0,
1281,502313,UNION TP/UTOPIA PY,,40.725838,-73.791145,,,0,
1282,502314,UNION TP/SURREY PL,,40.726631,-73.788689,,,0,
1283,502315,UNION TP/KENT ST,,40.727592,-73.785767,,,0,
1284,502316,UNION TP/CHEVY CHASE ST,,40.728436,-73.78318,,,0,
1285,502317,UNION TP/188 ST,,40.729221,-73.780716,,,0,
1286,502318,UNION TP/190 ST,,40.729706,-73.77894599999999,,,0,
1287,502319,UNION TP/193 ST,,40.730206,-73.77714499999999,,,0,
1288,502320,UNION TP/196 ST,,40.730858000000005,-73.774658,,,0,
1289,502321,UNION TP/198 ST,,40.731274,-73.772354,,,0,
1290,502322,UNION TP/FRANCIS LEWIS BL,,40.731781,-73.76949300000001,,,0,
1291,502323,UNION TP/HOLLIS HILLS TER,,40.732872,-73.763023,,,0,
1292,502325,UNION TP/211 ST,,40.733478999999996,-73.759445,,,0,
1293,502327,UNION TP/BELL BL,,40.734272,-73.754745,,,0,
1294,502328,UNION TP/STEWART RD,,40.734741,-73.751976,,,0,
1295,502330,UNION TP/222 ST,,40.735374,-73.74823,,,0,
1296,502331,UNION TP/SPRINGFIELD BL,,40.735640999999994,-73.746643,,,0,
1297,502332,UNION TP/226 ST,,40.736121999999995,-73.744476,,,0,
1298,502333,UNION TP/GRAND CENTRAL PY,,40.736599,-73.74221800000001,,,0,
1299,502334,UNION TP/232 ST,,40.737133,-73.739777,,,0,
1300,502335,UNION TP/234 ST,,40.737663,-73.737312,,,0,
1301,502336,UNION TP/236 ST,,40.738071000000005,-73.735489,,,0,
1302,502337,UNION TP/WINCHESTER BL,,40.73896,-73.73342099999999,,,0,
1303,502338,UNION TP/CROSS ISLAND PY,,40.740681,-73.726738,,,0,
1304,502339,UNION TP/COMMONWEALTH BL,,40.741413,-73.724457,,,0,
1305,502344,UNION TP/258 ST,,40.746258000000005,-73.713173,,,0,
1306,502345,260 ST/UNION TP,,40.747386999999996,-73.712051,,,0,
1307,502346,260 ST/75 AV,,40.748108,-73.71320300000001,,,0,
1308,502347,260 ST/74 AV,,40.750134,-73.715355,,,0,
1309,502348,260 ST/73 AV,,40.750851000000004,-73.717484,,,0,
1310,502350,UNION TPKE/260 ST,,40.747116,-73.711548,,,0,
1311,502351,UNION TP/263 ST,,40.748447,-73.70904499999999,,,0,
1312,502352,UNION TP/265 ST,,40.749294,-73.707451,,,0,
1313,502354,UNION TP/268 ST,,40.750603000000005,-73.704971,,,0,
1314,502355,UNION TP/271 ST,,40.751903999999996,-73.702515,,,0,
1315,502361,LITTLE NECK PKY/260 ST,,40.751991,-73.720215,,,0,
1316,502363,260 ST/73 AV,,40.750595000000004,-73.717499,,,0,
1317,502364,260 ST/74 AV,,40.749126000000004,-73.716202,,,0,
1318,502365,260 ST/75 AV,,40.748177,-73.71371500000001,,,0,
1319,502367,UNION TP/270 ST,,40.751213,-73.704285,,,0,
1320,502368,UNION TP/267 ST,,40.749901,-73.706757,,,0,
1321,502369,UNION TP/265 ST,,40.74905,-73.70837399999999,,,0,
1322,502370,UNION TP/263 ST,,40.748173,-73.710014,,,0,
1323,502371,UNION TP/260 ST,,40.746840999999996,-73.712563,,,0,
1324,502372,UNION TP/258 ST,,40.746326,-73.713562,,,0,
1325,502373,UNION TP/255 ST,,40.745266,-73.71556899999999,,,0,
1326,502374,UNION TP/LITTLE NECK PY,,40.744213,-73.717506,,,0,
1327,502375,UNION TP/251 ST,,40.743183,-73.71974200000001,,,0,
1328,502378,UNION TP/COMMONWEALTH BL,,40.741524,-73.7248,,,0,
1329,502379,UNION TP/CROSS ISLAND PY,,40.740887,-73.726776,,,0,
1330,502380,UNION TP/WINCHESTER BL,,40.739146999999996,-73.73354300000001,,,0,
1331,502381,UNION TP/235 ST,,40.737988,-73.73677099999999,,,0,
1332,502382,UNION TP/GRAND CENTRAL PY,,40.737305,-73.73996700000001,,,0,
1333,502383,UNION TP/CLOVERDALE BL,,40.736668,-73.742912,,,0,
1334,502384,UNION TP/226 ST,,40.736228999999994,-73.744934,,,0,
1335,502385,UNION TP/SPRINGFIELD BL,,40.735901,-73.74646800000001,,,0,
1336,502386,UNION TP/222 ST,,40.735434999999995,-73.74906899999999,,,0,
1337,502387,UNION TP/220 PL,,40.73513,-73.7509,,,0,
1338,502389,UNION TP/BELL BL,,40.734318,-73.755707,,,0,
1339,502391,UNION TP/211 ST,,40.733536,-73.7603,,,0,
1340,502393,UNION TP/HOLLIS HILLS TER,,40.732975,-73.763626,,,0,
1341,502394,UNION TP/FRANCIS LEWIS BL,,40.731773,-73.770706,,,0,
1342,502395,UNION TP/197 ST,,40.73127,-73.773521,,,0,
1343,502396,UNION TP/196 ST,,40.730911,-73.775345,,,0,
1344,502397,UNION TP/193 ST,,40.730175,-73.778023,,,0,
1345,502398,UNION TP/190 ST,,40.729690999999995,-73.779785,,,0,
1346,502399,UNION TP/188 ST,,40.729176,-73.781609,,,0,
1347,502400,UNION TP/185 ST,,40.728264,-73.784386,,,0,
1348,502401,UNION TP/183 ST,,40.727703000000005,-73.78609499999999,,,0,
1349,502402,UNION TP/179 ST,,40.726585,-73.789497,,,0,
1350,502403,UNION TP/UTOPIA PY,,40.725761,-73.792252,,,0,
1351,502404,UNION TP/174 ST,,40.724647999999995,-73.795509,,,0,
1352,502405,UNION TP/171 ST,,40.723797,-73.798004,,,0,
1353,502406,UNION TP/168 ST,,40.722908000000004,-73.800613,,,0,
1354,502407,UNION TP/166 ST,,40.722305,-73.802376,,,0,
1355,502408,UNION TP/164 ST,,40.721641999999996,-73.804321,,,0,
1356,502409,UNION TP/160 ST,,40.720646,-73.807182,,,0,
1357,502410,UNION TP/PARSONS BL,,40.720051,-73.808937,,,0,
1358,502412,UNION TP/150 ST,,40.718987,-73.812759,,,0,
1359,502413,UNION TP/147 ST,,40.718353,-73.815071,,,0,
1360,502414,UNION TP/MAIN ST,,40.717636,-73.817757,,,0,
1361,502433,14 AV/146 ST,,40.787209000000004,-73.820976,,,0,
1362,502434,PARSONS BL/14 AV,,40.786503,-73.822296,,,0,
1363,502454,14 AV/136 ST,,40.786167,-73.833153,,,0,
1364,502459,14 AV/124 ST,,40.785374,-73.843796,,,0,
1365,502460,14 AV/123 ST,,40.785446,-73.845619,,,0,
1366,502462,15 AV/COLLEGE PT BL,,40.784209999999995,-73.84536,,,0,
1367,502464,15 AV/127 ST,,40.785069,-73.841362,,,0,
1368,502465,14 AV/130 ST,,40.785748,-73.838593,,,0,
1369,502466,14 AV/132 ST,,40.786209,-73.83577,,,0,
1370,502467,14 AV/135 ST,,40.786106,-73.833763,,,0,
1371,502471,14 AV/143 ST,,40.786587,-73.826408,,,0,
1372,502509,HORACE HARDING EXP/146 ST,,40.74123,-73.823318,,,0,
1373,502510,HORACE HARDING EXP/148 ST,,40.740646000000005,-73.82157099999999,,,0,
1374,502511,HORACE HARDING EXP/150 ST,,40.739940999999995,-73.81950400000001,,,0,
1375,502512,HORACE HARDING EXP/153 ST,,40.739273,-73.817474,,,0,
1376,502513,HORACE HARDING EXP/REEVES AV,,40.738735,-73.815903,,,0,
1377,502547,DITMARS BL/102 ST,,40.768661,-73.868286,,,0,
1378,502548,DITMARS BL/25 AV,,40.766968,-73.86551700000001,,,0,
1379,502549,DITMARS BL/27 AV,,40.765759,-73.864227,,,0,
1380,502550,DITMARS BL/29 AV,,40.764202000000004,-73.862724,,,0,
1381,502551,DITMARS BL/31 AV,,40.762657,-73.86171,,,0,
1382,502553,108 ST/32 AV,,40.759646999999994,-73.861427,,,0,
1383,502554,108 ST/NORTHERN BL,,40.757446,-73.861023,,,0,
1384,502555,108 ST/34 AV,,40.755928000000004,-73.860748,,,0,
1385,502556,108 ST/37 AV,,40.754028000000005,-73.86039699999999,,,0,
1386,502557,108 ST/38 AV,,40.751995,-73.859512,,,0,
1387,502558,ROOSEVELT AV/108 ST,,40.750759,-73.858337,,,0,
1388,502559,ROOSEVELT AV/111 ST,,40.751616999999996,-73.855423,,,0,
1389,502560,ROOSEVELT AV/114 ST,,40.752583,-73.852226,,,0,
1390,502569,ROOSEVELT AV/WILLETS PT BL STATION,,40.754707,-73.84558100000001,,,0,
1391,502570,ROOSEVELT AV/114 ST,,40.752628,-73.852524,,,0,
1392,502571,ROOSEVELT AV/111 ST,,40.75156,-73.856064,,,0,
1393,502572,ROOSEVELT AV/108 ST,,40.750828000000006,-73.85865799999999,,,0,
1394,502573,108 ST/38 AV,,40.752628,-73.85965,,,0,
1395,502574,108 ST/37 AV,,40.754222999999996,-73.86026,,,0,
1396,502575,108 ST/34 AV,,40.756617999999996,-73.86069499999999,,,0,
1397,502576,108 ST/NORTHERN BL,,40.758183,-73.86097,,,0,
1398,502578,DITMARS BL/31 AV,,40.762611,-73.86142,,,0,
1399,502579,DITMARS BL/29 AV,,40.764194,-73.862442,,,0,
1400,502580,DITMARS BL/27 AV,,40.765716999999995,-73.863907,,,0,
1401,502623,73 AV/189 ST,,40.733475,-73.781723,,,0,
1402,502624,73 AV/192 ST,,40.734043,-73.779999,,,0,
1403,502625,73 AV/194 ST,,40.7346,-73.778214,,,0,
1404,502626,73 AV/196 ST,,40.735119,-73.776482,,,0,
1405,502627,73 AV/197 ST,,40.735645,-73.774734,,,0,
1406,502628,73 AV/199 ST,,40.735962,-73.773666,,,0,
1407,502629,73 AV/FRANCIS LEWIS BL,,40.736340000000006,-73.772346,,,0,
1408,502630,73 AV/HOLLIS HILLS TERR,,40.737953000000005,-73.767494,,,0,
1409,502631,73 AV/210 ST,,40.739208000000005,-73.763145,,,0,
1410,502632,73 AV/213 ST,,40.740017,-73.760536,,,0,
1411,502633,73 AV/BELL BL,,40.74091,-73.757797,,,0,
1412,502634,73 AV/220 ST,,40.741791,-73.755051,,,0,
1413,502635,73 AV/SPRINGFIELD BL,,40.742271,-73.753624,,,0,
1414,502648,73 AV/218 ST,,40.741329,-73.756905,,,0,
1415,502649,73 AV/BELL BL,,40.740765,-73.75876600000001,,,0,
1416,502650,73 AV/213 ST,,40.739902,-73.761368,,,0,
1417,502651,73 AV/210 ST,,40.739136,-73.764076,,,0,
1418,502653,73 AV/FRANCIS LEWIS BL,,40.736404,-73.772697,,,0,
1419,502654,73 AV/198 ST,,40.735786,-73.77478,,,0,
1420,502656,73 AV/195 ST,,40.734901,-73.77774000000001,,,0,
1421,502657,73 AV/193 ST,,40.734238,-73.779907,,,0,
1422,502658,73 AV/190 ST,,40.733662,-73.78164699999999,,,0,
1423,502685,FRANCIS LEWIS BL/86 RD,,40.723778,-73.762825,,,0,
1424,502686,FRANCIS LEWIS BL/EPSOM COURSE,,40.724659,-73.764557,,,0,
1425,502688,FRANCIS LEWIS BL/UNION TP,,40.732121,-73.770172,,,0,
1426,502689,FRANCIS LEWIS BL/73 AV,,40.736626,-73.772858,,,0,
1427,502690,FRANCIS LEWIS BL/HORACE HARDING EXP,,40.742928000000006,-73.775406,,,0,
1428,502691,FRANCIS LEWIS BL/HORACE HARDING EXP,,40.744071999999996,-73.77594,,,0,
1429,502692,FRANCIS LEWIS BL/58 AV,,40.745903000000006,-73.77681,,,0,
1430,502693,FRANCIS LEWIS BL/56 AV,,40.747505,-73.777565,,,0,
1431,502694,FRANCIS LEWIS BL/53 AV,,40.749096,-73.77832,,,0,
1432,502695,FRANCIS LEWIS BL/50 AV,,40.750659999999996,-73.77906800000001,,,0,
1433,502696,FRANCIS LEWIS BL/48 AV,,40.752201,-73.7798,,,0,
1434,502697,FRANCIS LEWIS BL/47 AV,,40.753658,-73.780609,,,0,
1435,502698,FRANCIS LEWIS BL/46 AV,,40.755024,-73.781738,,,0,
1436,502699,FRANCIS LEWIS BL/45 RD,,40.756336,-73.78244000000001,,,0,
1437,502700,FRANCIS LEWIS BL/44 AV,,40.757290000000005,-73.782921,,,0,
1438,502701,FRANCIS LEWIS BL/43 AV,,40.758205,-73.783417,,,0,
1439,502702,FRANCIS LEWIS BL/42 AV,,40.759796,-73.78426400000001,,,0,
1440,502703,FRANCIS LEWIS BL/STATION RD,,40.761158,-73.784912,,,0,
1441,502704,FRANCIS LEWIS BL/38 AV,,40.762917,-73.785538,,,0,
1442,502717,FRANCIS LEWIS BL/160 ST,,40.781727000000004,-73.803314,,,0,
1443,502718,FRANCIS LEWIS BL/17 RD,,40.782932,-73.80413100000001,,,0,
1444,502719,FRANCIS LEWIS BL/16 AV,,40.785156,-73.80549599999999,,,0,
1445,502722,CROSS ISLAND PY/150 ST,,40.787621,-73.813889,,,0,
1446,502724,14 AV/147 ST,,40.787636,-73.81916,,,0,
1447,502727,14 AV/PARSONS BL,,40.78688,-73.821899,,,0,
1448,502728,14 AV/147 ST,,40.787506,-73.819199,,,0,
1449,502735,FRANCIS LEWIS BL/LOCKE AV,,40.785042,-73.805817,,,0,
1450,502736,FRANCIS LEWIS BL/17 AV,,40.783134000000004,-73.804588,,,0,
1451,502737,FRANCIS LEWIS BL/18 AV,,40.781601,-73.803703,,,0,
1452,502746,FRANCIS LEWIS BL/171 ST,,40.770851,-73.793762,,,0,
1453,502750,FRANCIS LEWIS BL/194 ST,,40.763897,-73.78778100000001,,,0,
1454,502751,FRANCIS LEWIS BL/38 AV,,40.762642,-73.785667,,,0,
1455,502752,FRANCIS LEWIS BL/STATION RD,,40.761165999999996,-73.78519399999999,,,0,
1456,502753,FRANCIS LEWIS BL/42 AV,,40.759537,-73.784515,,,0,
1457,502754,FRANCIS LEWIS BL/NORTHERN BL,,40.757397,-73.783424,,,0,
1458,502755,FRANCIS LEWIS BL/45 AV,,40.756332,-73.782852,,,0,
1459,502756,FRANCIS LEWIS BL/46 AV,,40.754391,-73.78157,,,0,
1460,502757,FRANCIS LEWIS BL/47 AV,,40.753002,-73.780502,,,0,
1461,502758,FRANCIS LEWIS BL/48 AV,,40.751553,-73.7798,,,0,
1462,502759,FRANCIS LEWIS BL/50 AV,,40.749992,-73.77906,,,0,
1463,502760,FRANCIS LEWIS BL/53 AV,,40.74839,-73.778297,,,0,
1464,502761,FRANCIS LEWIS BL/56 AV,,40.746792,-73.77754200000001,,,0,
1465,502762,FRANCIS LEWIS BL/58 AV,,40.745171,-73.776779,,,0,
1466,502763,FRANCIS LEWIS BL/HORACE HARDING EXP N,,40.743942,-73.776184,,,0,
1467,502764,FRANCIS LEWIS BL/HORACE HARDING EXP S,,40.742668,-73.77559699999999,,,0,
1468,502765,FRANCIS LEWIS BL/73 AV,,40.735909,-73.772865,,,0,
1469,502766,FRANCIS LEWIS BL/UNION TP,,40.731453,-73.770042,,,0,
1470,502767,FRANCIS LEWIS BL/MCLAUGHLIN AV,,40.725155,-73.76550300000001,,,0,
1471,502768,FRANCIS LEWIS BL/204 ST,,40.723225,-73.762253,,,0,
1472,502769,FRANCIS LEWIS BL/HILLSIDE AV,,40.721123,-73.759651,,,0,
1473,502792,FRANCIS LEWIS BL/89 AV,,40.719265,-73.75824,,,0,
1474,502793,FRANCIS LEWIS BL/90 AV,,40.717804,-73.757149,,,0,
1475,502794,FRANCIS LEWIS BL/93 AV,,40.715969,-73.755783,,,0,
1476,502795,FRANCIS LEWIS BL/JAMAICA AV,,40.713978000000004,-73.754288,,,0,
1477,502796,FRANCIS LEWIS BL/99 AV,,40.712723,-73.753578,,,0,
1478,502797,FRANCIS LEWIS BL/100 AV,,40.711693,-73.75316600000001,,,0,
1479,502798,FRANCIS LEWIS BL/104 AV,,40.709969,-73.752441,,,0,
1480,502799,FRANCIS LEWIS BL/109 AV,,40.708496000000004,-73.75183100000001,,,0,
1481,502800,FRANCIS LEWIS BL/HOLLIS AV,,40.70697,-73.75119000000001,,,0,
1482,502801,FRANCIS LEWIS BL/111 AV,,40.70533,-73.750458,,,0,
1483,502802,FRANCIS LEWIS BL/112 AV,,40.703959999999995,-73.74984,,,0,
1484,502803,FRANCIS LEWIS BL/113 AV,,40.702595,-73.749222,,,0,
1485,502804,FRANCIS LEWIS BL/MURDOCK AV,,40.701209999999996,-73.748604,,,0,
1486,502805,FRANCIS LEWIS BL/114 DR,,40.699940000000005,-73.748032,,,0,
1487,502806,FRANCIS LEWIS BL/115 AV,,40.699215,-73.747704,,,0,
1488,502807,FRANCIS LEWIS BL/116 AV,,40.697598,-73.746971,,,0,
1489,502808,FRANCIS LEWIS/LINDEN BL,,40.696201,-73.746368,,,0,
1490,502809,FRANCIS LEWIS BL/NASHVILLE BL,,40.693668,-73.745239,,,0,
1491,502810,SPRINGFIELD BL/120 AV,,40.691231,-73.746376,,,0,
1492,502811,SPRINGFIELD BL/121 AV,,40.689461,-73.747597,,,0,
1493,502812,SPRINGFIELD BL/122 AV,,40.687290000000004,-73.749123,,,0,
1494,502813,SPRINGFIELD BL/197 ST,,40.685429,-73.750496,,,0,
1495,502814,SPRINGFIELD BL/193 ST,,40.683968,-73.751297,,,0,
1496,502815,SPRINGFIELD BL/LUCAS ST,,40.682323,-73.752098,,,0,
1497,502816,SPRINGFIELD BL/MERRICK BL,,40.680393,-73.753334,,,0,
1498,502818,SPRINGFIELD BL/E GATE PZ,,40.675509999999996,-73.755981,,,0,
1499,502819,SPRINGFIELD BL/139 AV,,40.673084,-73.756371,,,0,
1500,502823,SPRINGFIELD BL/S CONDUIT AV,,40.665264,-73.758553,,,0,
1501,502825,SPRINGFIELD BL/145 AV,,40.664986,-73.758308,,,0,
1502,502830,SPRINGFIELD BL/138 RD,,40.674071999999995,-73.755951,,,0,
1503,502831,SPRINGFIELD BL/E GATE PZ,,40.675709000000005,-73.75569200000001,,,0,
1504,502832,SPRINGFIELD BL/136 AV,,40.678093,-73.754463,,,0,
1505,502833,SPRINGFIELD BL/MERRICK BL,,40.679924,-73.753098,,,0,
1506,502834,SPRINGFIELD BL/132 RD,,40.682648,-73.751549,,,0,
1507,502835,SPRINGFIELD BL/131 AV,,40.68399,-73.751007,,,0,
1508,502836,SPRINGFIELD BL/130 AV,,40.685833,-73.749985,,,0,
1509,502837,SPRINGFIELD/MONTEFIORE CEMETERY,,40.68803,-73.74826,,,0,
1510,502838,SPRINGFIELD BL/121 AV,,40.689972,-73.747002,,,0,
1511,502839,SPRINGFIELD BL/120 AV,,40.69112,-73.746216,,,0,
1512,502840,FRANCIS LEWIS BL/SPRINGFIELD BL,,40.693816999999996,-73.745018,,,0,
1513,502841,FRANCIS LEWIS BL/LINDEN BL,,40.696476000000004,-73.746208,,,0,
1514,502842,FRANCIS LEWIS BL/116 AV,,40.697849,-73.746849,,,0,
1515,502843,FRANCIS LEWIS BL/115 AV,,40.699886,-73.747765,,,0,
1516,502844,FRANCIS LEWIS BL/MURDOCK AV,,40.701912,-73.748672,,,0,
1517,502845,FRANCIS LEWIS BL/113 AV,,40.703262,-73.74928299999999,,,0,
1518,502846,FRANCIS LEWIS BL/112 AV,,40.704597,-73.749886,,,0,
1519,502847,FRANCIS LEWIS BL/111 AV,,40.705956,-73.750496,,,0,
1520,502848,FRANCIS LEWIS BL/HOLLIS AV,,40.707676,-73.75125899999999,,,0,
1521,502849,FRANCIS LEWIS BL/109 AV,,40.709164,-73.751869,,,0,
1522,502850,FRANCIS LEWIS BL/104 AV,,40.710636,-73.75248,,,0,
1523,502851,FRANCIS LEWIS BL/100 AV,,40.712353,-73.753197,,,0,
1524,502852,FRANCIS LEWIS BL/JAMAICA AV,,40.714211,-73.754189,,,0,
1525,502853,FRANCIS LEWIS BL/93 AV,,40.716609999999996,-73.755989,,,0,
1526,502854,FRANCIS LEWIS BL/90 AV,,40.718452,-73.757347,,,0,
1527,502855,FRANCIS LEWIS BL/89 AV,,40.719543,-73.758156,,,0,
1528,502868,JUNCTION BL/59 AV,,40.735003999999996,-73.865059,,,0,
1529,502869,HORACE HARDING EXP/JUNCTION BL,,40.733871,-73.863716,,,0,
1530,502870,HORACE HARDING EXP/97 ST,,40.734341,-73.862144,,,0,
1531,502871,HORACE HARDING EXP/98 ST,,40.734871000000005,-73.860352,,,0,
1532,502872,HORACE HARDING EXP/99 ST,,40.735531,-73.85813900000001,,,0,
1533,502873,HORACE HARDING EXP/102 ST,,40.736171999999996,-73.855988,,,0,
1534,502874,HORACE HARDING EXP/YELLOWSTONE BL,,40.736549,-73.853569,,,0,
1535,502876,HORACE HARDING EXP/COLLEGE PT BL,,40.742409,-73.83719599999999,,,0,
1536,502877,HORACE HARDING EXP/134 ST,,40.742740999999995,-73.83161199999999,,,0,
1537,502878,HORACE HARDING EXP/136 ST,,40.742523,-73.829414,,,0,
1538,502879,HORACE HARDING EXP/138 ST,,40.742278999999996,-73.827423,,,0,
1539,502880,HORACE HARDING EXP/MAIN ST,,40.741695,-73.824715,,,0,
1540,502947,73 AV/SPRINGFIELD BL,,40.742352000000004,-73.753929,,,0,
1541,502974,HORACE HARDING EXP/KISSENA BL,,40.739388,-73.815559,,,0,
1542,502975,HORACE HARDING EXP/150 ST,,40.740726,-73.81971,,,0,
1543,502976,HORACE HARDING EXP/148 ST,,40.741446999999994,-73.821877,,,0,
1544,502977,HORACE HARDING EXP/146 ST,,40.742073,-73.823723,,,0,
1545,502978,HORACE HARDING EXP/MAIN ST,,40.742802000000005,-73.825958,,,0,
1546,502979,HORACE HARDING EXP/136 ST,,40.743229,-73.83013199999999,,,0,
1547,502980,HORACE HARDING EXP/LAWRENCE ST,,40.74358,-73.833618,,,0,
1548,502981,HORACE HARDING EXP/COLLEGE PT BL,,40.743782,-73.83579300000001,,,0,
1549,502982,HORACE HARDING EXP/WALDRON ST,,40.738215999999994,-73.850433,,,0,
1550,502983,HORACE HARDING EXP/108 ST,,40.737606,-73.85244,,,0,
1551,502984,HORACE HARDING EXP/WESTSIDE AV,,40.737305,-73.854057,,,0,
1552,502985,HORACE HARDING EXP/OTIS AV,,40.736671,-73.856613,,,0,
1553,502986,HORACE HARDING EXP/99 ST,,40.735775,-73.859749,,,0,
1554,502987,HORACE HARDING EXP/99 ST,,40.735146,-73.861862,,,0,
1555,503021,UTOPIA PY/WILLETS POINT BL,,40.785789,-73.79499799999999,,,0,
1556,503033,UNION TP/252 ST,,40.743637,-73.718117,,,0,
1557,503037,UNION TP/153 ST,,40.719467,-73.81104300000001,,,0,
1558,503041,FRANCIS LEWIS BL/32 AV,,40.768974,-73.792114,,,0,
1559,503058,JAMAICA AV/SPRINGFIELD BL,,40.718212,-73.735718,,,0,
1560,503062,MURDOCK AV/FRANCIS LEWIS BL,,40.701462,-73.748795,,,0,
1561,503064,MURDOCK AV/212 ST,,40.703064000000005,-73.74320999999999,,,0,
1562,503067,MURDOCK AV/FRANCIS LEWIS BL,,40.701607,-73.748795,,,0,
1563,503070,MURDOCK AV/194 ST,,40.698433,-73.760902,,,0,
1564,503073,SPRINGFIELD BL/141 AV,,40.671219,-73.75660699999999,,,0,
1565,503074,PARSONS BL/ASH AV,,40.757713,-73.81897,,,0,
1566,503075,MAIN ST/76 AV,,40.722988,-73.819717,,,0,
1567,503077,23 AV/212 ST,,40.78125,-73.778214,,,0,
1568,503080,MURDOCK AV/210 ST,,40.702541,-73.744637,,,0,
1569,503083,108 ST/ASTORIA BL,,40.760670000000005,-73.861343,,,0,
1570,503096,ROOSEVELT AV/MAIN ST,,40.760082000000004,-73.82770500000001,,,0,
1571,503100,SUNRISE HWY/SUNRISE CINEMAS,,40.665306,-73.72641800000001,,,0,
1572,503102,WEST CIRCLE DR / WOODLAND RD,,40.660652,-73.715599,,,0,
1573,503103,WEST CIRCLE DR / MAYFIELD LANE,,40.660534000000006,-73.718262,,,0,
1574,503105,WEST CIRCLE DR /PARKING STRUCTURE,,40.661907,-73.723259,,,0,
1575,503106,WEST CIRCLE DR / SIDNEY PL,,40.663441,-73.724754,,,0,
1576,503110,MERRICK BL/HOOK CREEK BL,,40.674259,-73.727959,,,0,
1577,503127,MERRICK BL/242 ST,,40.673927,-73.73159799999999,,,0,
1578,503132,S CONDUIT AV/221 ST,,40.665455,-73.757111,,,0,
1579,503141,HORACE HARDING EXP/190 ST,,40.741558000000005,-73.785423,,,0,
1580,503142,HORACE HARDING EXP/197 ST,,40.743171999999994,-73.779167,,,0,
1581,503143,HORACE HARDING EXP/218 ST,,40.74831,-73.76018499999999,,,0,
1582,503147,18 AV/CORPORAL KENNEDY ST,,40.781864,-73.783867,,,0,
1583,503148,211 ST/18 AV,,40.781929,-73.781586,,,0,
1584,503149,211 ST/23 AV,,40.780262,-73.780876,,,0,
1585,503150,NORTHERN BL/147 ST,,40.765087,-73.818993,,,0,
1586,503156,CORPORAL KENNEDY ST/34 RD,,40.768559,-73.778549,,,0,
1587,503166,153 ST/89 AV,,40.705486,-73.803627,,,0,
1588,503167,153 ST/HILLSIDE AV,,40.706795,-73.8041,,,0,
1589,503168,150 ST/JAMAICA AV,,40.702232,-73.80455,,,0,
1590,503169,153 ST/HILLSIDE AV,,40.707122999999996,-73.80438199999999,,,0,
1591,503172,ARCHER AV/PARSONS BL,,40.702602,-73.799728,,,0,
1592,503174,ARCHER AV/153 ST,,40.702095,-73.801735,,,0,
1593,503175,ARCHER AV/PARSONS BL BAY A,,40.702553,-73.799828,,,0,
1594,503180,168 ST/89 AV,,40.708538,-73.793823,,,0,
1595,503195,HILLSIDE AV/172 ST,,40.711842,-73.790161,,,0,
1596,503206,169 ST/JAMAICA AV,,40.706989,-73.790947,,,0,
1597,503207,HOLLIS CT BL/48 AV,,40.750187,-73.786461,,,0,
1598,503208,HOLLIS CT BL/47 AV,,40.751521999999994,-73.788216,,,0,
1599,503209,HILLSIDE AV/161 ST,,40.708218,-73.800636,,,0,
1600,503210,HILLSIDE AV/162 ST,,40.708424,-73.800674,,,0,
1601,503212,AMBOY LA/SPRINGFIELD BL,,40.717819,-73.73575600000001,,,0,
1602,503214,40 AV/LITTLE NECK PY,,40.77309,-73.741501,,,0,
1603,503218,150 ST/27 AV,,40.773354,-73.81546,,,0,
1604,503220,UTOPIA PY/WILLETS POINT BL,,40.785721,-73.795135,,,0,
1605,503221,CROSS ISLAND PKWY/212 ST,,40.788883,-73.783112,,,0,
1606,503244,MURDOCK AV/202 ST,,40.700493,-73.752525,,,0,
1607,503245,MURDOCK AV/204 ST,,40.700965999999994,-73.75071,,,0,
1608,503246,MURDOCK AV/208 ST,,40.702076,-73.746437,,,0,
1609,503247,MURDOCK AV/FARMERS BL,,40.698105,-73.76215400000001,,,0,
1610,503248,23 AV/BELL BL,,40.782291,-73.777061,,,0,
1611,503255,BELL BL/33 RD,,40.771366,-73.774239,,,0,
1612,503259,NORTHERN BL/232 ST,,40.76432,-73.7472,,,0,
1613,503272,HILLSIDE AV/218 ST,,40.728439,-73.74717700000001,,,0,
1614,503273,MERRICK BL/90 AV,,40.707237,-73.79499799999999,,,0,
1615,503274,NORTHERN BL/154 ST,,40.76445,-73.81059300000001,,,0,
1616,503283,JAMAICA AV/168 ST,,40.706317999999996,-73.792244,,,0,
1617,503293,QUEENS BL/SKILLMAN AV,,40.74577,-73.934296,,,0,
1618,503295,QUEENS BL/35 ST,,40.744183,-73.929626,,,0,
1619,503296,QUEENS BL/38 ST,,40.743866,-73.926895,,,0,
1620,503298,QUEENS BL/41 ST,,40.743435,-73.923141,,,0,
1621,503299,QUEENS BL/44 ST,,40.743114,-73.92041,,,0,
1622,503301,ROOSEVELT AV/49 ST,,40.743190999999996,-73.915482,,,0,
1623,503302,ROOSEVELT AV/51 ST,,40.743736,-73.913628,,,0,
1624,503303,ROOSEVELT AV/53 ST,,40.744411,-73.911293,,,0,
1625,503304,ROOSEVELT AV/56 ST,,40.745018,-73.908401,,,0,
1626,503305,ROOSEVELT AV/58 ST,,40.745296,-73.906364,,,0,
1627,503306,ROOSEVELT AV/61 ST,,40.745509999999996,-73.903198,,,0,
1628,503307,ROOSEVELT AV/63 ST,,40.74577,-73.900917,,,0,
1629,503308,ROOSEVELT AV/65 PL,,40.745998,-73.89874300000001,,,0,
1630,503309,ROOSEVELT AV/69 ST,,40.746246,-73.896469,,,0,
1631,503310,ROOSEVELT AV/72 ST,,40.746563,-73.893265,,,0,
1632,503311,ROOSEVELT AV/76 ST,,40.746975,-73.88945799999999,,,0,
1633,503312,ROOSEVELT AV/78 ST,,40.747166,-73.887642,,,0,
1634,503313,ROOSEVELT AV/80 ST,,40.747372,-73.885544,,,0,
1635,503316,ROOSEVELT AV/80 ST,,40.747463,-73.886215,,,0,
1636,503317,ROOSEVELT AV/78 ST,,40.747299,-73.887901,,,0,
1637,503318,ROOSEVELT AV/76 ST,,40.747059,-73.889984,,,0,
1638,503319,ROOSEVELT AV/74 ST,,40.746914000000004,-73.891609,,,0,
1639,503320,ROOSEVELT AV/72 ST,,40.746693,-73.893814,,,0,
1640,503321,ROOSEVELT AV/69 ST,,40.746349,-73.896774,,,0,
1641,503322,ROOSEVELT AV/67 ST,,40.746216,-73.89805600000001,,,0,
1642,503323,ROOSEVELT AV/64 ST,,40.745964,-73.900452,,,0,
1643,503324,ROOSEVELT AV/61 ST,,40.745697,-73.903191,,,0,
1644,503325,ROOSEVELT AV/58 ST,,40.745453000000005,-73.906441,,,0,
1645,503326,ROOSEVELT AV/SKILLMAN AV,,40.745144,-73.90892,,,0,
1646,503327,ROOSEVELT AV/54 ST,,40.744728,-73.910927,,,0,
1647,503328,ROOSEVELT AV/51 ST,,40.743721,-73.9142,,,0,
1648,503330,QUEENS BL/47 ST,,40.743336,-73.918114,,,0,
1649,503331,QUEENS BL/45 ST,,40.743553000000006,-73.919983,,,0,
1650,503333,QUEENS BL/41 ST,,40.743984000000005,-73.92370600000001,,,0,
1651,503334,QUEENS BL/39 PL,,40.744202,-73.92556,,,0,
1652,503335,QUEENS BL/38 ST,,40.744411,-73.92738299999999,,,0,
1653,503336,QUEENS BL/35 ST,,40.744732,-73.930183,,,0,
1654,503337,QUEENS BL/33 ST,,40.744946,-73.932045,,,0,
1655,503338,QUEENS BL/SKILLMAN AV,,40.745953,-73.934166,,,0,
1656,503341,QUEENS PLZ N/27 ST,,40.750813,-73.939758,,,0,
1657,503445,UNION TP/VLEIGH PL,,40.717434000000004,-73.821396,,,0,
1658,503549,SAYRES AV/178 PL,,40.6978,-73.775429,,,0,
1659,503550,PARSONS BL/23 AV,,40.778389000000004,-73.823723,,,0,
1660,503551,PARSONS BL/20 AV,,40.782021,-73.821899,,,0,
1661,503552,PARSONS BL/17 AV,,40.784317,-73.821251,,,0,
1662,503564,MERRICK BL/230 ST,,40.675884,-73.740089,,,0,
1663,503565,PARSONS BL/22 AV,,40.778763,-73.823738,,,0,
1664,503566,47 AV/197 ST,,40.752838,-73.78318,,,0,
1665,503568,235 ST/LINDEN BL,,40.690540000000006,-73.727448,,,0,
1666,503571,HILLSIDE AV/175 ST,,40.711723,-73.787247,,,0,
1667,503573,NORTHERN BL/244 ST,,40.765594,-73.74266800000001,,,0,
1668,503574,82 ST/NORTHERN BL,,40.755196000000005,-73.885406,,,0,
1669,503575,82 ST/34 AV,,40.75338,-73.885101,,,0,
1670,503576,82 ST/35 AV,,40.751465,-73.88472,,,0,
1671,503577,82 ST/37 AV,,40.749836,-73.88443000000001,,,0,
1672,503578,81 ST/ROOSEVELT AV,,40.747859999999996,-73.884789,,,0,
1673,503579,81 ST/37 AV,,40.749935,-73.885162,,,0,
1674,503580,81 ST/35 AV,,40.751587,-73.885483,,,0,
1675,503581,81 ST/34 AV,,40.75396,-73.88591,,,0,
1676,503582,81 ST/NORTHERN BL,,40.755322,-73.886139,,,0,
1677,503585,CORPORAL KENNEDY ST/23 AV,,40.778824,-73.783028,,,0,
1678,503588,UNION TP/248 ST,,40.742385999999996,-73.72159599999999,,,0,
1679,503604,LIBERTY AV/183 ST,,40.705528,-73.77628299999999,,,0,
1680,503605,BEDELL ST/FARMERS BL,,40.673798,-73.764,,,0,
1681,503606,BEDELL ST/FARMERS BL,,40.674114,-73.764229,,,0,
1682,503609,NORTHERN BL/227 ST,,40.763187,-73.753189,,,0,
1683,503618,ARCHER AV/153 ST,,40.702007,-73.80233,,,0,
1684,503622,ARCHER AV/165 ST,,40.704163,-73.793724,,,0,
1685,503671,ARCHER AV/165 ST,,40.703865,-73.794403,,,0,
1686,503674,168 ST/JAMAICA AV,,40.706734000000004,-73.792641,,,0,
1687,503676,FARMERS BL/118 RD,,40.688641,-73.762108,,,0,
1688,503684,UNION TP/248 ST,,40.742309999999996,-73.722435,,,0,
1689,503686,HILLSIDE AV/248 ST,,40.734970000000004,-73.718819,,,0,
1690,503687,HILLSIDE AV/258 ST,,40.736954,-73.71055600000001,,,0,
1691,503696,N BOUNDRY R/KOREAN AIRLINE,,40.661598,-73.789787,,,0,
1692,503697,N BOUNDRY R/FEDERAL EXPRESS,,40.662903,-73.784882,,,0,
1693,503698,N BOUNDRY R/N HANGER RD,,40.66037,-73.778687,,,0,
1694,503700,N BOUNDRY R/HALMAR CO,,40.660667,-73.778687,,,0,
1695,503701,N BOUNDRY R/FEDERAL EXPRESS,,40.662682000000004,-73.783264,,,0,
1696,503702,N BOUNDRY R/KOREAN AIRLINE,,40.661640000000006,-73.790131,,,0,
1697,503705,148 ST/S. SERVICE CT,,40.654990999999995,-73.791588,,,0,
1698,503718,JAMAICA AV/SUTPHIN BL,,40.701862,-73.8088,,,0,
1699,503720,CORPORAL KENNEDY ST/26 AV,,40.776978,-73.782852,,,0,
1700,503721,CORPORAL KENNEDY ST/26 AV,,40.776752,-73.782951,,,0,
1701,503723,BELL BL/35 AV,,40.768875,-73.773636,,,0,
1702,503728,ROOSEVELT AV/MAIN ST,,40.760067,-73.827896,,,0,
1703,503730,FRANCIS LEWIS BL/WHITEHALL TERR,,40.722091999999996,-73.760147,,,0,
1704,503731,FRANCIS LEWIS BL/EPSOM COURSE,,40.724396,-73.764511,,,0,
1705,503753,BRADDOCK AV/CROSS ISLAND PY,,40.725654999999996,-73.725174,,,0,
1706,503756,FARMERS BL/121 AV,,40.685421000000005,-73.760727,,,0,
1707,503757,FARMERS BL/120 AV,,40.686779,-73.76119200000001,,,0,
1708,503758,FARMERS BL/119 AV,,40.688576,-73.761902,,,0,
1709,503759,FARMERS BL/118 AV,,40.690548,-73.762146,,,0,
1710,503760,FARMERS BL/116 AV,,40.693871,-73.762169,,,0,
1711,503761,FARMERS BL/115 RD,,40.695518,-73.76151999999999,,,0,
1712,503763,FARMERS BL/TURIN DR,,40.69278,-73.76254300000001,,,0,
1713,503764,FARMERS BL/NELLIS ST,,40.683678,-73.760559,,,0,
1714,503768,LINDEN BL/EVERITT PL,,40.691784000000006,-73.76391600000001,,,0,
1715,503770,FARMERS BL/QUENCER RD,,40.694862,-73.761978,,,0,
1716,503771,FARMERS BL/114 RD,,40.697025,-73.762001,,,0,
1717,503772,FARMERS BL/114 DR,,40.696976,-73.761772,,,0,
1718,503773,165 ST TERM/165 ST TERM BAY 3,,40.708107,-73.79555500000001,,,0,
1719,503774,N BOUNDRY R/CHINA CARGO AIRLINE,,40.659405,-73.775154,,,0,
1720,503777,S CONDUIT AV/233 ST,,40.665257000000004,-73.743034,,,0,
1721,503778,MAIN ST/63 AV,,40.736977,-73.825203,,,0,
1722,503779,FARMERS BL/145 DR,,40.664367999999996,-73.768265,,,0,
1723,503784,FARMERS BL/113 RD,,40.699096999999995,-73.76280200000001,,,0,
1724,503787,FRANCIS LEWIS BL/GRAND CENTRAL PY,,40.725403,-73.765366,,,0,
1725,503789,153 ST/JAMAICA AV,,40.703014,-73.802399,,,0,
1726,503791,LINDEN BL/179 ST,,40.692329,-73.76773100000001,,,0,
1727,503827,HOOK CREEK BL/N CONDUIT AV,,40.666298,-73.729721,,,0,
1728,503828,213 PL/BAY TER CT,,40.780871999999995,-73.777191,,,0,
1729,503831,LIBERTY AV/184 ST,,40.704716,-73.772713,,,0,
1730,503839,HOLLIS AV/217 ST,,40.710724,-73.740707,,,0,
1731,503840,S CONDUIT AV/FRANCIS LEWIS BL,,40.665222,-73.734718,,,0,
1732,503842,SUNRISE HWY/S TERRACE PL,,40.664192,-73.716774,,,0,
1733,503848,LGA/TERMINAL C,,40.770294,-73.864502,,,0,
1734,503850,LGA INTERNAL ROADWAY/TERMINAL B,,40.774254,-73.872551,,,0,
1735,503875,LGA/TERMINAL D,,40.768387,-73.862534,,,0,
1736,503880,ROOSEVELT AV/126 ST,,40.75523,-73.843369,,,0,
1737,503890,FARMERS BL/LINDEN BL,,40.691986,-73.762314,,,0,
1738,503894,108 ST/32 AV,,40.759895,-73.86128199999999,,,0,
1739,503898,ROOSEVELT AV/SHEA PARKING LOT,,40.75378,-73.84818299999999,,,0,
1740,503900,ROOSEVELT AV/COLLEGE PT BL,,40.758202000000004,-73.83381700000001,,,0,
1741,503901,ROOSEVELT AV/WILLETS PT BL,,40.755276,-73.843643,,,0,
1742,503902,ROOSEVELT AV/GRAND CENTRAL PY,,40.75338,-73.849983,,,0,
1743,503911,MURDOCK AV/FARMERS BL,,40.698055,-73.761902,,,0,
1744,503912,S CONDUIT AV/140 AV,,40.665184,-73.73667900000001,,,0,
1745,503913,FARMERS BL/LINDEN BL,,40.691429,-73.76244399999999,,,0,
1746,503914,HILLSIDE AV/240 ST,,40.733565999999996,-73.726311,,,0,
1747,503919,CROSS ISLAND PY/154 ST,,40.785919,-73.807709,,,0,
1748,503920,CORPORAL KENNEDY ST/33 AV,,40.770920000000004,-73.77975500000001,,,0,
1749,503921,32 AV/CORPORAL KENNEDY ST,,40.77219,-73.78070100000001,,,0,
1750,503922,MURDOCK AV/196 ST,,40.699169,-73.758163,,,0,
1751,503927,41 AV/150 ST,,40.76255,-73.81433100000001,,,0,
1752,503932,JAMAICA AV/PARSONS BL,,40.703278000000005,-73.800682,,,0,
1753,503933,ARCHER AV/GUY R BREWER BL,,40.70332,-73.79559300000001,,,0,
1754,503936,ARCHER AV/165 ST,,40.704128000000004,-73.79338100000001,,,0,
1755,503937,ARCHER AV/MERRICK BL,,40.7043,-73.79293100000001,,,0,
1756,503950,ARCHER AV/165 ST,,40.703854,-73.793991,,,0,
1757,503953,JAMAICA AV/162 ST,,40.704223999999996,-73.798172,,,0,
1758,503954,SUNRISE HY/FRANCIS LEWIS BL,,40.66568,-73.73622900000001,,,0,
1759,503957,148 AV/259 ST,,40.654953000000006,-73.729263,,,0,
1760,503959,SUNRISE HWY/HOOK CREEK BL,,40.665646,-73.730324,,,0,
1761,503961,MAIN ST/HORACE HARDING EY N,,40.742809,-73.825623,,,0,
1762,503964,MERRICK BL/ARCHER AV,,40.704906,-73.793304,,,0,
1763,503965,HILLSIDE AV/210 ST,,40.723209000000004,-73.75618,,,0,
1764,503967,MERRICK BL/104 AV,,40.701576,-73.790459,,,0,
1765,503968,LINDEN BL/NASHVILLE BL,,40.696461,-73.744896,,,0,
1766,503970,SUNRISE HWY/CALDOR,,40.664955,-73.71968100000001,,,0,
1767,503971,SPRINGFIELD BL/143 AV,,40.668453,-73.756897,,,0,
1768,503974,JAMAICA AV/246 ST,,40.724734999999995,-73.722649,,,0,
1769,503975,168 ST/HILLSIDE AV,,40.709773999999996,-73.794556,,,0,
1770,503976,ARCHER AV/168 ST,,40.704735,-73.79174,,,0,
1771,503978,HILLSIDE AV/199 ST,,40.719153999999996,-73.763634,,,0,
1772,503979,150 ST/ROOSEVELT AV,,40.763366999999995,-73.814362,,,0,
1773,503980,ARCHER AV/165 ST,,40.703632,-73.795181,,,0,
1774,503981,29 AV/167 ST,,40.770786,-73.797958,,,0,
1775,503983,73 AV/CLEARVIEW EXP,,40.737411,-73.76937099999999,,,0,
1776,503984,HILLSIDE AV/168 PL,,40.710339000000005,-73.79390699999999,,,0,
1777,503985,HOLLIS AV/198 ST,,40.706264000000004,-73.75909399999999,,,0,
1778,503986,HOLLIS AV/201 ST,,40.706207,-73.756035,,,0,
1779,503989,DITMARS BL/24 RD,,40.767544,-73.866058,,,0,
1780,504001,JAMAICA AV/SUTPHIN BL,,40.701824,-73.808601,,,0,
1781,504004,ARCHER AV/149 ST,,40.701218,-73.80483199999999,,,0,
1782,504008,LIBERTY AV/MERRICK BL,,40.70237,-73.791481,,,0,
1783,504009,FARMERS BL/105 AV,,40.705803,-73.767044,,,0,
1784,504015,148 ST/S CARGO RD,,40.654606,-73.79097,,,0,
1785,504016,148 ST/150 AV,,40.661076,-73.792633,,,0,
1786,504019,148 ST/CENTER CARGO RD,,40.657845,-73.793785,,,0,
1787,504027,HILLSIDE AV/181 ST,,40.713135,-73.781364,,,0,
1788,504029,HOLLIS CT BL/FRANCIS LEWIS BL,,40.745022,-73.777512,,,0,
1789,504031,HORACE HARDING EXP/175 PL,,40.739253999999995,-73.7938,,,0,
1790,504032,150 ST/25 AV,,40.775574,-73.81505600000001,,,0,
1791,504034,46 AV/163 ST,,40.753777,-73.80435899999999,,,0,
1792,504037,116 AV/FRANCIS LEWIS BL,,40.69762,-73.746674,,,0,
1793,504039,174 ST/64 AV BAY 1,,40.738021999999994,-73.794884,,,0,
1794,504040,174 ST/64 AV,,40.737774,-73.794853,,,0,
1795,504044,208 ST /32 AV BAY 2,,40.771491999999995,-73.782143,,,0,
1796,504045,213 ST/92 AV,,40.720577,-73.747093,,,0,
1797,504048,257 ST/81 AV,,40.741264,-73.71279100000001,,,0,
1798,504053,58 AV / SPRINGFIELD BL,,40.751041,-73.757446,,,0,
1799,504057,MARATHON PY/51 AV,,40.762661,-73.733757,,,0,
1800,504063,SPRINGFIELD BL / 145 RD,,40.663959999999996,-73.759315,,,0,
1801,504065,SPRINGFIELD BL/145 RD,,40.663849,-73.75936899999999,,,0,
1802,504068,165 ST / BUS TERMINAL,,40.708622,-73.79594399999999,,,0,
1803,504069,FARMERS BL/120 AV,,40.686085,-73.761147,,,0,
1804,504077,HOMELAWN ST/GRAND CENTRAL PY,,40.719592999999996,-73.790497,,,0,
1805,504081,KISSENA BL/HOLLY AV,,40.750904,-73.819542,,,0,
1806,504090,ROOSEVELT AV/82 ST,,40.747673,-73.88419300000001,,,0,
1807,504091,SUNRISE HWY/LIRR STA,,40.66568,-73.73410799999999,,,0,
1808,504421,165 ST TERM/165 ST TERM BAY 6,,40.707565,-73.795509,,,0,
1809,504424,UTOPIA PY/UNION TP,,40.725628,-73.791557,,,0,
1810,504427,150 ST/CROSS ISLAND PY SVC RD,,40.786663,-73.813538,,,0,
1811,504428,48 AV/207 ST,,40.753956,-73.773804,,,0,
1812,504429,BELL BL/24 AV,,40.779720000000005,-73.77529100000001,,,0,
1813,504432,NORTHERN BL/243 ST,,40.765327,-73.7435,,,0,
1814,504436,HOMELAWN ST/GOTHIC DR,,40.714359,-73.793396,,,0,
1815,504437,LIBERTY AV/170 ST,,40.703666999999996,-73.787979,,,0,
1816,504441,148 ST/150 AV,,40.661034,-73.792885,,,0,
1817,504442,HOOK CREEK BL/136 AV,,40.668793,-73.728966,,,0,
1818,504443,HOOK CREEK BL/134 AV,,40.670784000000005,-73.72827099999999,,,0,
1819,504444,48 AV/BELL BL,,40.755577,-73.767349,,,0,
1820,504445,TOTTEN AV/CROSS ISLAND PY,,40.791431,-73.781059,,,0,
1821,504446,32 AV/CLEARVIEW EP SR E,,40.771595,-73.78315699999999,,,0,
1822,504447,32 AV/CLEARVIEW EP SR W,,40.771214,-73.784439,,,0,
1823,504456,FARMERS BL/LUDLUM AV,,40.705341,-73.767113,,,0,
1824,504457,FARMERS BL/104 AV,,40.706402000000004,-73.76735699999999,,,0,
1825,504458,QUEENS BL/QUEENS PZ E,,40.748855999999996,-73.937149,,,0,
1826,504459,FARMERS BL/103 AV,,40.707638,-73.767578,,,0,
1827,504460,FARMERS BL/142 AV,,40.67028,-73.765366,,,0,
1828,504461,LINDEN BL/172 ST,,40.691841,-73.778778,,,0,
1829,504462,MERRICK BL/111 AV,,40.694389,-73.781174,,,0,
1830,504463,FRANCIS LEWIS BL/SUNRISE HY,,40.666046,-73.735962,,,0,
1831,504464,LIBERTY AV/180 ST,,40.705555,-73.77780200000001,,,0,
1832,504465,LIBERTY AV/183 ST,,40.705376,-73.776291,,,0,
1833,504467,ARCHER AV /PARSONS BL,,40.702312,-73.800117,,,0,
1834,504469,ARCHER AV / PARSONS BL,,40.702179,-73.80062099999999,,,0,
1835,504470,ARCHER AV/PARSONS BL,,40.702126,-73.80103299999999,,,0,
1836,504471,165 ST/TERMINAL,,40.707558,-73.795502,,,0,
1837,504472,165 ST/TERMINAL,,40.707813,-73.79541800000001,,,0,
1838,504473,FRANCIS LEWIS BL/172 ST,,40.770851,-73.79341099999999,,,0,
1839,504476,39 AV /138 ST,,40.761009,-73.827042,,,0,
1840,504477,39 AV/UNION ST,,40.760906,-73.827316,,,0,
1841,504478,CROSS ISLAND PKWY / 209 ST,,40.788765000000005,-73.78312700000001,,,0,
1842,504480,ARCHER AV /SUTPHIN BL,,40.700489000000005,-73.807884,,,0,
1843,504481,ARCHER AV/SUTPHIN BL,,40.700503999999995,-73.807823,,,0,
1844,504482,CORPORAL KENNEDY ST/32 AV,,40.772369,-73.78070799999999,,,0,
1845,504484,ROOSEVELT AV/WILLETS PT BL STATIO,,40.754482,-73.845703,,,0,
1846,504486,FARMERS BL/LIBERTY AV,,40.703049,-73.766693,,,0,
1847,504487,39 AV/138 ST,,40.760971000000005,-73.827057,,,0,
1848,504489,QUEENS BL/78 CR,,40.714733,-73.831238,,,0,
1849,504493,257 ST/JAMAICA AV,,40.728199,-73.707779,,,0,
1850,504509,LITTLE NECK PY/87 DR,,40.727734000000005,-73.71067,,,0,
1851,504521,LITTLE NECK PY/87 DR,,40.72831,-73.710442,,,0,
1852,504522,LITTLE NECK PY/87 RD,,40.728714000000004,-73.710808,,,0,
1853,504523,BRINKERHOFF AV/189 ST,,40.703831,-73.767426,,,0,
1854,504525,HILLSIDE AV/197 ST,,40.718204,-73.765877,,,0,
1855,504527,UTOPIA PY/169 ST,,40.781513000000004,-73.794373,,,0,
1856,504528,HILLSIDE AV/248 ST,,40.734997,-73.719688,,,0,
1857,504532,204 ST/111 AV,,40.705321999999995,-73.752998,,,0,
1858,504533,204 ST/111 AV BAY 3,,40.70615,-73.753395,,,0,
1859,504538,FARMERS BL/MARS PL,,40.681538,-73.761131,,,0,
1860,504539,FARMERS BL/MERRICK BL,,40.679409,-73.76179499999999,,,0,
1861,504540,JAMAICA AV/MERRICK BL,,40.705936,-73.79385400000001,,,0,
1862,504541,MURDOCK AV/200 ST,,40.699905,-73.754784,,,0,
1863,504543,140 AV/BEDELL ST,,40.671928,-73.762589,,,0,
1864,504544,LITTLE NECK PY/82 AV,,40.740219,-73.71579,,,0,
1865,504545,UNION TP/QUEENS BL,,40.714619,-73.828804,,,0,
1866,504548,150 ST/24 AV,,40.777283000000004,-73.81482700000001,,,0,
1867,504553,LAKEVILLE RD/UNION TPK,,40.752846000000005,-73.701942,,,0,
1868,504554,LAKEVILLE RD/ HEWLETT ST,,40.753735,-73.703209,,,0,
1869,504555,L.I.J.MEDICAL RDWY/271 ST,,40.755066,-73.70642099999999,,,0,
1870,504556,LAKEVILLE RD/HEWLETT ST,,40.753651,-73.703346,,,0,
1871,504557,ARCHER AV/150 ST,,40.701423999999996,-73.804573,,,0,
1872,504559,ARCHER AV/SUTPHIN BL,,40.700626,-73.80722800000001,,,0,
1873,504950,149 AV/253 ST,,40.652969,-73.736488,,,0,
1874,504951,149 AV/257 ST,,40.652843,-73.731651,,,0,
1875,504952,259 ST/149 AV,,40.653191,-73.729668,,,0,
1876,504954,FRANCIS LEWIS BL/256 ST,,40.659214,-73.729843,,,0,
1877,504955,FRANCIS LEWIS BL/245 St,,40.664814,-73.73485600000001,,,0,
1878,504957,LINDEN BL/GUY BREWER BL,,40.689116999999996,-73.785713,,,0,
1879,504959,LINDEN BL/VAN WYCK EP,,40.683193,-73.805122,,,0,
1880,504967,LIBERTY AV/VAN WYCK EP,,40.692169,-73.81019599999999,,,0,
1881,504980,ARCHER AV/SUTPHIN BL,,40.700676,-73.807571,,,0,
1882,504981,ARCHER AV/158 ST,,40.701846999999994,-73.80201,,,0,
1883,504985,ARCHER AV/MERRICK BL,,40.704723,-73.791862,,,0,
1884,504986,29 AV / 163 ST,,40.771214,-73.801979,,,0,
1885,504987,HORACE HARDING EXP /JUNCTION BL,,40.734364,-73.86451,,,0,
1886,504988,94 ST/58 AV,,40.735603000000005,-73.867188,,,0,
1887,504989,MAIN ST/39 AV,,40.760326,-73.83058199999999,,,0,
1888,504992,ROOSEVELT AV/BOWNE ST,,40.760929,-73.824936,,,0,
1889,504993,MAIN ST/39 AV,,40.760376,-73.830704,,,0,
1890,504994,ROOSEVELT AV /UNION ST,,40.760174,-73.827377,,,0,
1891,504995,HORACE HARDING EXP/231 ST,,40.751171,-73.747116,,,0,
1892,504998,HILLSIDE AV/139 ST,,40.704525,-73.81438399999999,,,0,
1893,504999,QUEENS BL/87 AV,,40.706776,-73.81675,,,0,
1894,505000,QUEENS BL/86 AV,,40.708065000000005,-73.817635,,,0,
1895,505002,MAIN ST/84 RD,,40.712864,-73.816971,,,0,
1896,505003,MAIN ST/COOLIDGE AV,,40.715244,-73.816223,,,0,
1897,505004,PARSONS BL/21 AV,,40.780811,-73.82270799999999,,,0,
1898,505006,MAIN ST/GRAND CENTRAL PKY,,40.715294,-73.81649,,,0,
1899,505007,MAIN ST/ 82 DR,,40.713181,-73.81706199999999,,,0,
1900,505008,MAIN ST/139 ST,,40.711079,-73.819,,,0,
1901,505009,QUEENS BL/MAIN ST,,40.708687,-73.818787,,,0,
1902,505010,QUEENS BL/86 AV,,40.707294,-73.817581,,,0,
1903,505011,HILLSIDE AV/139 ST,,40.704414,-73.81399499999999,,,0,
1904,505013,20 AV/WHITESTONE EXP,,40.781773,-73.826126,,,0,
1905,505014,20 AV/TARGET SUPERMARKET,,40.781760999999996,-73.832634,,,0,
1906,505015,20 AV/WALDBAUMS,,40.781754,-73.835785,,,0,
1907,505016,20 AV/131 ST,,40.781757,-73.83764599999999,,,0,
1908,505017,20 AV/127 ST,,40.781738,-73.841286,,,0,
1909,505018,20 AV/124 ST,,40.781734,-73.844521,,,0,
1910,505019,COLLEGE PT BL/20 AV,,40.781979,-73.84585600000001,,,0,
1911,505020,COLLEGE PT BL/18 AV,,40.78352,-73.845764,,,0,
1912,505021,15 AV/COLLEGE PT BL,,40.784149,-73.845505,,,0,
1913,505022,COLLEGE PT BL/15 AV,,40.784073,-73.845894,,,0,
1914,505023,20 AV/COLLEGE PT BL,,40.781639,-73.845512,,,0,
1915,505024,20 AV/124 ST,,40.781634999999994,-73.843735,,,0,
1916,505025,20 AV/128 ST,,40.781647,-73.840614,,,0,
1917,505026,20 AV/131 ST,,40.781544,-73.837303,,,0,
1918,505027,20 AV/OPP WALDBAUMS,,40.781548,-73.83483100000001,,,0,
1919,505028,20 AV/OPP TARGET,,40.781548,-73.83239,,,0,
1920,505029,20 AV/POSTAL FACILITY,,40.781566999999995,-73.827492,,,0,
1921,505031,MAIN ST/GRAVETT RD,,40.735226000000004,-73.82537099999999,,,0,
1922,505032,QUEENS BL/87 AV,,40.70599,-73.816704,,,0,
1923,505033,MAIN ST/MANTON ST,,40.709949,-73.81893199999999,,,0,
1924,505037,PARSONS BL/20 AV,,40.782059000000004,-73.822052,,,0,
1925,505038,14 AV/141 ST,,40.786545000000004,-73.82785,,,0,
1926,505039,14 AV/137 ST,,40.786133,-73.831467,,,0,
1927,505040,15 AV/124 ST,,40.784554,-73.843575,,,0,
1928,505041,14 AV/143 ST,,40.78669,-73.826828,,,0,
1929,505042,14 AV/142 ST,,40.786640000000006,-73.827675,,,0,
1930,505043,14 AV/139 ST,,40.78635,-73.830345,,,0,
1931,505044,14 AV/130 ST,,40.785809,-73.838699,,,0,
1932,505045,14 AV/128 ST,,40.785339,-73.84060699999999,,,0,
1933,505048,BOWNE ST/SANFORD AV,,40.758511,-73.823212,,,0,
1934,505051,UTOPIA PKY/59 AV,,40.739940999999995,-73.792999,,,0,
1935,505053,32 AV/200 ST,,40.769615,-73.78939799999999,,,0,
1936,505057,92 ST/59 AV,,40.734272,-73.86930100000001,,,0,
1937,505059,CROSS ISLAND PKY/150 ST,,40.786865,-73.81307199999999,,,0,
1938,505060,CROSS ISLAND PKY/149 ST,,40.787464,-73.816277,,,0,
1939,505061,132 ST /20 AV,,40.782139,-73.836708,,,0,
1940,505065,48 AV/211 ST,,40.755013,-73.769798,,,0,
1941,505068,WOODHULL AV/190 ST,,40.710495,-73.76947,,,0,
1942,505071,HORACE HARDING EXP/108 ST,,40.736881,-73.85183,,,0,
1943,505072,HOLLIS AV/217 LN,,40.710678,-73.740532,,,0,
1944,505092,20 AV/BABIES R US,,40.781769,-73.828201,,,0,
1945,505093,UNION TPK/HEWLETT ST,,40.752136,-73.702545,,,0,
1946,505095,14 AV/132 ST,,40.786362,-73.836174,,,0,
1947,505096,HILLSIDE AV/187 PL,,40.715015,-73.773735,,,0,
1948,505097,QUEENS BL/48 ST,,40.743214,-73.916977,,,0,
1949,505098,148 AV/259 ST,,40.655052000000005,-73.729538,,,0,
1950,505099,259 ST/149 AV,,40.652977,-73.72979000000001,,,0,
1951,505100,149 AV/257 ST,,40.653,-73.731903,,,0,
1952,505102,177 ST / 104 AV,,40.704124,-73.781609,,,0,
1953,505125,131 ST/15 AV,,40.784458,-73.837532,,,0,
1954,505126,154 ST/9 AV,,40.793625,-73.806969,,,0,
1955,505127,POWELLS COVE BL/157 ST,,40.79438,-73.803329,,,0,
1956,505128,POWELLS COVE BL/159 ST,,40.794453000000004,-73.802711,,,0,
1957,505129,154 ST/POWELLS COVE BL,,40.794411,-73.807022,,,0,
1958,505130,154 ST/11 AV,,40.792396999999994,-73.80729699999999,,,0,
1959,505131,HEMPSTEAD AV/SPRINGFIELD BL,,40.713055,-73.73539699999999,,,0,
1960,505134,SPRINGFIELD BL/115 AV,,40.700924,-73.74173,,,0,
1961,505135,SPRINGFIELD BL/116 RD,,40.696873,-73.743507,,,0,
1962,505136,FRANCIS LEWIS BL/SPRINGFIELD BL,,40.692932,-73.744743,,,0,
1963,505137,SPRINGFIELD BL / 119 AV,,40.692741,-73.745102,,,0,
1964,505138,SPRINGFIELD BL / 118 AV,,40.694824,-73.743935,,,0,
1965,505139,SPRINGFIELD BL / LINDEN BL,,40.697536,-73.743027,,,0,
1966,505140,SPRINGFIELD BL / 116 AV,,40.698192999999996,-73.74279,,,0,
1967,505141,SPRINGFIELD BL / 115 RD,,40.699898,-73.742012,,,0,
1968,505143,SPRINGFIELD BL/109 AV,,40.708729,-73.738182,,,0,
1969,505152,UNION TP/256 ST,,40.745396,-73.714813,,,0,
1970,505154,SPRINGFIELD BL / 114 AV,,40.702273999999996,-73.740799,,,0,
1971,505158,QUEENS PLAZA S/28 ST,,40.749855,-73.939194,,,0,
1972,505160,POWELLS COVE BL/160 ST,,40.794205,-73.80109399999999,,,0,
1973,505169,FRANCIS LEWIS BL/S.CONDUIT AV,,40.664978000000005,-73.735214,,,0,
1974,505171,FRANCIS LEWIS BL/147 DR,,40.655506,-73.727112,,,0,
1975,505173,ROCKY HILL RD/CLEARVIEW EP,,40.75325,-73.776512,,,0,
1976,505174,HILLSIDE AV/144 ST,,40.705116,-73.811699,,,0,
1977,505175,HILLSIDE AV/144 ST,,40.705212,-73.811821,,,0,
1978,505192,ROOSEVELT AV/74 ST,,40.746788,-73.891251,,,0,
1979,505201,HILLSIDE AV/198 ST,,40.718857,-73.764626,,,0,
1980,505213,KISSENA BL/SANFORD AV,,40.757282000000004,-73.827209,,,0,
1981,505219,S CONDUIT AV/LANSING AV,,40.665405,-73.747261,,,0,
1982,505233,HILLSIDE AV/AVON ST,,40.713535,-73.780434,,,0,
1983,505236,169 St/HILLSIDE AV,,40.710529,-73.79304499999999,,,0,
1984,505238,JFK AIRPORT/TERMINAL 5 AirTrain STATION,,40.647278,-73.77963299999999,,,0,
1985,505239,DOUGLASTON PY/61 AV,,40.755608,-73.73943299999999,,,0,
1986,505240,58 AV/223 ST,,40.751511,-73.755669,,,0,
1987,505241,56 AV/223 ST,,40.753741999999995,-73.756927,,,0,
1988,505245,LITTLE NECK PY/87 TER,,40.72961,-73.710541,,,0,
1989,505264,ARCHER AV/160 ST,,40.702744,-73.798798,,,0,
1990,550262,LINDEN BVD/VAN WYCK EXPY,,40.683132,-73.804787,,,0,
1991,550265,LINDEN BL/SUTPHIN BL,,40.686371,-73.793488,,,0,
1992,550267,LINDEN BL/GUY R BREWER BL,,40.688866,-73.78591899999999,,,0,
1993,550269,LINDEN BL/170 ST,,40.691433,-73.779587,,,0,
1994,550279,LINDEN BL/SUTPHIN BL,,40.686253,-73.794365,,,0,
1995,551129,23 AV/92 ST,,40.767944,-73.879044,,,0,
1996,551132,23 AV/90 ST,,40.767803,-73.880386,,,0,
1997,551578,QUEENS BLVD/ 78 AV,,40.715740000000004,-73.832535,,,0,
1998,551596,DITMARS BL / MARINE TERMINAL RD,,40.768215000000005,-73.887985,,,0,
1999,551691,QUEENS BL/HOOVER AV,,40.712112,-73.825317,,,0,
2000,552284,FRANCIS LEWIS BL/147 DR,,40.655772999999996,-73.727058,,,0,
2001,553021,MERRICK BL/233 ST,,40.67498,-73.736649,,,0,
2002,553188,23 AV/88 ST,,40.767596999999995,-73.881813,,,0,
2003,553189,23 AV/85 ST,,40.767113,-73.88456,,,0,
2004,802002,HUGH GRANT CI /METROPOLITAN AV,,40.833569,-73.861351,,,0,
2005,802103,HUTCHINSON RVR/LAFAYETTE AV,,40.825069,-73.836685,,,0,
2006,803035,E 37 ST/ 3 AV,,40.747608,-73.976555,,,0,
2007,803036,1 AV / 23 ST,,40.737099,-73.978264,,,0,
2008,803037,5 AV/ W 52 ST,,40.759594,-73.976685,,,0,
2009,803038,5 AV / W 45 ST,,40.755322,-73.979668,,,0,
2010,803039,5 AV / W 37 ST,,40.750244,-73.98333000000001,,,0,
2011,803040,5 AV / 32 ST,,40.74707,-73.98565699999999,,,0,
2012,804002,23 AV/97 ST,,40.768494,-73.87331400000001,,,0,
2013,804005,111 AV / 204 ST,,40.705929,-73.753258,,,0,
2014,804006,H. HARDING EXPY/F.LEWIS BLVD,,40.743694,-73.776596,,,0,
2015,804008,MAIN ST / REEVES AV,,40.739819,-73.824799,,,0,
2016,804017,138 ST/37 AV,,40.761806,-73.829559,,,0,
2017,804019,ROOSEVELT AV/74 ST,,40.746788,-73.891258,,,0,
2018,804020,48 AV/216 ST,,40.756096,-73.763611,,,0,
2019,804021,SPRINGFIELD BL/48 AV,,40.756378000000005,-73.76194,,,0,
2020,804022,SPRINGFIELD BL/53 AV,,40.753395000000005,-73.760384,,,0,
2021,804023,56 AV/SPRINGFIELD BL,,40.75325,-73.758377,,,0,
2022,804024,PARSONS BL/14 AV,,40.786781,-73.822243,,,0,
2023,804026,56 AV /223 ST,,40.754017,-73.758087,,,0,
2024,804027,56 AV /223 ST,,40.753994,-73.758163,,,0,
2025,804030,166 ST / POWELLS COVE BL,,40.793803999999994,-73.79741700000001,,,0,
2026,804031,ROOSEVELT AV/UNION ST,,40.760234999999994,-73.82770500000001,,,0,
2027,804034,243 ST/147 AV,,40.657658000000005,-73.74128,,,0,
2028,804039,ARCHER AV/153 ST,,40.702137,-73.801407,,,0,
2029,804041,39 AV/MAIN ST,,40.760220000000004,-73.83003199999999,,,0,
2030,804042,138 ST/37 AV,,40.761745,-73.82952900000001,,,0,
2031,804044,SPRINGFIELD BL/119 AV,,40.692406,-73.745216,,,0,
2032,804050,39 AV/UNION ST,,40.760902,-73.827362,,,0,
2033,804051,FRANCIS LEWIS BL/27 AV,,40.772594,-73.795013,,,0,
2034,804052,165 ST / 165 ST TERM,,40.707615000000004,-73.79554,,,0,
2035,804053,WEST CIRCLE DR /PARKING STRUCTURE (ARRIVE),,40.661846000000004,-73.723145,,,0,
2036,804060,92 ST/59 AV,,40.734978000000005,-73.869591,,,0,
2037,804061,MERRICK BL/ARCHER AV,,40.704933000000004,-73.79332,,,0,
2038,804062,FRANCIS LEWIS BL/SUNRISE HY,,40.666012,-73.735939,,,0,
2039,804063,260 ST/LITTLE NECK PY,,40.751671,-73.720772,,,0,
2040,804077,23 AV/94 ST,,40.768242,-73.87616,,,0,
2041,804083,SPRINGFIELD BL/56 AV,,40.752396000000005,-73.759552,,,0,
2042,804084,BOOTH MEMORIAL AV/UTOPIA PKWY,,40.741184000000004,-73.793098,,,0,
2043,804086,COLFAX ST/SPRINGFIELD BL,,40.701767,-73.741272,,,0,
2044,804087,BRADDOCK AV/CROSS ISLAND PY,,40.725646999999995,-73.725151,,,0,
2045,804092,SPRINGFIELD BL/50 AV,,40.755154,-73.76133,,,0,
2046,804093,48 AV/217 ST,,40.756397,-73.762672,,,0,
2047,804109,sbs60-q48-geo,,40.772152,-73.872574,,,0,
2048,804121,LaGUARDIA INTERNAL RDWY/term c loop,,40.771023,-73.86676800000001,,,0,
2049,804143,LAGUARDIA INTERNAL RY/term c loop,,40.771358,-73.86685899999999,,,0,
2050,901449,test/tunnel1,,40.747932,-73.97013100000001,,,0,
2051,901450,test/tunnel2,,40.730076000000004,-73.91188000000001,,,0,
2052,901451,Queens/Midtown Tunnel3,,40.733799,-73.867126,,,0,
2053,903044,MADISON AV/E 42 ST,,40.752556,-73.97924,,,0,
2054,903085,W 32 ST/7 AV,,40.749435,-73.99108100000001,,,0,
2055,903217,7 AV/W 36 ST,,40.752410999999995,-73.989731,,,0,
2056,903235,W 37 ST/BROADWAY,,40.752178,-73.98738900000001,,,0,
2057,904002,HEMPSTEAD AV/CROSS ISLAND PKY,,40.711315,-73.728836,,,0,
2058,904004,LINDEN BL/MERRICK BL,,40.691624,-73.779434,,,0,
2059,904005,TEARDROP/LAYOVER,,40.701683,-73.802475,,,0,
2060,904006,TEARDROP/LAYOVER,,40.701747999999995,-73.802399,,,0,
2061,904007,ROOSEVELT AV/LAYOVER,,40.758998999999996,-73.831757,,,0,
2062,904008,ARCHER AV /153 ST,,40.702129,-73.801498,,,0,
2063,904009,165 ST / 165 ST TERMINAL,,40.708736,-73.796021,,,0,
2064,904010,132 ST/20 AV,,40.782063,-73.83671600000001,,,0,
2065,904011,ROOSEVELT AV/MAIN ST,,40.759440999999995,-73.830345,,,0,
2066,904012,20 AV /WHITESTONE EXP,,40.781605,-73.826065,,,0,
2067,904015,46 AV/PARSONS BL,,40.754272,-73.813416,,,0,
2068,904016,ROOSEVELT AV /UNION ST,,40.760021,-73.828537,,,0,
2069,904019,23 AV /BELL BL,,40.782295,-73.77703100000001,,,0,
2070,904020,39 AV /138 ST,,40.760937,-73.827286,,,0,
2071,904021,TOTTEN AV /CROSS ISLAND PKY,,40.791351,-73.780952,,,0,
2072,904022,BELL BL/35 AV,,40.768902000000004,-73.773651,,,0,
2073,904023,BELL BL/35 AV,,40.769058,-73.77385699999999,,,0,
2074,904025,CLINTONVILLE ST/7 AV,,40.795059,-73.813873,,,0,
2075,904026,LINDEN BL/235 ST,,40.690762,-73.727531,,,0,
2076,904033,FRANCIS LEWIS BL/255 ST,,40.659298,-73.73008,,,0,
2077,904035,253 ST /149 AV,,40.652878,-73.736755,,,0,
2078,904036,QUEENS BL/78 AV,,40.714661,-73.832092,,,0,
2079,904037,LIBERTY AV/SUTPHIN BL,,40.696224,-73.804314,,,0,
2080,904038,LIBERTY AV/UNION HALL ST,,40.700649,-73.795525,,,0,
2081,904039,137 AV/ FARMERS BL,,40.673401,-73.764359,,,0,
2082,904040,E 37 ST/ 3 AV,,40.747623,-73.97649399999999,,,0,
2083,904041,E 42 ST / PARK AV,,40.752078999999995,-73.977417,,,0,
2084,904042,MADISON AV/E 48 ST,,40.756863,-73.976212,,,0,
2085,904043,MADISON AV/E 54 ST,,40.760651,-73.97345,,,0,
2086,904044,E 57 ST/LEXINGTON AV,,40.760647,-73.968826,,,0,
2087,904045,E 57 ST/3 AV,,40.759918,-73.966972,,,0,
2088,904046,lga/circle,,40.770740999999994,-73.86792,,,0,
2089,904047,queensboro br up ry,,40.749534999999995,-73.942154,,,0,
2090,904061,32 AV / FRANCIS LEWIS BL,,40.768913,-73.791763,,,0,
2091,904073,ROOSEVELT AV/MAIN ST,,40.75959,-73.83028399999999,,,0,
2092,904074,ROOSEVELT AV/COLLEGE PT BL,,40.758347,-73.833961,,,0,
2093,904075,56 AV/223 ST,,40.753665999999996,-73.757088,,,0,
2094,904079,MAIN ST/HORACE HARDING EXPY,,40.742958,-73.825417,,,0,
2095,904083,ARCHER AV/TEARDROP CANOPY,,40.701538,-73.80265,,,0,
2096,904088,QUEENS BL/78 AV,,40.715233000000005,-73.832024,,,0,
2097,904089,HORACE HARDING EXP/KISSENA BL,,40.738503,-73.814423,,,0,
2098,904095,ARCHER AV/SUTPHIN PL,,40.7005,-73.807838,,,0,
2099,904097,SPRINGFIELD BL/MURDOCK AV,,40.703548,-73.74047900000001,,,0,
2100,904098,SPRINGFIELD BL/MURDOCK AV,,40.703739,-73.74026500000001,,,0,
2101,904099,E 57 ST/PARK AV,,40.761776,-73.970901,,,0,
2102,904101,HILLSIDE AV/268 ST,,40.738716,-73.701385,,,0,
2103,904102,ROOSEVELT AV/PRINCE ST,,40.758987,-73.831779,,,0,
2104,904104,227 ST/113 DR,,40.70211,-73.730339,,,0,
2105,904105,137 AV/FARMERS BL,,40.673389,-73.764473,,,0,
2106,904107,235 ST / LINDEN BL,,40.690647,-73.727409,,,0,
2107,904121,LIJ MEDICAL CTR/271 ST,,40.754894,-73.70658900000001,,,0,
2108,904122,LAKEVILLE RD/LIJ MEDICAL RDWY,,40.754822,-73.704178,,,0,
2109,904147,QUEENS BL/46 ST,,40.742924,-73.918625,,,0,
2110,904172,162 ST/POWELL'S COVE BL,,40.794059999999995,-73.79969,,,0,
2111,904180,CLINTONVILLE ST/10 AV,,40.793034000000006,-73.81307199999999,,,0,
2112,904181,10 AV/152 ST,,40.793471999999994,-73.81019599999999,,,0,
2113,904182,154 ST/10 AV,,40.793468,-73.80719,,,0,
2114,904183,10 AV/ 152 ST,,40.793617,-73.81047099999999,,,0,
2115,904184,CLINTONVILLE ST/10 AV,,40.793095,-73.812912,,,0,
2116,904185,151 ST/7 AV,,40.795086,-73.81353,,,0,
2117,904188,UNION ST/NORTHERN BL,,40.763659999999994,-73.82821700000001,,,0,
2118,904189,ROOSEVELT AV/MAIN ST,,40.759628,-73.829964,,,0,
2119,904190,ROOSEVELT AV/MAIN ST,,40.759586,-73.830299,,,0,
2120,904200,LGA M60 E.B. (does not stop),,40.767445,-73.863449,,,0,
2121,904207,HORACE HARDING EXP/64 AV,,40.73814,-73.795372,,,0,
2122,904231,MAIN ST/UNION TPKE,,40.717976,-73.817131,,,0,
2123,904232,MAIN ST/BOOTH MEMORIAL AV,,40.746834,-73.826065,,,0,
2124,904233,DEVOE AV/WYATT AV,,40.839375,-73.877716,,,0,
2125,904234,LAURELTON PY/129 AV,,40.679817,-73.729927,,,0,
2126,904235,237 ST/129 AV,,40.680134,-73.73024699999999,,,0,
2127,904915,QUEENS PLZ N/29 ST,,40.750057,-73.93804200000001,,,0,
2128,904921,37 av/main st,,40.761547,-73.831329,,,0,
2129,982038,JFK/TERMINAL 5-6,,40.647137,-73.779427,,,0,
2130,982076,LGA/Terminal B,,40.774239,-73.872452,,,0,
2131,999999,MAIN ST/38 AV,,40.760727,-73.830612,,,0,
