,stop_id,stop_name,stop_desc,stop_lat,stop_lon,zone_id,stop_url,location_type,parent_station
0,400001,4 AV/E 9 ST,,40.73064,-73.99044,,,0,
1,400002,4 AV/E 12 ST,,40.732609000000004,-73.98996,,,0,
2,400003,4 AV/E 13 ST,,40.733936,-73.989723,,,0,
3,400007,PARK AV S/E 21 ST,,40.738976,-73.987053,,,0,
4,400026,MADISON AV/E 63 ST,,40.766273,-73.96933,,,0,
5,400027,MADISON AV/E 65 ST,,40.767582,-73.968376,,,0,
6,400028,MADISON AV/E 67 ST,,40.768814,-73.967484,,,0,
7,400029,MADISON AV/E 69 ST,,40.770077,-73.96656,,,0,
8,400030,MADISON AV/E 72 ST,,40.772148,-73.96505,,,0,
9,400032,MADISON AV/E 77 ST,,40.775321999999996,-73.962738,,,0,
10,400033,MADISON AV/E 79 ST,,40.776695000000004,-73.961731,,,0,
11,400034,MADISON AV/E 83 ST,,40.778793,-73.960205,,,0,
12,400036,MADISON AV/E 86 ST,,40.781155,-73.958481,,,0,
13,400037,MADISON AV/E 89 ST,,40.782677,-73.957375,,,0,
14,400038,MADISON AV/E 91 ST,,40.784359,-73.95613900000001,,,0,
15,400039,MADISON AV/E 93 ST,,40.785637,-73.955208,,,0,
16,400041,MADISON AV/E 98 ST,,40.788414,-73.95317800000001,,,0,
17,400042,MADISON AV/E 101 ST,,40.790302000000004,-73.951797,,,0,
18,400043,MADISON AV/E 102 ST,,40.79137,-73.95101899999999,,,0,
19,400044,MADISON AV/E 104 ST,,40.792159999999996,-73.950447,,,0,
20,400045,MADISON AV/E 106 ST,,40.793434000000005,-73.94950899999999,,,0,
21,400046,MADISON AV/E 107 ST,,40.794552,-73.94869200000001,,,0,
22,400047,MADISON AV/E 109 ST,,40.795815000000005,-73.947777,,,0,
23,400048,MADISON AV/E 111 ST,,40.797024,-73.946892,,,0,
24,400050,MADISON AV/E 115 ST,,40.799541,-73.945053,,,0,
25,400051,MADISON AV/E 118 ST,,40.801505999999996,-73.943619,,,0,
26,400053,MADISON AV/E 123 ST,,40.804778999999996,-73.94133000000001,,,0,
27,400054,MADISON AV/E 125 ST,,40.806015,-73.94034599999999,,,0,
28,400055,MADISON AV/E 127 ST,,40.807247,-73.939461,,,0,
29,400056,MADISON AV/E 129 ST,,40.80851,-73.938538,,,0,
30,400057,MADISON AV/E 132 ST,,40.810429,-73.937111,,,0,
31,400059,5 AV/E 135 ST,,40.813126000000004,-73.937225,,,0,
32,400060,5 AV/E 138 ST,,40.814465000000006,-73.936249,,,0,
33,400061,W 139 ST/5 AV,,40.815616999999996,-73.936279,,,0,
34,400062,MALCOLM X BL/W 139 ST,,40.81694,-73.938614,,,0,
35,400065,MALCOLM X BL/W 145 ST,,40.820679,-73.935875,,,0,
36,400066,W 147 ST/MALCOLM X BL,,40.821964,-73.93573,,,0,
37,400067,W 147 ST/ADAM C POWELL BL,,40.822865,-73.937859,,,0,
38,400069,GREENWICH ST/MORRIS ST,,40.706024,-74.01430500000001,,,0,
39,400070,TRINITY PL/RECTOR ST,,40.708008,-74.012711,,,0,
40,400071,CHURCH ST/LIBERTY ST,,40.710014,-74.01136,,,0,
41,400087,W 146 ST/MALCOLM X BL,,40.821152000000005,-73.935974,,,0,
42,400088,MALCOLM X BL/W 145 ST,,40.820152,-73.936607,,,0,
43,400089,MALCOLM X BL/W 142 ST,,40.818249,-73.938004,,,0,
44,400091,W 139 ST/MALCOLM X BL,,40.81638,-73.938744,,,0,
45,400092,5 AV/W 138 ST,,40.815201,-73.935982,,,0,
46,400093,5 AV/W 137 ST,,40.813793,-73.937004,,,0,
47,400094,5 AV/W 135 ST,,40.812366,-73.93804200000001,,,0,
48,400095,5 AV/W 132 ST,,40.810619,-73.939285,,,0,
49,400096,5 AV/W 130 ST,,40.809345,-73.940208,,,0,
50,400097,5 AV/W 128 ST,,40.808075,-73.941139,,,0,
51,400098,5 AV/W 125 ST,,40.806137,-73.94255799999999,,,0,
52,400099,MT MORRIS PK W/W 124 ST,,40.80619,-73.944603,,,0,
53,400100,MT MORRIS PK W/W 121 ST,,40.804607,-73.945763,,,0,
54,400101,W 120 ST/5 AV,,40.803219,-73.944672,,,0,
55,400102,5 AV/W 118 ST,,40.801693,-73.945839,,,0,
56,400103,5 AV/W 116 ST,,40.800354,-73.946815,,,0,
57,400105,5 AV/W 112 ST,,40.797874,-73.948639,,,0,
58,400107,5 AV/EAST 109 ST,,40.796535,-73.94957,,,0,
59,400108,5 AV/EAST 108 ST,,40.795513,-73.950317,,,0,
60,400109,5 AV/EAST 106 ST,,40.794178,-73.951286,,,0,
61,400110,5 AV/EAST 104 ST,,40.793071999999995,-73.952095,,,0,
62,400111,5 AV/EAST 102 ST,,40.791569,-73.95317800000001,,,0,
63,400115,5 AV/EAST 94 ST,,40.786559999999994,-73.956863,,,0,
64,400116,5 AV/EAST 92 ST,,40.785461,-73.957657,,,0,
65,400117,5 AV/EAST 90 ST,,40.784,-73.958748,,,0,
66,400118,5 AV/EAST 87 ST,,40.782188,-73.960052,,,0,
67,400119,5 AV/EAST 84 ST,,40.780434,-73.96131899999999,,,0,
68,400122,5 AV/EAST 77 ST,,40.775612,-73.964836,,,0,
69,400123,5 AV/EAST 75 ST,,40.774357,-73.965775,,,0,
70,400124,5 AV/E 72 ST,,40.771767,-73.967552,,,0,
71,400125,5 AV/EAST 69 ST,,40.77026,-73.968742,,,0,
72,400126,5 AV/EAST 65 ST,,40.768234,-73.970238,,,0,
73,400127,5 AV/EAST 63 ST,,40.767365000000005,-73.970863,,,0,
74,400128,5 AV/EAST 62 ST,,40.766083,-73.971779,,,0,
75,400153,BROADWAY/WAVERLY PL,,40.729401,-73.993515,,,0,
76,400154,BROADWAY/W 3 ST,,40.727539,-73.995102,,,0,
77,400155,BROADWAY/BLEECKER ST,,40.726261,-73.99616999999999,,,0,
78,400157,BROADWAY/SPRING ST,,40.722843,-73.99906899999999,,,0,
79,400159,BROADWAY/GRAND ST,,40.720692,-74.000893,,,0,
80,400160,BROADWAY/HOWARD ST,,40.719691999999995,-74.00173199999999,,,0,
81,400161,BROADWAY/WALKER ST,,40.718758,-74.00254100000001,,,0,
82,400162,BROADWAY/WHITE ST,,40.717808000000005,-74.003334,,,0,
83,400163,BROADWAY/THOMAS ST,,40.715832,-74.00502,,,0,
84,400165,BROADWAY/READE ST,,40.714825,-74.005875,,,0,
85,400166,BROADWAY/PARK PL,,40.712677,-74.00766800000001,,,0,
86,400167,BROADWAY/FULTON ST,,40.710781,-74.009247,,,0,
87,400168,BROADWAY/CORTLANDT ST,,40.709969,-74.009941,,,0,
88,400170,BROADWAY/RECTOR ST,,40.707553999999995,-74.011963,,,0,
89,400171,BROADWAY/MORRIS ST,,40.705631,-74.01355699999999,,,0,
90,400176,E 9 ST/BROADWAY,,40.731426,-73.992409,,,0,
91,400224,CENTRAL PK N/MALCOLM X BL,,40.798347,-73.952606,,,0,
92,400225,CENTRAL PK N/ADAM C POWELL BL,,40.799393,-73.955078,,,0,
93,400226,ADAM C POWELL BL/W 113 ST,,40.801483000000005,-73.953583,,,0,
94,400227,ADAM C POWELL BL/W 137 ST,,40.816788,-73.942406,,,0,
95,400228,ADAM C POWELL BL/W 116 ST,,40.803425,-73.952156,,,0,
96,400230,ADAM C POWELL BL/W 121 ST,,40.806599,-73.949844,,,0,
97,400231,ADAM C POWELL BL/W 123 ST,,40.807522,-73.949173,,,0,
98,400233,ADAM C POWELL BL/W 127 ST,,40.810474,-73.947006,,,0,
99,400234,ADAM C POWELL BL/W 129 ST,,40.811718,-73.946106,,,0,
100,400236,ADAM C POWELL BL/W 133 ST,,40.81419,-73.944298,,,0,
101,400237,ADAM C POWELL BL/W 135 ST,,40.815548,-73.943306,,,0,
102,400238,ADAM C POWELL BL/W 139 ST,,40.818034999999995,-73.94149,,,0,
103,400239,ADAM C POWELL BL/W 141 ST,,40.819297999999996,-73.940575,,,0,
104,400240,ADAM C POWELL BL/W 143 ST,,40.820515,-73.93968199999999,,,0,
105,400241,ADAM C POWELL BL/W 145 ST,,40.82188,-73.93869000000001,,,0,
106,400242,ADAM C POWELL BL/W 147 ST,,40.823105,-73.93779,,,0,
107,400248,EDGECOMBE AV/W 155 ST,,40.830906,-73.94027700000001,,,0,
108,400249,EDGECOMBE AV/W 158 ST,,40.832912,-73.939461,,,0,
109,400250,EDGECOMBE AV/W 160 ST,,40.834045,-73.938133,,,0,
110,400251,EDGECOMBE AV/W 162 ST,,40.835243,-73.937492,,,0,
111,400252,EDGECOMBE AV/W 164 ST,,40.836658,-73.936852,,,0,
112,400258,BROADWAY/W 168 ST,,40.841003,-73.939865,,,0,
113,400259,W 166 ST/ST NICHOLAS AV,,40.839622,-73.940186,,,0,
114,400263,EDGECOMBE AV/W 164 ST,,40.836220000000004,-73.93723299999999,,,0,
115,400264,EDGECOMBE AV/W 162 ST,,40.835011,-73.937775,,,0,
116,400265,EDGECOMBE AV/W 160 ST,,40.833652,-73.93881999999999,,,0,
117,400266,EDGECOMBE AV/W 158 ST,,40.83242,-73.939903,,,0,
118,400267,EDGECOMBE AV/W 155 ST,,40.83062,-73.940437,,,0,
119,400268,W 155 ST/EDGECOMBE AV,,40.830372,-73.94025400000001,,,0,
120,400270,W 155 ST/MACOMBS PL,,40.828438,-73.93573,,,0,
121,400271,ADAM C POWELL BL/W 154 ST,,40.827304999999996,-73.935387,,,0,
122,400272,ADAM C POWELL BL/W 151 ST,,40.826060999999996,-73.936081,,,0,
123,400273,ADAM C POWELL BL/W 150 ST,,40.824627,-73.93710300000001,,,0,
124,400274,ADAM C POWELL BL/W 148 ST,,40.823364,-73.93802600000001,,,0,
125,400275,ADAM C POWELL BL/W 145 ST,,40.821388,-73.939468,,,0,
126,400276,ADAM C POWELL BL/W 142 ST,,40.819534000000004,-73.94081899999999,,,0,
127,400277,ADAM C POWELL BL/W 140 ST,,40.818302,-73.94171899999999,,,0,
128,400278,ADAM C POWELL BL/W 138 ST,,40.817028,-73.942665,,,0,
129,400279,ADAM C POWELL BL/W 135 ST,,40.815277,-73.94390899999999,,,0,
130,400280,ADAM C POWELL BL/W 132 ST,,40.813133,-73.945396,,,0,
131,400281,ADAM C POWELL BL/W 130 ST,,40.812038,-73.946259,,,0,
132,400282,ADAM C POWELL BL/W 128 ST,,40.810699,-73.94725799999999,,,0,
133,400283,ADAM C POWELL BL/W 125 ST,,40.809181,-73.94838,,,0,
134,400284,ADAM C POWELL BL/W 122 ST,,40.806839000000004,-73.950096,,,0,
135,400285,ADAM C POWELL BL/W 120 ST,,40.805603000000005,-73.95099599999999,,,0,
136,400287,ADAM C POWELL BL/W 116 ST,,40.803593,-73.952431,,,0,
137,400288,ADAM C POWELL BL/W 114 ST,,40.801716,-73.953835,,,0,
138,400289,ADAM C POWELL BL/W 112 ST,,40.800461,-73.95475,,,0,
139,400290,CENTRAL PK N/ADAM C POWELL BL,,40.799175,-73.95485699999999,,,0,
140,400292,CENTRAL PK N/5 AV,,40.796597,-73.949577,,,0,
141,400324,5 AV/W 33 ST,,40.747509,-73.985359,,,0,
142,400325,5 AV/W 31 ST,,40.746262,-73.986267,,,0,
143,400326,5 AV/W 29 ST,,40.745071,-73.987137,,,0,
144,400327,5 AV/W 26 ST,,40.743153,-73.988541,,,0,
145,400329,5 AV/W 23 ST,,40.741240999999995,-73.990059,,,0,
146,400330,5 AV/W 20 ST,,40.739407,-73.99125699999999,,,0,
147,400331,5 AV/W 17 ST,,40.737671,-73.99252299999999,,,0,
148,400333,5 AV/W 12 ST,,40.73447,-73.99485,,,0,
149,400334,5 AV/W 10 ST,,40.733222999999995,-73.99575,,,0,
150,400335,E 8 ST/5 AV,,40.731998,-73.995926,,,0,
151,400336,E 8 ST/UNIVERSITY PL,,40.731419,-73.994499,,,0,
152,400337,E 8 ST/MERCER ST,,40.730709000000004,-73.992836,,,0,
153,400352,MADISON AV/E 30 ST,,40.745509999999996,-73.984489,,,0,
154,400353,MADISON AV/E 32 ST,,40.746582000000004,-73.983627,,,0,
155,400354,MADISON AV/E 34 ST,,40.748329,-73.982437,,,0,
156,400358,MADISON AV/E 45 ST,,40.755234,-73.97737099999999,,,0,
157,400359,MADISON AV/E 47 ST,,40.756508000000004,-73.976463,,,0,
158,400360,MADISON AV/E 49 ST,,40.757754999999996,-73.975548,,,0,
159,400361,MADISON AV/E 52 ST,,40.759636,-73.974182,,,0,
160,400362,MADISON AV/E 55  ST,,40.761509000000004,-73.972809,,,0,
161,400363,MADISON AV/E 57 ST,,40.762859000000006,-73.97184,,,0,
162,400364,MADISON AV/E 60  ST,,40.764675,-73.970474,,,0,
163,400390,CATHEDRAL PY/FRED DOUGLASS BL,,40.800743,-73.958511,,,0,
164,400394,MANHATTAN AV/W 116 ST,,40.804878,-73.956841,,,0,
165,400395,MANHATTAN AV/W 119 ST,,40.807171000000004,-73.95517,,,0,
166,400396,MANHATTAN AV/W 121 ST,,40.808448999999996,-73.954239,,,0,
167,400398,ST NICHOLAS AV/W 127 ST,,40.812206,-73.951157,,,0,
168,400399,ST NICHOLAS AV/W 130 ST,,40.814014,-73.949577,,,0,
169,400400,ST NICHOLAS AV/W 133 ST,,40.815575,-73.948608,,,0,
170,400401,ST NICHOLAS AV/W 135 ST,,40.81728,-73.947884,,,0,
171,400403,ST NICHOLAS AV/W 139 ST,,40.820152,-73.94648000000001,,,0,
172,400404,ST NICHOLAS AV/W 141 ST,,40.821135999999996,-73.946007,,,0,
173,400405,ST NICHOLAS AV/W 144 ST,,40.82328,-73.945038,,,0,
174,400406,ST NICHOLAS AV/W 145 ST,,40.824337,-73.944405,,,0,
175,400408,ST NICHOLAS AV/W 151 ST,,40.828323,-73.942276,,,0,
176,400409,ST NICHOLAS AV/W 153 ST,,40.829643,-73.941742,,,0,
177,400414,ST NICHOLAS AV/W 163 ST,,40.837013,-73.94004100000001,,,0,
178,400418,ST NICHOLAS AV/W 170 ST,,40.842529,-73.938553,,,0,
179,400419,ST NICHOLAS AV/W 173 ST,,40.844406,-73.937187,,,0,
180,400422,ST NICHOLAS AV/W 179 ST,,40.848225,-73.934395,,,0,
181,400423,ST NICHOLAS AV/W 181 ST,,40.849571000000005,-73.933418,,,0,
182,400426,ST NICHOLAS AV/W 187 ST,,40.853359000000005,-73.93064100000001,,,0,
183,400448,ST NICHOLAS AV/W 192 ST,,40.856289000000004,-73.928764,,,0,
184,400449,ST NICHOLAS AV/W 190 ST,,40.854496000000005,-73.930038,,,0,
185,400452,ST NICHOLAS AV/W 184 ST,,40.850792,-73.932785,,,0,
186,400453,ST NICHOLAS AV/W 181 ST,,40.849014000000004,-73.93408199999999,,,0,
187,400454,ST NICHOLAS AV/W 178 ST,,40.847481,-73.935165,,,0,
188,400457,ST NICHOLAS AV/W 172 ST,,40.843216,-73.938316,,,0,
189,400461,ST NICHOLAS AV/W 164 ST,,40.837565999999995,-73.94017,,,0,
190,400462,ST NICHOLAS AV/W 162 ST,,40.836269,-73.94010899999999,,,0,
191,400466,ST NICHOLAS AV/W 152 ST,,40.828860999999996,-73.942261,,,0,
192,400467,ST NICHOLAS AV/W 150 ST,,40.827446,-73.942848,,,0,
193,400468,ST NICHOLAS AV/W 148 ST,,40.82571,-73.94367199999999,,,0,
194,400469,ST NICHOLAS AV/W 145 ST,,40.823765,-73.94503,,,0,
195,400470,ST NICHOLAS AV/W 142 ST,,40.822296,-73.945724,,,0,
196,400471,ST NICHOLAS AV/W 141 ST,,40.821040999999994,-73.946304,,,0,
197,400472,ST NICHOLAS AV/W 138 ST,,40.818939,-73.947281,,,0,
198,400473,ST NICHOLAS AV/W 135 ST,,40.817181,-73.948097,,,0,
199,400474,ST NICHOLAS AV/W 133 ST,,40.815369,-73.948944,,,0,
200,400475,ST NICHOLAS AV/W 130 ST,,40.813469,-73.950233,,,0,
201,400476,ST NICHOLAS AV/W 128 ST,,40.812809,-73.95084399999999,,,0,
202,400477,ST NICHOLAS AV/W 125 ST,,40.810493,-73.952927,,,0,
203,400479,MANHATTAN AV/W 122 ST,,40.808628000000006,-73.95429200000001,,,0,
204,400482,MANHATTAN AV/W 116 ST,,40.804752,-73.957123,,,0,
205,400483,MANHATTAN AV/W 114 ST,,40.803829,-73.957787,,,0,
206,400484,MANHATTAN AV/W 112 ST,,40.802215999999994,-73.958969,,,0,
207,400485,CATHEDRAL PY/MANHATTAN AV,,40.801048,-73.959572,,,0,
208,400486,CENTRAL PK N/CENTRAL PK W,,40.800358,-73.957726,,,0,
209,400512,5 AV/WEST 60 - 59 ST,,40.76445,-73.973015,,,0,
210,400514,5 AV/W 53 ST,,40.759926,-73.976303,,,0,
211,400515,5 AV/W 49 ST,,40.75803,-73.977676,,,0,
212,400516,5 AV/W 47 ST,,40.756157,-73.97905,,,0,
213,400518,5 AV/W 42 ST,,40.752827,-73.981461,,,0,
214,400519,5 AV/W 38 ST,,40.750927000000004,-73.982811,,,0,
215,400520,5 AV/W 35 ST,,40.749237,-73.9841,,,0,
216,400552,W 32 ST/7 AV,,40.749404999999996,-73.99101999999999,,,0,
217,400555,E 32 ST/5 AV,,40.746986,-73.985374,,,0,
218,400561,MADISON AV/E 42 ST,,40.753338,-73.97876,,,0,
219,400595,CATHEDRAL PY/MANHATTAN AV,,40.801418,-73.959953,,,0,
220,400596,CATHEDRAL PY/MORNINGSIDE DR,,40.802017,-73.961395,,,0,
221,400597,CATHEDRAL PY/AMSTERDAM AV,,40.803219,-73.96421099999999,,,0,
222,400598,CATHEDRAL PY/BROADWAY,,40.804142,-73.966438,,,0,
223,400599,RIVERSIDE DR/W 112 ST,,40.806297,-73.967667,,,0,
224,400602,RIVERSIDE DR/W 119 ST,,40.810909,-73.96417199999999,,,0,
225,400609,BROADWAY/W 137 ST,,40.821239,-73.95401,,,0,
226,400610,BROADWAY/W 139 ST,,40.822815000000006,-73.952873,,,0,
227,400611,BROADWAY/W 141 ST,,40.824081,-73.95195,,,0,
228,400612,BROADWAY/W 143 ST,,40.825314,-73.95105,,,0,
229,400613,BROADWAY/W 145 ST,,40.82679,-73.949966,,,0,
230,400614,BROADWAY/W 147 ST,,40.827915000000004,-73.94914200000001,,,0,
231,400615,BROADWAY/W 149 ST,,40.829166,-73.948235,,,0,
232,400616,BROADWAY/W 151 ST,,40.830414000000005,-73.947319,,,0,
233,400617,BROADWAY/W 153 ST,,40.831699,-73.946388,,,0,
234,400618,BROADWAY/W 155 ST,,40.832993,-73.945442,,,0,
235,400619,BROADWAY/W 157 ST,,40.834259,-73.944519,,,0,
236,400620,BROADWAY/W 159 ST,,40.835518,-73.943596,,,0,
237,400621,BROADWAY/W 161 ST,,40.836739,-73.94270300000001,,,0,
238,400622,BROADWAY/W 163 ST,,40.838004999999995,-73.941772,,,0,
239,400623,BROADWAY/W 165 ST,,40.839363,-73.940788,,,0,
240,400624,BROADWAY/W 167 ST,,40.840343,-73.94019300000001,,,0,
241,400626,FT WASHINGTON AV/W 171 ST,,40.844315,-73.940872,,,0,
242,400627,FT WASHINGTON AV/W 173 ST,,40.845698999999996,-73.9403,,,0,
243,400628,FT WASHINGTON AV/W 175 ST,,40.846825,-73.939842,,,0,
244,400629,FT WASHINGTON AV/W 177 ST,,40.847893,-73.93937700000001,,,0,
245,400631,FT WASHINGTON AV/W 181 ST,,40.851203999999996,-73.93808,,,0,
246,400632,FT WASHINGTON AV/W 183 ST,,40.852398,-73.937653,,,0,
247,400633,FT WASHINGTON AV/W 185 ST,,40.853638000000004,-73.937263,,,0,
248,400634,FT WASHINGTON AV/W 187 ST,,40.855072,-73.936722,,,0,
249,400635,FT WASHINGTON AV/W 190 ST,,40.857334,-73.935333,,,0,
250,400636,FT WASHINGTON AV/CABRINI BL,,40.859013,-73.93425,,,0,
251,400639,FT WASHINGTON AV/CABRINI BL,,40.859211,-73.93428,,,0,
252,400640,FT WASHINGTON AV/W 190 ST,,40.856808,-73.935921,,,0,
253,400641,FT WASHINGTON AV/W 187 ST,,40.854824,-73.937065,,,0,
254,400642,FT WASHINGTON AV/W 185 ST,,40.853134000000004,-73.93759200000001,,,0,
255,400643,FT WASHINGTON AV/W 183 ST,,40.851890999999995,-73.937988,,,0,
256,400644,FT WASHINGTON AV/W 181 ST,,40.850636,-73.938484,,,0,
257,400646,FT WASHINGTON AV/W 177 ST,,40.847584000000005,-73.93972,,,0,
258,400647,FT WASHINGTON AV/W 174 ST,,40.845856,-73.940407,,,0,
259,400648,FT WASHINGTON AV/W 172 ST,,40.844437,-73.940979,,,0,
260,400649,FT WASHINGTON AV/W 170 ST,,40.843204,-73.94191,,,0,
261,400655,BROADWAY/W 157 ST,,40.834244,-73.944962,,,0,
262,400656,BROADWAY/W 155 ST,,40.832512,-73.946228,,,0,
263,400657,BROADWAY/W 152 ST,,40.830669,-73.94757800000001,,,0,
264,400658,BROADWAY/W 150 ST,,40.829399,-73.948494,,,0,
265,400659,BROADWAY/W 147 ST,,40.827515000000005,-73.949883,,,0,
266,400661,BROADWAY/W 142 ST,,40.824318,-73.952209,,,0,
267,400662,BROADWAY/W 140 ST,,40.823074,-73.953125,,,0,
268,400663,BROADWAY/W 138 ST,,40.821842,-73.954025,,,0,
269,400676,CATHEDRAL PY/BROADWAY,,40.803864000000004,-73.966202,,,0,
270,400677,CATHEDRAL PY/AMSTERDAM AV,,40.802723,-73.963509,,,0,
271,400678,CATHEDRAL PY/COLUMBUS AV,,40.80151,-73.96079300000001,,,0,
272,400716,W 34 ST/BROADWAY,,40.749981,-73.988052,,,0,
273,400719,W HOUSTON ST/SULLIVAN ST,,40.727901,-74.001541,,,0,
274,400720,W HOUSTON ST/AV OF THE AMERICAS,,40.728424,-74.002602,,,0,
275,400722,AV OF THE AMERICAS/W 3 ST,,40.730881,-74.001389,,,0,
276,400723,AV OF THE AMERICAS/WAVERLY PL,,40.733006,-73.99984,,,0,
277,400724,AV OF THE AMERICAS/W 10 ST,,40.734863,-73.99846600000001,,,0,
278,400725,AV OF THE AMERICAS/W 12 ST,,40.736156,-73.997536,,,0,
279,400726,AV OF THE AMERICAS/W 14 ST,,40.737453,-73.996674,,,0,
280,400731,AV OF THE AMERICAS/W 27 ST,,40.745284999999996,-73.99092900000001,,,0,
281,400732,AV OF THE AMERICAS/W 29 ST,,40.746536,-73.990013,,,0,
282,400744,W 57 ST/7 AV,,40.765762,-73.980385,,,0,
283,400745,W 57 ST/BROADWAY,,40.766544,-73.982239,,,0,
284,400747,BROADWAY/W 63 ST,,40.771858,-73.981987,,,0,
285,400750,BROADWAY/W 69 ST,,40.776684,-73.981926,,,0,
286,400751,W 72 ST/BROADWAY,,40.779034,-73.982414,,,0,
287,400752,W 72 ST/WEST END AV,,40.780125,-73.98496999999999,,,0,
288,400755,RIVERSIDE DR/W 77 ST,,40.783989,-73.983566,,,0,
289,400756,RIVERSIDE DR/W 79 ST,,40.785216999999996,-73.982277,,,0,
290,400759,RIVERSIDE DR/W 85 ST,,40.789146,-73.980827,,,0,
291,400760,RIVERSIDE DR/W 87 ST,,40.790737,-73.979668,,,0,
292,400761,RIVERSIDE DR/W 89 ST,,40.791851,-73.97823299999999,,,0,
293,400762,RIVERSIDE DR/W 91 ST,,40.792603,-73.977074,,,0,
294,400764,RIVERSIDE DR/W 97 ST,,40.796448,-73.974251,,,0,
295,400768,RIVERSIDE DR/W 106 ST,,40.802242,-73.97022199999999,,,0,
296,400769,RIVERSIDE DR/W 108 ST,,40.803672999999996,-73.96914699999999,,,0,
297,400771,RIVERSIDE DR/W 114 ST,,40.807865,-73.966629,,,0,
298,400772,RIVERSIDE DR/W 116 ST,,40.809109,-73.965485,,,0,
299,400796,BROADWAY/W 171 ST,,40.843509999999995,-73.939003,,,0,
300,400798,BROADWAY/W 175 ST,,40.846478000000005,-73.938248,,,0,
301,400799,W 178 ST/BROADWAY,,40.84803,-73.936989,,,0,
302,400808,BROADWAY/W 178 ST,,40.848521999999996,-73.937706,,,0,
303,400809,BROADWAY/W 176 ST,,40.846657,-73.93843100000001,,,0,
304,400810,BROADWAY/W 174 ST,,40.845169,-73.938866,,,0,
305,400811,BROADWAY/W 172 ST,,40.843651,-73.93920899999999,,,0,
306,400812,BROADWAY/W 170 ST,,40.842566999999995,-73.939308,,,0,
307,400814,BROADWAY/W 164 ST,,40.838196,-73.94207,,,0,
308,400815,BROADWAY/W 162 ST,,40.836998,-73.942955,,,0,
309,400816,BROADWAY/W 160 ST,,40.835735,-73.943871,,,0,
310,400832,RIVERSIDE DR/W 120 ST,,40.811283,-73.964394,,,0,
311,400833,RIVERSIDE DR/W 118 ST,,40.810505,-73.964844,,,0,
312,400834,RIVERSIDE DR/W 116 ST,,40.80888,-73.966171,,,0,
313,400835,RIVERSIDE DR/W 114 ST,,40.807579,-73.967323,,,0,
314,400836,RIVERSIDE DR/W 112 ST,,40.806328,-73.967979,,,0,
315,400837,RIVERSIDE DR/W 108 ST,,40.803581,-73.969521,,,0,
316,400838,RIVERSIDE DR/W 106 ST,,40.802322,-73.970474,,,0,
317,400840,RIVERSIDE DR/W 100 ST,,40.798637,-73.974007,,,0,
318,400841,RIVERSIDE DR/W 97 ST,,40.79665,-73.974434,,,0,
319,400843,RIVERSIDE DR/W 91 ST,,40.79287,-73.977242,,,0,
320,400846,RIVERSIDE DR/W 86 ST,,40.789742,-73.980598,,,0,
321,400847,RIVERSIDE DR/W 84 ST,,40.78828,-73.981178,,,0,
322,400848,RIVERSIDE DR/W 82 ST,,40.78669,-73.981339,,,0,
323,400849,RIVERSIDE DR/W 80 ST,,40.78545,-73.98226899999999,,,0,
324,400851,RIVERSIDE DR/W 76 ST,,40.783134000000004,-73.984726,,,0,
325,400852,RIVERSIDE DR/W 73 ST,,40.78141,-73.985321,,,0,
326,400853,W 72 ST/WEST END AV,,40.779552,-73.984116,,,0,
327,400854,W 72 ST/BROADWAY,,40.778766999999995,-73.982254,,,0,
328,400856,BROADWAY/W 68 ST,,40.775414000000005,-73.982414,,,0,
329,400857,BROADWAY/W 66 ST,,40.773563,-73.982407,,,0,
330,400858,BROADWAY/W 64 ST,,40.771797,-73.982361,,,0,
331,400860,BROADWAY/W 61 ST,,40.76947,-73.982323,,,0,
332,400861,COLUMBUS CIR/8 AV,,40.767696,-73.98224599999999,,,0,
333,400890,W HOUSTON ST/GREENE ST,,40.726231,-73.998161,,,0,
334,400903,STATE ST/BRIDGE ST,,40.704208,-74.014191,,,0,
335,400910,CHURCH ST/CHAMBERS ST,,40.714954,-74.007835,,,0,
336,400913,AV OF THE AMERICAS/WHITE ST,,40.719318,-74.005051,,,0,
337,400915,AV OF THE AMERICAS/THOMPSON ST,,40.722301,-74.00524899999999,,,0,
338,400917,AV OF THE AMERICAS/SPRING ST,,40.725623999999996,-74.003876,,,0,
339,400919,AV OF THE AMERICAS/W HOUSTON ST,,40.728699,-74.00254100000001,,,0,
340,400929,AV OF THE AMERICAS/W 23 ST,,40.742973,-73.992554,,,0,
341,400933,AV OF THE AMERICAS/W 34 ST,,40.749882,-73.987534,,,0,
342,400936,AV OF THE AMERICAS/W 42 ST,,40.755108,-73.983788,,,0,
343,400938,AV OF THE AMERICAS/W 47 ST,,40.758289000000005,-73.981468,,,0,
344,400940,AV OF THE AMERICAS/W 51 ST,,40.76075,-73.979668,,,0,
345,400941,AV OF THE AMERICAS/W 54 ST,,40.762619,-73.978302,,,0,
346,400943,CENTRAL PK S/6 AV,,40.766129,-73.97702,,,0,
347,400948,7 AV/WEST 58 ST,,40.766135999999996,-73.979691,,,0,
348,400950,7 AV/W 54 ST,,40.763699,-73.981483,,,0,
349,400951,7 AV/W 53 ST,,40.762794,-73.982132,,,0,
350,400953,7 AV/W 47 ST,,40.759151,-73.984756,,,0,
351,401014,CENTRAL PK S/7 AV,,40.7672,-73.979584,,,0,
352,401015,CENTRAL PK S/COLUMBUS CI,,40.767838,-73.981239,,,0,
353,401016,BROADWAY/W 61 ST,,40.769515999999996,-73.98188,,,0,
354,401021,AMSTERDAM AV/W 72 ST,,40.778923,-73.98127,,,0,
355,401022,AMSTERDAM AV/W 75 ST,,40.780224,-73.980316,,,0,
356,401023,AMSTERDAM AV/W 77 ST,,40.782055,-73.978989,,,0,
357,401024,AMSTERDAM AV/W 79 ST,,40.783279,-73.978088,,,0,
358,401025,AMSTERDAM AV/W 81 ST,,40.784687,-73.977074,,,0,
359,401026,AMSTERDAM AV/W 83 ST,,40.785957,-73.976151,,,0,
360,401027,AMSTERDAM AV/W 86 ST,,40.787952000000004,-73.974693,,,0,
361,401029,AMSTERDAM AV/W 91 ST,,40.791084000000005,-73.972404,,,0,
362,401030,AMSTERDAM AV/W 93 ST,,40.792343,-73.97148100000001,,,0,
363,401031,AMSTERDAM AV/W 96 ST,,40.794323,-73.970039,,,0,
364,401032,AMSTERDAM AV/W 98 ST,,40.795601,-73.969109,,,0,
365,401033,AMSTERDAM AV/W 100 ST,,40.796871,-73.96817800000001,,,0,
366,401034,AMSTERDAM AV/W 102 ST,,40.797989,-73.967361,,,0,
367,401035,AMSTERDAM AV/W 104 ST,,40.799393,-73.966339,,,0,
368,401036,W 106 ST/AMSTERDAM AV,,40.800186,-73.965355,,,0,
369,401037,W 106 ST/COLUMBUS AV,,40.798988,-73.962524,,,0,
370,401038,MANHATTAN AV/W 106 ST,,40.798939000000004,-73.961182,,,0,
371,401039,MANHATTAN AV/W 109 ST,,40.800472,-73.960052,,,0,
372,401040,MANHATTAN AV/CATHEDRAL PY,,40.801479,-73.959312,,,0,
373,401044,W 116 ST/FRED DOUGLASS BL,,40.80423,-73.9552,,,0,
374,401045,W 116 ST/ADAM C POWELL BL,,40.802906,-73.952034,,,0,
375,401047,MALCOLM X BL/W 119 ST,,40.804173,-73.94794499999999,,,0,
376,401051,MALCOLM X BL/W 127 ST,,40.809383000000004,-73.944138,,,0,
377,401052,MALCOLM X BL/W 129 ST,,40.810635,-73.94322199999999,,,0,
378,401055,MALCOLM X BL/W 135 ST,,40.813931,-73.940834,,,0,
379,401056,MALCOLM X BL/W 137 ST,,40.81575,-73.939484,,,0,
380,401069,MALCOLM X BL/W 135 ST,,40.813713,-73.941322,,,0,
381,401070,MALCOLM X BL/W 132 ST,,40.811954,-73.942604,,,0,
382,401074,MALCOLM X BL/W 122 ST,,40.805595000000004,-73.94725,,,0,
383,401078,W 116 ST/ST NICHOLAS AV,,40.803562,-73.953094,,,0,
384,401079,W 116 ST/FRED DOUGLASS BL,,40.80442,-73.955139,,,0,
385,401084,MANHATTAN AV/W 108 ST,,40.799755,-73.960762,,,0,
386,401085,MANHATTAN AV/W 106 ST,,40.798801,-73.96145600000001,,,0,
387,401086,COLUMBUS AV/W 106 ST,,40.798916,-73.963234,,,0,
388,401087,COLUMBUS AV/W 102 ST,,40.797405,-73.964333,,,0,
389,401088,COLUMBUS AV/W 100 ST,,40.795066999999996,-73.966049,,,0,
390,401090,COLUMBUS AV/W 94 ST,,40.791290000000004,-73.968788,,,0,
391,401091,COLUMBUS AV/W 92 ST,,40.790024,-73.969719,,,0,
392,401092,COLUMBUS AV/W 89 ST,,40.788158,-73.971085,,,0,
393,401093,COLUMBUS AV/W 86 ST,,40.786186,-73.972527,,,0,
394,401094,COLUMBUS AV/W 84 ST,,40.784896999999994,-73.973465,,,0,
395,401096,COLUMBUS AV/W 78 ST,,40.780994,-73.976311,,,0,
396,401099,COLUMBUS AV/W 72 ST,,40.777084,-73.979156,,,0,
397,401100,COLUMBUS AV/W 69 ST,,40.775227,-73.980515,,,0,
398,401102,COLUMBUS AV/W 63 ST,,40.771839,-73.983009,,,0,
399,401139,GRAND ST/CLINTON ST,,40.715759000000006,-73.986412,,,0,
400,401140,GRAND ST/PITT ST,,40.715164,-73.98446700000001,,,0,
401,401141,GRAND ST/EAST BROADWAY,,40.714622,-73.982407,,,0,
402,401142,GRAND ST/JACKSON ST,,40.714081,-73.980614,,,0,
403,401147,GRAND ST/ABRAHAM KAZAN ST,,40.714484999999996,-73.981453,,,0,
404,401148,GRAND ST/EAST BROADWAY,,40.714928,-73.982979,,,0,
405,401149,GRAND ST/PITT ST,,40.715374,-73.984444,,,0,
406,401150,GRAND ST/CLINTON ST,,40.716095,-73.98687,,,0,
407,401168,E BROADWAY/FORSYTH ST,,40.713657,-73.994049,,,0,
408,401169,E BROADWAY/PIKE ST,,40.713764000000005,-73.992577,,,0,
409,401182,E 14 ST/AV B,,40.729519,-73.978111,,,0,
410,401183,E 14 ST/AV A,,40.730495,-73.980469,,,0,
411,401191,E 14 ST/3 AV,,40.733009,-73.98673199999999,,,0,
412,401192,E 14 ST/2 AV,,40.732082,-73.984535,,,0,
413,401193,E 14 ST/1 AV,,40.731087,-73.98217,,,0,
414,401194,E 14 ST/AV A,,40.730408000000004,-73.98050699999999,,,0,
415,401195,E 14 ST/AV B,,40.729420000000005,-73.978172,,,0,
416,401202,ESSEX ST/E HOUSTON ST,,40.721859,-73.98661,,,0,
417,401206,ESSEX ST/GRAND ST,,40.716865999999996,-73.989182,,,0,
418,401208,E BROADWAY/PIKE ST,,40.713947,-73.992386,,,0,
419,401209,E BROADWAY/MARKET ST,,40.71373,-73.99501,,,0,
420,401210,E BROADWAY/CATHERINE ST,,40.713512,-73.99762700000001,,,0,
421,401220,HUDSON ST/PERRY ST,,40.735434999999995,-74.00591999999999,,,0,
422,401223,8 AV/W 14 ST,,40.739883,-74.002266,,,0,
423,401224,8 AV/W 17 ST,,40.741901,-74.000809,,,0,
424,401225,8 AV/W 20 ST,,40.743641,-73.999535,,,0,
425,401226,8 AV/W 23 ST,,40.745585999999996,-73.99812299999999,,,0,
426,401227,8 AV/W 25 ST,,40.746845,-73.9972,,,0,
427,401229,8 AV/W 28 ST,,40.748684000000004,-73.99586500000001,,,0,
428,401231,8 AV/W 34 ST,,40.752331,-73.993256,,,0,
429,401232,8 AV/W 37 ST,,40.75396,-73.992035,,,0,
430,401239,8 AV/W 52 ST,,40.763785999999996,-73.984871,,,0,
431,401245,CENTRAL PK W/W 66 ST,,40.77264,-73.978424,,,0,
432,401248,CENTRAL PK W/W 72 ST,,40.776516,-73.975594,,,0,
433,401250,CENTRAL PK W/W 77 ST,,40.779819,-73.97319,,,0,
434,401252,CENTRAL PK W/W 81 ST,,40.782234,-73.97148100000001,,,0,
435,401253,CENTRAL PK W/W 84 ST,,40.784034999999996,-73.970123,,,0,
436,401254,CENTRAL PK W/W 86 ST,,40.785465,-73.969086,,,0,
437,401255,CENTRAL PK W/W 88 ST,,40.78685,-73.968056,,,0,
438,401256,CENTRAL PK W/W 90 ST,,40.788059000000004,-73.967178,,,0,
439,401257,CENTRAL PK W/W 92 ST,,40.789326,-73.966255,,,0,
440,401258,CENTRAL PK W/W 94 ST,,40.790539,-73.965363,,,0,
441,401259,CENTRAL PK W/W 96 ST,,40.791931,-73.964355,,,0,
442,401261,CENTRAL PK W/W 100 ST,,40.794506,-73.962471,,,0,
443,401262,CENTRAL PK W/W 102 ST,,40.79575,-73.961563,,,0,
444,401263,CENTRAL PK W/W 104 ST,,40.797035,-73.96063199999999,,,0,
445,401264,CENTRAL PK W/W 106 ST,,40.798297999999996,-73.959717,,,0,
446,401265,CENTRAL PK W/W 108 ST,,40.799628999999996,-73.95874,,,0,
447,401266,CENTRAL PK W/CATHEDRAL PY,,40.800243,-73.958344,,,0,
448,401267,FRED DOUGLASS BL/W 111 ST,,40.801445,-73.957436,,,0,
449,401268,FRED DOUGLASS BL/W 113 ST,,40.80275,-73.956482,,,0,
450,401269,FRED DOUGLASS BL/W 116 ST,,40.804741,-73.955025,,,0,
451,401270,FRED DOUGLASS BL/W 119 ST,,40.806377000000005,-73.953888,,,0,
452,401271,FRED DOUGLASS BL/W 121 ST,,40.807446,-73.953049,,,0,
453,401272,FRED DOUGLASS BL/W 123 ST,,40.809071,-73.951851,,,0,
454,401274,FRED DOUGLASS BL/W 127 ST,,40.811749,-73.94989,,,0,
455,401275,FRED DOUGLASS BL/W 129 ST,,40.812893,-73.949051,,,0,
456,401276,FRED DOUGLASS BL/W 131 ST,,40.81414,-73.948135,,,0,
457,401277,FRED DOUGLASS BL/W 133 ST,,40.815434,-73.947189,,,0,
458,401281,FRED DOUGLASS BL/W 141 ST,,40.820541,-73.943466,,,0,
459,401282,FRED DOUGLASS BL/W 143 ST,,40.821758,-73.942574,,,0,
460,401286,FRED DOUGLASS BL/W 153 ST,,40.828129,-73.93791999999999,,,0,
461,401287,FRED DOUGLASS BL/W 155 ST,,40.829277000000005,-73.93705,,,0,
462,401288,FRED DOUGLASS BL/W 158 ST,,40.831207,-73.935692,,,0,
463,401294,W 14 ST/7 AV,,40.738289,-73.999268,,,0,
464,401301,HUDSON ST/CHARLTON ST,,40.727184,-74.007248,,,0,
465,401302,HUDSON ST/W HOUSTON ST,,40.728935,-74.006927,,,0,
466,401305,FRED DOUGLASS BL/W 155 ST,,40.82909,-73.937454,,,0,
467,401306,FRED DOUGLASS BL/W 154 ST,,40.828308,-73.93804899999999,,,0,
468,401307,FRED DOUGLASS BL/W 152 ST,,40.827019,-73.93899499999999,,,0,
469,401308,FRED DOUGLASS BL/W 150 ST,,40.825951,-73.93972,,,0,
470,401310,FRED DOUGLASS BL/W 145 ST,,40.822521,-73.942284,,,0,
471,401311,FRED DOUGLASS BL/W 142 ST,,40.82066,-73.94364200000001,,,0,
472,401312,FRED DOUGLASS BL/W 140 ST,,40.81942,-73.94455,,,0,
473,401313,FRED DOUGLASS BL/W 138 ST,,40.818184,-73.94545,,,0,
474,401314,FRED DOUGLASS BL/W 135 ST,,40.816208,-73.946892,,,0,
475,401315,FRED DOUGLASS BL/W 133 ST,,40.814919,-73.94783000000001,,,0,
476,401317,FRED DOUGLASS BL/W 129 ST,,40.81282,-73.949364,,,0,
477,401324,FRED DOUGLASS BL/W 112 ST,,40.801643,-73.957504,,,0,
478,401325,FRED DOUGLASS BL/CATHEDRAL PY,,40.800938,-73.957993,,,0,
479,401326,CENTRAL PK W/W 108 ST,,40.799137,-73.959366,,,0,
480,401327,CENTRAL PK W/W 106 ST,,40.798119,-73.960068,,,0,
481,401328,CENTRAL PK W/W 104 ST,,40.796513,-73.96127299999999,,,0,
482,401329,CENTRAL PK W/W 102 ST,,40.795277,-73.962189,,,0,
483,401330,CENTRAL PK W/W 100 ST,,40.793949,-73.96315,,,0,
484,401331,CENTRAL PK W/W 97 ST,,40.792266999999995,-73.964386,,,0,
485,401333,CENTRAL PK W/W 94 ST,,40.790108000000004,-73.965965,,,0,
486,401334,CENTRAL PK W/W 92 ST,,40.788895000000004,-73.96685,,,0,
487,401335,CENTRAL PK W/W 90 ST,,40.787621,-73.967773,,,0,
488,401336,CENTRAL PK W/W 88 ST,,40.786526,-73.968513,,,0,
489,401337,CENTRAL PK W/W 86 ST,,40.785042,-73.969688,,,0,
490,401338,CENTRAL PK W/W 84 ST,,40.783749,-73.970596,,,0,
491,401339,CENTRAL PK W/W 81 ST,,40.781963,-73.971886,,,0,
492,401341,CENTRAL PK W/W 77 ST,,40.7794,-73.97378499999999,,,0,
493,401342,CENTRAL PK W/W 74 ST,,40.777466,-73.97518199999999,,,0,
494,401343,CENTRAL PK W/W 72 ST,,40.776131,-73.976189,,,0,
495,401344,CENTRAL PK W/W 70 ST,,40.774837,-73.977158,,,0,
496,401345,CENTRAL PK W/W 68 ST,,40.773571000000004,-73.978043,,,0,
497,401348,BROADWAY/W 63 ST,,40.770882,-73.982338,,,0,
498,401358,7 AV/W 39 ST,,40.753838,-73.98867800000001,,,0,
499,401359,7 AV/W 37 ST,,40.752613000000004,-73.98957800000001,,,0,
500,401360,7 AV/W 34 ST,,40.750628999999996,-73.99101999999999,,,0,
501,401361,7 AV/W 31 ST,,40.748859,-73.99231,,,0,
502,401363,7 AV/W 28 ST,,40.747036,-73.99363699999999,,,0,
503,401364,7 AV/W 25 ST,,40.745178,-73.99499499999999,,,0,
504,401366,7 AV/W 20 ST,,40.742027,-73.997284,,,0,
505,401371,7 AV S/WAVERLY PL,,40.735237,-74.001999,,,0,
506,401372,7 AV S/W 10 ST,,40.734111999999996,-74.002647,,,0,
507,401373,7 AV S/BARROW ST,,40.732574,-74.003525,,,0,
508,401374,7 AV S/BEDFORD ST,,40.730469,-74.00473000000001,,,0,
509,401375,7 AV S/CLARKSON ST,,40.729462,-74.005302,,,0,
510,401377,VARICK ST/CHARLTON ST,,40.726859999999995,-74.005714,,,0,
511,401379,VARICK ST/WATTS ST,,40.723663,-74.006264,,,0,
512,401380,VARICK ST/NORTH MOORE ST,,40.719658,-74.006958,,,0,
513,401381,W BROADWAY/DUANE ST,,40.71637,-74.008659,,,0,
514,401386,HUDSON ST/W 13 ST,,40.740189,-74.005341,,,0,
515,401387,HUDSON ST/HORATIO ST,,40.738853000000006,-74.00559200000001,,,0,
516,401388,HUDSON ST/W 12 ST,,40.737671,-74.005768,,,0,
517,401393,BETHUNE ST/GREENWICH ST,,40.736988000000004,-74.006355,,,0,
518,401398,10 AV/W 21 ST,,40.746615999999996,-74.00482199999999,,,0,
519,401400,10 AV/W 25 ST,,40.749221999999996,-74.002907,,,0,
520,401401,10 AV/W 27 ST,,40.750454,-74.00200699999999,,,0,
521,401402,10 AV/W 30 ST,,40.752373,-74.000603,,,0,
522,401404,10 AV/W 34 ST,,40.754368,-73.999153,,,0,
523,401407,10 AV/W 42 ST,,40.759846,-73.99517800000001,,,0,
524,401408,10 AV/W 45 ST,,40.761749,-73.993797,,,0,
525,401409,10 AV/W 47 ST,,40.763027,-73.992874,,,0,
526,401410,10 AV/W 49 ST,,40.764271,-73.991959,,,0,
527,401411,10 AV/W 53 ST,,40.766418,-73.99039499999999,,,0,
528,401412,10 AV/W 55 ST,,40.768013,-73.989227,,,0,
529,401413,10 AV/W 57 ST,,40.768929,-73.988564,,,0,
530,401414,AMSTERDAM AV/W 59 ST,,40.77063,-73.987328,,,0,
531,401416,AMSTERDAM AV/W 62 ST,,40.772644,-73.98584,,,0,
532,401417,AMSTERDAM AV/W 65 ST,,40.774342,-73.984619,,,0,
533,401435,AMSTERDAM AV/W 106 ST,,40.800697,-73.965393,,,0,
534,401436,AMSTERDAM AV/W 109 ST,,40.802566999999996,-73.964027,,,0,
535,401438,AMSTERDAM AV/W 112 ST,,40.804558,-73.96257800000001,,,0,
536,401440,AMSTERDAM AV/W 116 ST,,40.807097999999996,-73.960724,,,0,
537,401441,AMSTERDAM AV/W 118 ST,,40.808353000000004,-73.959808,,,0,
538,401442,AMSTERDAM AV/W 120 ST,,40.809585999999996,-73.958908,,,0,
539,401443,AMSTERDAM AV/W 123 ST,,40.812267,-73.956886,,,0,
540,401444,AMSTERDAM AV/W 125 ST,,40.813747,-73.955872,,,0,
541,401445,AMSTERDAM AV/W 126 ST,,40.814331,-73.955437,,,0,
542,401446,AMSTERDAM AV/W 129 ST,,40.814972,-73.954964,,,0,
543,401447,AMSTERDAM AV/W 131 ST,,40.816677,-73.953728,,,0,
544,401448,AMSTERDAM AV/W 133 ST,,40.817833,-73.952873,,,0,
545,401453,HUDSON ST/CHRISTOPHER ST,,40.733345,-74.006264,,,0,
546,401457,AMSTERDAM AV/W 134 ST,,40.81797,-73.953049,,,0,
547,401458,AMSTERDAM AV/W 131 ST,,40.816029,-73.95446,,,0,
548,401459,AMSTERDAM AV/W 129 ST,,40.814884,-73.955299,,,0,
549,401462,AMSTERDAM AV/W 123 ST,,40.811035,-73.958115,,,0,
550,401463,AMSTERDAM AV/W 120 ST,,40.809048,-73.959564,,,0,
551,401464,AMSTERDAM AV/W 118 ST,,40.807819,-73.960464,,,0,
552,401465,AMSTERDAM AV/W 116 ST,,40.806521999999994,-73.961403,,,0,
553,401466,AMSTERDAM AV/W 114 ST,,40.805285999999995,-73.962311,,,0,
554,401467,AMSTERDAM AV/W 112 ST,,40.804035,-73.963211,,,0,
555,401469,COLUMBUS AV/CATHEDRAL PY,,40.801441,-73.961388,,,0,
556,401470,COLUMBUS AV/W 108 ST,,40.800308,-73.962212,,,0,
557,401489,9 AV/W 59 ST,,40.768955,-73.985085,,,0,
558,401490,9 AV/W 57 ST,,40.767672999999995,-73.986046,,,0,
559,401491,9 AV/W 55 ST,,40.766556,-73.98677099999999,,,0,
560,401492,9 AV/W 52 ST,,40.764526000000004,-73.98833499999999,,,0,
561,401493,9 AV/W 50 ST,,40.763294,-73.989235,,,0,
562,401495,9 AV/W 46 ST,,40.760765,-73.99108100000001,,,0,
563,401496,9 AV/W 44 ST,,40.759853,-73.991745,,,0,
564,401497,9 AV/W 42 ST,,40.758583,-73.99266800000001,,,0,
565,401499,9 AV/W 38 ST,,40.756039,-73.994522,,,0,
566,401500,9 AV/W 35 ST,,40.7542,-73.99586500000001,,,0,
567,401501,9 AV/W 34 ST,,40.753155,-73.996628,,,0,
568,401502,9 AV/W 30 ST,,40.750609999999995,-73.998474,,,0,
569,401503,9 AV/W 28 ST,,40.749424,-73.999344,,,0,
570,401506,9 AV/W 20 ST,,40.744434000000005,-74.002975,,,0,
571,401507,9 AV/W 18 ST,,40.743221000000005,-74.00386,,,0,
572,401528,WEST ST/CHRISTOPHER ST,,40.732845000000005,-74.01007800000001,,,0,
573,401529,W 10 ST/WASHINGTON ST,,40.733311,-74.008705,,,0,
574,401531,W 10 ST/BLEECKER ST,,40.734004999999996,-74.004257,,,0,
575,401532,W 10 ST/7 AV S,,40.73423,-74.002586,,,0,
576,401533,W 10 ST/WAVERLY PL,,40.734489,-74.00102199999999,,,0,
577,401535,GREENWICH AV/CHRISTOPHER ST,,40.734142,-73.99973299999999,,,0,
578,401536,W 8 ST/AV OF THE AMERICAS,,40.733368,-73.999161,,,0,
579,401538,W 8 ST/5 AV,,40.732239,-73.996483,,,0,
580,401542,ST MARKS PL/3 AV,,40.729324,-73.989532,,,0,
581,401543,ST MARKS PL/2 AV,,40.728611,-73.98784599999999,,,0,
582,401544,ST MARKS PL/1 AV,,40.727383,-73.98492399999999,,,0,
583,401545,ST MARKS PL/AV A,,40.726719,-73.98335300000001,,,0,
584,401547,E 10 ST/AV A,,40.727646,-73.98188,,,0,
585,401548,E 10 ST/AV B,,40.726673,-73.979591,,,0,
586,401549,E 10 ST/AV C,,40.725666,-73.97721899999999,,,0,
587,401552,E 10 ST/AV C,,40.726048,-73.97784399999999,,,0,
588,401553,E 10 ST/AV B,,40.727051,-73.98021700000001,,,0,
589,401554,E 10 ST/AV A,,40.727829,-73.98207099999999,,,0,
590,401555,E 9 ST/AV A,,40.727463,-73.983002,,,0,
591,401556,E 9 ST/1 AV,,40.728394,-73.98520699999999,,,0,
592,401557,E 9 ST/2 AV,,40.729411999999996,-73.98764,,,0,
593,401558,E 9 ST/3 AV,,40.730095,-73.989265,,,0,
594,401559,E 9 ST/4 AV,,40.730548999999996,-73.990326,,,0,
595,401561,E 9 ST/UNIVERSITY PL,,40.732357,-73.994606,,,0,
596,401562,W 9 ST/5 AV,,40.733089,-73.996368,,,0,
597,401563,W 9 ST/AV OF THE AMERICAS,,40.734158,-73.998909,,,0,
598,401564,CHRISTOPHER ST/GREENWICH AV,,40.734111999999996,-73.99994699999999,,,0,
599,401565,CHRISTOPHER ST/WAVERLY PL,,40.733748999999996,-74.002197,,,0,
600,401566,CHRISTOPHER ST/7 AV S,,40.733578,-74.003342,,,0,
601,401567,CHRISTOPHER ST/BLEECKER ST,,40.733368,-74.004692,,,0,
602,401568,CHRISTOPHER ST/HUDSON ST,,40.733143,-74.006157,,,0,
603,401569,CHRISTOPHER ST/GREENWICH ST,,40.732853000000006,-74.007927,,,0,
604,401570,CHRISTOPHER ST/WASHINGTON ST,,40.732665999999995,-74.009064,,,0,
605,401575,W 14 ST/8 AV,,40.739513,-74.002174,,,0,
606,401577,W 14 ST/6 AV,,40.737095000000004,-73.996429,,,0,
607,401578,W 14 ST/5 AV,,40.735779,-73.993301,,,0,
608,401579,E 14 ST/UNIVERSITY PL,,40.735081,-73.991623,,,0,
609,401587,E 14 ST/AV C,,40.728428,-73.97583,,,0,
610,401589,AV C/E 12 ST,,40.726978,-73.976814,,,0,
611,401591,E 10 ST/AV D,,40.724869,-73.975319,,,0,
612,401594,AV D/E 8 ST,,40.723446,-73.976318,,,0,
613,401595,AV D/E 6 ST,,40.722271,-73.977173,,,0,
614,401598,E HOUSTON ST/BARUCH DR,,40.719097,-73.976883,,,0,
615,401599,E HOUSTON ST/MANGIN ST,,40.718834,-73.975616,,,0,
616,401600,E HOUSTON ST/555 FDR DR,,40.716755,-73.975876,,,0,
617,401608,8 AV/BLEECKER ST,,40.737381,-74.004929,,,0,
618,401609,8 AV/W 4 ST,,40.738597999999996,-74.00353199999999,,,0,
619,401610,AV A/E 11 ST,,40.728214,-73.98207099999999,,,0,
620,401611,AV A/E 9 ST,,40.727032,-73.982941,,,0,
621,401612,AV A/E 6 ST,,40.725243,-73.984238,,,0,
622,401613,AV A/E 3 ST,,40.723423,-73.98556500000001,,,0,
623,401624,COLUMBIA ST/RIVINGTON ST,,40.717781,-73.979759,,,0,
624,401625,AV D/E HOUSTON ST,,40.720089,-73.978546,,,0,
625,401626,AV D/E 5 ST,,40.722118,-73.977074,,,0,
626,401627,AV D/EAST 8 ST,,40.723331,-73.976189,,,0,
627,401628,AV D/E 9 ST,,40.724144,-73.975594,,,0,
628,401630,AV C/E 12 ST,,40.727333,-73.976334,,,0,
629,401633,E 14 ST/AV C,,40.728611,-73.97590600000001,,,0,
630,401656,AV A/E 3 ST,,40.723873,-73.985016,,,0,
631,401657,AV A/E 5 ST,,40.725101,-73.984116,,,0,
632,401659,AV A/E 11 ST,,40.728676,-73.98150600000001,,,0,
633,401664,WATER ST/BROAD ST,,40.703037,-74.010834,,,0,
634,401665,WATER ST/OLD SLIP,,40.704273,-74.008492,,,0,
635,401666,WATER ST/WALL ST,,40.705288,-74.007111,,,0,
636,401667,WATER ST/FLETCHER ST,,40.706272,-74.005661,,,0,
637,401669,PEARL ST/PECK SLIP,,40.708969,-74.002174,,,0,
638,401670,PEARL ST/R F WAGNER SR PL,,40.7103,-74.000923,,,0,
639,401675,PIKE ST/DIVISION ST,,40.714302,-73.99247,,,0,
640,401679,ALLEN ST/DELANCEY ST,,40.719559000000004,-73.98996700000001,,,0,
641,401681,ALLEN ST/STANTON ST,,40.721893,-73.988815,,,0,
642,401682,1 AV/E 2 ST,,40.723534,-73.988113,,,0,
643,401685,1 AV/ST MARKS PL,,40.727802000000004,-73.985008,,,0,
644,401686,1 AV/E 11 ST,,40.729618,-73.983681,,,0,
645,401687,1 AV/E 14 ST,,40.732124,-73.981949,,,0,
646,401688,1 AV/E 17 ST,,40.733154,-73.981186,,,0,
647,401689,1 AV/E 20 ST,,40.735092,-73.979721,,,0,
648,401690,1 AV/E 23 ST,,40.737034,-73.978317,,,0,
649,401691,1 AV/E 25 ST,,40.738471999999994,-73.977234,,,0,
650,401694,1 AV/E 31 ST,,40.741924,-73.974724,,,0,
651,401696,1 AV/E 36 ST,,40.745293,-73.97225999999999,,,0,
652,401697,1 AV/E 39 ST,,40.747158,-73.970894,,,0,
653,401698,1 AV/E 42 ST,,40.749275,-73.969398,,,0,
654,401699,1 AV/E 45 ST,,40.750664,-73.968407,,,0,
655,401701,1 AV/MITCHELL PL,,40.753559,-73.96623199999999,,,0,
656,401702,1 AV/E 52 ST,,40.755371000000004,-73.96491999999999,,,0,
657,401703,1 AV/E 55 ST,,40.757228999999995,-73.963554,,,0,
658,401704,1 AV/E 57 ST,,40.758831,-73.962463,,,0,
659,401706,1 AV/E 64 ST,,40.762943,-73.959389,,,0,
660,401707,1 AV/E 67 ST,,40.764832,-73.958015,,,0,
661,401708,1 AV/E 70 ST,,40.766705,-73.956642,,,0,
662,401709,1 AV/E 72 ST,,40.768055,-73.955658,,,0,
663,401710,1 AV/E 75 ST,,40.769954999999996,-73.954269,,,0,
664,401711,1 AV/E 77 ST,,40.771233,-73.953346,,,0,
665,401712,1 AV/E 79 ST,,40.77261,-73.952339,,,0,
666,401715,1 AV/E 86 ST,,40.777134000000004,-73.94903599999999,,,0,
667,401716,1 AV/E 89 ST,,40.779011,-73.947662,,,0,
668,401718,1 AV/E 93 ST,,40.781535999999996,-73.94581600000001,,,0,
669,401721,1 AV/E 99 ST,,40.785419,-73.942986,,,0,
670,401722,1 AV/E 102 ST,,40.787323,-73.941597,,,0,
671,401723,1 AV/E 105 ST,,40.789761,-73.939621,,,0,
672,401724,1 AV/E 108 ST,,40.791618,-73.938324,,,0,
673,401725,1 AV/E 111 ST,,40.793076,-73.937401,,,0,
674,401726,1 AV/E 113 ST,,40.794296,-73.93650799999999,,,0,
675,401727,1 AV/E 116 ST,,40.796299,-73.93504300000001,,,0,
676,401729,1 AV/E 120 ST,,40.798897,-73.933136,,,0,
677,401730,1 AV/PALADINO AV,,40.80032,-73.932098,,,0,
678,401731,1 AV/E 125 ST,,40.801575,-73.93118299999999,,,0,
679,401732,E 126 ST/2 AV,,40.80323,-73.932449,,,0,
680,401738,2 AV/E 125 ST,,40.802494,-73.933891,,,0,
681,401739,2 AV/E 122 ST,,40.800591,-73.935287,,,0,
682,401740,2 AV/E 119 ST,,40.798695,-73.93666800000001,,,0,
683,401741,2 AV/E 116 ST,,40.796745,-73.93809499999999,,,0,
684,401742,2 AV/E 113 ST,,40.794853,-73.939499,,,0,
685,401743,2 AV/E 110 ST,,40.792965,-73.940849,,,0,
686,401744,2 AV/E 108 ST,,40.791706,-73.941795,,,0,
687,401745,2 AV/E 106 ST,,40.790352,-73.942764,,,0,
688,401747,2 AV/E 101 ST,,40.787384,-73.944962,,,0,
689,401753,2 AV/E 86 ST,,40.777573,-73.952095,,,0,
690,401754,2 AV/E 84 ST,,40.776325,-73.953011,,,0,
691,401755,2 AV/E 82 ST,,40.775082,-73.953918,,,0,
692,401756,2 AV/E 79 ST,,40.773067,-73.955383,,,0,
693,401758,2 AV/E 75 ST,,40.770835999999996,-73.95697,,,0,
694,401759,2 AV/E 72 ST,,40.768734,-73.958504,,,0,
695,401760,2 AV/E 71 ST,,40.767883000000005,-73.959122,,,0,
696,401761,2 AV/E 68 ST,,40.766014,-73.960526,,,0,
697,401762,2 AV/E 66 ST,,40.764697999999996,-73.961517,,,0,
698,401763,2 AV/E 64 ST,,40.763496,-73.962372,,,0,
699,401764,2 AV/E 61 ST,,40.761551000000004,-73.963806,,,0,
700,401765,2 AV/E 57 ST,,40.759021999999995,-73.965652,,,0,
701,401768,2 AV/E 50 ST,,40.754646,-73.96884200000001,,,0,
702,401769,2 AV/E 46 ST,,40.752502,-73.970398,,,0,
703,401771,2 AV/E 42 ST,,40.749527,-73.972572,,,0,
704,401772,2 AV/E 39 ST,,40.747662,-73.97393000000001,,,0,
705,401774,2 AV/E 34 ST,,40.744507,-73.97623399999999,,,0,
706,401775,2 AV/E 31 ST,,40.742668,-73.977577,,,0,
707,401778,2 AV/E 25 ST,,40.738953,-73.980278,,,0,
708,401779,2 AV/E 23 ST,,40.737549,-73.981277,,,0,
709,401780,2 AV/E 20 ST,,40.735783000000005,-73.982567,,,0,
710,401781,2 AV/E 17 ST,,40.734028,-73.983841,,,0,
711,401782,2 AV/E 14 ST,,40.732513,-73.98494000000001,,,0,
712,401784,2 AV/E 9 ST,,40.728912,-73.987572,,,0,
713,401785,2 AV/E 6 ST,,40.727184,-73.988823,,,0,
714,401786,2 AV/E 3 ST,,40.725367999999996,-73.99015,,,0,
715,401787,E HOUSTON ST/2 AV,,40.723328,-73.990425,,,0,
716,401793,ALLEN ST/CANAL ST,,40.714863,-73.992836,,,0,
717,401797,PEARL ST/FRANKFORT ST,,40.7094,-74.001915,,,0,
718,401800,WATER ST/MAIDEN LA,,40.706055,-74.00631700000001,,,0,
719,401802,WATER ST/HANOVER SQ,,40.703896,-74.009445,,,0,
720,401806,WORTH ST/CENTRE ST,,40.715389,-74.00248,,,0,
721,401808,CENTRE ST/CHAMBERS ST,,40.713271999999996,-74.004028,,,0,
722,401811,12 AV/W 42 ST,,40.762165,-74.001442,,,0,
723,401812,W 42 ST/12 AV,,40.761913,-74.001015,,,0,
724,401813,W 42 ST/11 AV,,40.760544,-73.997925,,,0,
725,401814,W 42 ST/10 AV,,40.759357,-73.995079,,,0,
726,401818,W 34 ST/9 AV,,40.753105,-73.995857,,,0,
727,401819,W 34 ST/8 AV,,40.751987,-73.993309,,,0,
728,401821,W 34 ST/BROADWAY,,40.749626,-73.987617,,,0,
729,401822,E 34 ST/5 AV,,40.748188,-73.984184,,,0,
730,401824,E 34 ST/PARK AV,,40.746796,-73.98088800000001,,,0,
731,401826,E 34 ST/3 AV,,40.745445000000004,-73.977715,,,0,
732,401827,E 34 ST/2 AV,,40.74477,-73.976089,,,0,
733,401832,E 23 ST/2 AV,,40.737625,-73.980553,,,0,
734,401833,E 23 ST/1 AV,,40.736874,-73.978706,,,0,
735,401840,E 34 ST/3 AV,,40.745903000000006,-73.97835500000001,,,0,
736,401842,E 34 ST/PARK AV,,40.747234000000006,-73.981544,,,0,
737,401844,W 34 ST/5 AV,,40.748672,-73.984909,,,0,
738,401847,W 34 ST/7 AV,,40.751251,-73.991028,,,0,
739,401848,W 34 ST/8 AV,,40.7523,-73.99359100000001,,,0,
740,401850,8 AV/W 40 ST,,40.75642,-73.990257,,,0,
741,401851,W 42 ST/8 AV,,40.757576,-73.990463,,,0,
742,401852,W 42 ST/9 AV,,40.758671,-73.992981,,,0,
743,401853,W 42 ST/10 AV,,40.759888000000004,-73.995834,,,0,
744,401857,WATERSIDE/WATERSIDE 1,,40.737995,-73.973404,,,0,
745,401858,WATERSIDE/WATERSIDE 2,,40.739098,-73.97274,,,0,
746,401867,W 81 ST/COLUMBUS AV,,40.782982000000004,-73.97419000000001,,,0,
747,401868,W 81 ST/CENTRAL PK W,,40.782009,-73.971924,,,0,
748,401869,E 79 ST TRAVERSE RD,,40.778766999999995,-73.968552,,,0,
749,401870,E 79 ST/5 AV,,40.776768,-73.963425,,,0,
750,401875,E 79 ST/2 AV,,40.773094,-73.954697,,,0,
751,401876,E 79 ST/1 AV,,40.772053,-73.952225,,,0,
752,401877,YORK AV/E 79 ST,,40.771542,-73.950127,,,0,
753,401878,E 80 ST/EAST END AV,,40.771091,-73.947769,,,0,
754,401880,E 79 ST/EAST END AV,,40.770740999999994,-73.948715,,,0,
755,401881,E 79 ST/YORK AV,,40.771702000000005,-73.950951,,,0,
756,401882,E 79 ST/1 AV,,40.77232,-73.952438,,,0,
757,401883,E 79 ST/2 AV,,40.773579,-73.955414,,,0,
758,401884,E 79 ST/3 AV,,40.77454,-73.95768000000001,,,0,
759,401887,E 79 ST/MADISON AV,,40.776276,-73.9618,,,0,
760,401889,E 79 ST & TRAVERSE RD,,40.779083,-73.96875,,,0,
761,401890,W 81 ST/CENTRAL PK W,,40.782269,-73.97206899999999,,,0,
762,401893,W 79 ST/BROADWAY,,40.784042,-73.980164,,,0,
763,401896,W 86 ST/BROADWAY,,40.78838,-73.976906,,,0,
764,401897,W 86 ST/AMSTERDAM AV,,40.78775,-73.975403,,,0,
765,401898,W 86 ST/COLUMBUS AV,,40.786476,-73.972389,,,0,
766,401899,W 86 ST/CENTRAL PK W,,40.78529,-73.969376,,,0,
767,401900,W 86 ST/TRAVERSE RD,,40.784565,-73.96749100000001,,,0,
768,401901,E 84 ST/5 AV,,40.779816,-73.96063199999999,,,0,
769,401903,E 86 ST/MADISON AV,,40.780623999999996,-73.958488,,,0,
770,401905,E 86 ST/LEXINGTON  AV,,40.779179,-73.95488,,,0,
771,401906,E 86 ST/3 AV,,40.778461,-73.9533,,,0,
772,401908,E 86 ST/1 AV,,40.776711,-73.949272,,,0,
773,401909,YORK AV/E 86 ST,,40.776325,-73.94671600000001,,,0,
774,401910,YORK AV/E 88 ST,,40.777458,-73.94586899999999,,,0,
775,401916,YORK AV/E 91 ST,,40.778866,-73.945107,,,0,
776,401917,YORK AV/E 88 ST,,40.777015999999996,-73.946465,,,0,
777,401919,E 86 ST/1 AV,,40.776882,-73.949158,,,0,
778,401920,E 86 ST/2 AV,,40.77813,-73.952118,,,0,
779,401921,E 86 ST/3 AV,,40.778999,-73.954185,,,0,
780,401922,E 86 ST/LEXINGTON AV,,40.779903000000004,-73.956474,,,0,
781,401924,E 86 ST/MADISON AV,,40.780879999999996,-73.958664,,,0,
782,401925,E 86 ST/5 AV,,40.781535999999996,-73.960373,,,0,
783,401926,W 86 ST/TRAVERSE RD,,40.781406,-73.96236400000001,,,0,
784,401927,W 86 ST/CENTRAL PK W,,40.785702,-73.9701,,,0,
785,401929,W 86 ST/AMSTERDAM AV,,40.787696999999994,-73.974815,,,0,
786,401930,W 86 ST/BROADWAY,,40.78828,-73.976196,,,0,
787,401933,W 96 ST/WEST END AV,,40.794933,-73.972687,,,0,
788,401934,W 96 ST/BROADWAY,,40.794391999999995,-73.971405,,,0,
789,401935,W 96 ST/AMSTERDAM AV,,40.7938,-73.97000899999999,,,0,
790,401936,W 96 ST/COLUMBUS AV,,40.792603,-73.967163,,,0,
791,401937,W 96 ST/CENTRAL PK W,,40.791668,-73.964943,,,0,
792,401939,E 96 ST/MADISON AV,,40.786986999999996,-73.95385,,,0,
793,401941,E 96 ST/LEXINGTON AV,,40.785851,-73.95121,,,0,
794,401942,E 96 ST/3 AV,,40.784946000000005,-73.94899699999999,,,0,
795,401943,E 96 ST/2 AV,,40.784069,-73.94693000000001,,,0,
796,401946,3 AV/E 99 ST,,40.787867999999996,-73.94716600000001,,,0,
797,401947,3 AV/E 102 ST,,40.789253,-73.946213,,,0,
798,401948,3 AV/E 104 ST,,40.79052,-73.94529,,,0,
799,401950,E 106 ST/2 AV,,40.790386,-73.94210799999999,,,0,
800,401951,E 106 ST/1 AV,,40.789402,-73.939774,,,0,
801,401954,E 97 ST/1 AV,,40.784546,-73.94548,,,0,
802,401957,E 96 ST/3 AV,,40.785358,-73.949463,,,0,
803,401958,E 96 ST/LEXINGTON AV,,40.786097999999996,-73.95124799999999,,,0,
804,401960,E 96 ST/MADISON AV,,40.787243,-73.953873,,,0,
805,401961,E 97 ST/5 AV,,40.788582,-73.955048,,,0,
806,401964,W 96 ST/AMSTERDAM AV,,40.794037,-73.970093,,,0,
807,401965,W 96 ST/BROADWAY,,40.794601,-73.971451,,,0,
808,401966,W 97 ST/WEST END AV,,40.795853,-73.972404,,,0,
809,401968,E 105 ST/1 AV,,40.788902,-73.940315,,,0,
810,401969,E 106 ST/1 AV,,40.789898,-73.940475,,,0,
811,401970,E 106 ST/2 AV,,40.790768,-73.942596,,,0,
812,401971,E 106 ST/3 AV,,40.791607,-73.944496,,,0,
813,401973,LEXINGTON AV/E 104 ST,,40.790581,-73.94757800000001,,,0,
814,401974,LEXINGTON AV/E 102 ST,,40.789379,-73.94845600000001,,,0,
815,401977,W 106 ST/BROADWAY,,40.801331,-73.967598,,,0,
816,401988,W 116 ST/MALCOLM X BL,,40.801731,-73.94923399999999,,,0,
817,401989,W 116 ST/5 AV,,40.800667,-73.946709,,,0,
818,401990,E 116 ST/MADISON AV,,40.799694,-73.944412,,,0,
819,401991,E 116 ST/PARK AV,,40.799332,-73.943535,,,0,
820,401992,E 116 ST/LEXINGTON AV,,40.798607000000004,-73.94181800000001,,,0,
821,401993,E 116 ST/3 AV,,40.797709999999995,-73.93969,,,0,
822,401994,E 116 ST/2 AV,,40.796993,-73.937988,,,0,
823,401998,PLEASANT AV/E 120 ST,,40.797245000000004,-73.931694,,,0,
824,401999,E 116 ST/PLEASANT AV,,40.795307,-73.93351,,,0,
825,402000,E 116 ST/1 AV,,40.796005,-73.93517299999999,,,0,
826,402001,E 116 ST/2 AV,,40.797249,-73.938118,,,0,
827,402002,E 116 ST/3 AV,,40.797928000000006,-73.939743,,,0,
828,402003,E 116 ST/LEXINGTON AV,,40.798645,-73.941429,,,0,
829,402004,E 116 ST/PARK AV,,40.799282,-73.94294000000001,,,0,
830,402005,E 116 ST/MADISON AV,,40.800247,-73.945229,,,0,
831,402006,E 116 ST/5 AV,,40.800667,-73.946236,,,0,
832,402016,W 106 ST/COLUMBUS AV,,40.799240000000005,-73.962662,,,0,
833,402017,W 106 ST/AMSTERDAM AV,,40.800678000000005,-73.96605699999999,,,0,
834,402018,W 106 ST/BROADWAY,,40.801421999999995,-73.968239,,,0,
835,402022,W HOUSTON ST/AV OF THE AMERICAS,,40.728142,-74.00273100000001,,,0,
836,402023,W HOUSTON ST/SULLIVAN ST,,40.727385999999996,-74.001183,,,0,
837,402024,W HOUSTON ST/W BROADWAY,,40.726524,-73.999413,,,0,
838,402026,E HOUSTON ST/BROADWAY,,40.725196999999994,-73.99640699999999,,,0,
839,402028,E HOUSTON ST/MOTT ST,,40.724476,-73.994057,,,0,
840,402030,E HOUSTON ST/BOWERY,,40.7239,-73.99247,,,0,
841,402032,E HOUSTON ST/ESSEX ST,,40.722149,-73.986565,,,0,
842,402033,E HOUSTON ST/NORFOLK ST,,40.721657,-73.984993,,,0,
843,402034,E HOUSTON ST/CLINTON ST,,40.721287,-73.983734,,,0,
844,402036,AV C/E 3 ST,,40.721783,-73.980423,,,0,
845,402037,AV C/E 5 ST,,40.723007,-73.979515,,,0,
846,402038,AV C/E 7 ST,,40.724334999999996,-73.978577,,,0,
847,402039,AV C/E 11 ST,,40.726242,-73.97704300000001,,,0,
848,402041,AV C/E 14 ST,,40.728297999999995,-73.975693,,,0,
849,402042,AV C/E 16 ST,,40.729671,-73.974693,,,0,
850,402043,AV C/FDR DRIVE,,40.730812,-73.9739,,,0,
851,402048,E 29 ST/1 AV,,40.740788,-73.97590600000001,,,0,
852,402049,E 29 ST/2 AV,,40.741592,-73.977913,,,0,
853,402052,E 23 ST/AV C,,40.7355,-73.975372,,,0,
854,402054,AV C/E 20 ST,,40.732796,-73.974541,,,0,
855,402055,AV C/E 18 ST,,40.731274,-73.97429699999999,,,0,
856,402056,AV C/E 16 ST,,40.73003,-73.974884,,,0,
857,402057,AV C/E 14 ST,,40.729141,-73.975471,,,0,
858,402067,E HOUSTON ST/AV B,,40.721722,-73.984154,,,0,
859,402068,E HOUSTON ST/AV A,,40.722446000000005,-73.986641,,,0,
860,402069,E HOUSTON ST/1 AV,,40.72303,-73.988449,,,0,
861,402071,E HOUSTON ST/BOWERY,,40.724422,-73.992851,,,0,
862,402080,CHAMBERS ST/WEST ST,,40.717133000000004,-74.012596,,,0,
863,402082,PARK ROW/SPRUCE ST,,40.711864,-74.005928,,,0,
864,402085,FRANKFORT ST/PEARL ST,,40.709557000000004,-74.00187700000001,,,0,
865,402087,MADISON ST/ST JAMES PL,,40.711769,-73.99904599999999,,,0,
866,402088,MADISON ST/OLIVER ST,,40.711876000000004,-73.997925,,,0,
867,402090,MADISON ST/MARKET ST,,40.712208000000004,-73.994095,,,0,
868,402091,MADISON ST/PIKE ST,,40.712395,-73.992035,,,0,
869,402092,MADISON ST/RUTGERS ST,,40.712601,-73.989563,,,0,
870,402093,MADISON ST/JEFFERSON ST,,40.712696,-73.988396,,,0,
871,402094,MADISON ST/CLINTON ST,,40.712864,-73.986458,,,0,
872,402095,MADISON ST/MONTGOMERY ST,,40.713043,-73.984581,,,0,
873,402096,MADISON ST/GOUVERNEUR ST,,40.713153999999996,-73.983559,,,0,
874,402097,MADISON ST/GOUVERNEUR ST,,40.713328999999995,-73.98176600000001,,,0,
875,402100,GRAND ST/FDR DR,,40.713264,-73.977982,,,0,
876,402102,CHERRY ST/JACKSON ST,,40.712296,-73.980522,,,0,
877,402103,JACKSON ST/MADISON ST,,40.713359999999994,-73.980705,,,0,
878,402104,MADISON ST/JACKSON ST,,40.713584999999995,-73.98136099999999,,,0,
879,402105,MADISON ST/GOUVERNEUR ST,,40.713219,-73.984344,,,0,
880,402106,MADISON ST/MONTGOMERY ST,,40.713093,-73.98555,,,0,
881,402107,MADISON ST/CLINTON ST,,40.712933,-73.987442,,,0,
882,402108,MADISON ST/JEFFERSON ST,,40.712807,-73.988884,,,0,
883,402109,MADISON ST/RUTGERS ST,,40.712685,-73.99041700000001,,,0,
884,402110,MADISON ST/PIKE ST,,40.712540000000004,-73.992149,,,0,
885,402111,MADISON ST/MARKET ST,,40.712326000000004,-73.994743,,,0,
886,402112,MADISON ST/CATHERINE ST,,40.712063,-73.99745899999999,,,0,
887,402118,CHAMBERS ST/BROADWAY,,40.714165,-74.00614200000001,,,0,
888,402119,CHAMBERS ST/CHURCH ST,,40.714935,-74.007729,,,0,
889,402120,CHAMBERS ST/HUDSON ST,,40.715652,-74.009438,,,0,
890,402124,W 23 ST/10 AV,,40.747425,-74.003761,,,0,
891,402125,W 23 ST/9 AV,,40.746246,-74.00095400000001,,,0,
892,402126,W 23 ST/8 AV,,40.745059999999995,-73.998138,,,0,
893,402127,W 23 ST/7 AV,,40.743953999999995,-73.995491,,,0,
894,402128,W 23 ST/AV OF THE AMERICAS,,40.742359,-73.99176,,,0,
895,402130,E 23 ST/BROADWAY,,40.741141999999996,-73.988792,,,0,
896,402132,E 23 ST/PARK AV S,,40.739906,-73.985954,,,0,
897,402133,E 23 ST/LEXINGTON  AV,,40.739208000000005,-73.984299,,,0,
898,402134,E 23 ST/3 AV,,40.738566999999996,-73.982773,,,0,
899,402135,E 23 ST/2 AV,,40.737862,-73.98105600000001,,,0,
900,402142,E 20 ST/1 AV,,40.734951,-73.97953000000001,,,0,
901,402143,E 23 ST/1 AV,,40.737091,-73.97886700000001,,,0,
902,402144,E 23 ST/2 AV,,40.738312,-73.981712,,,0,
903,402145,E 23 ST/3 AV,,40.739028999999995,-73.983459,,,0,
904,402146,E 23 ST/LEXINGTON AV,,40.739697,-73.98496999999999,,,0,
905,402151,W 23 ST/5 AV,,40.741966,-73.990341,,,0,
906,402152,W 23 ST/AV OF THE AMERICAS,,40.743103000000005,-73.993065,,,0,
907,402153,W 23 ST/7 AV,,40.744403999999996,-73.99616999999999,,,0,
908,402154,W 23 ST/8 AV,,40.745548,-73.998886,,,0,
909,402155,W 23 ST/9 AV,,40.746716,-74.00165600000001,,,0,
910,402157,W 23 ST/11 AV,,40.748878000000005,-74.006783,,,0,
911,402160,12 AV/W 43 ST,,40.76265,-74.000198,,,0,
912,402161,12 AV/W 46 ST,,40.764346999999994,-73.998497,,,0,
913,402162,12 AV/W 48 ST,,40.765617,-73.997528,,,0,
914,402163,W 50 ST/12 AV,,40.766621,-73.996651,,,0,
915,402164,W 50 ST/11 AV,,40.765736,-73.994537,,,0,
916,402165,W 50 ST/10 AV,,40.764503000000005,-73.99170699999999,,,0,
917,402166,W 50 ST/9 AV,,40.76347,-73.989098,,,0,
918,402167,W 50 ST/8 AV,,40.762024,-73.985794,,,0,
919,402169,W 50 ST/AV OF THE AMERICAS,,40.759674,-73.98021700000001,,,0,
920,402171,E 50 ST/5 AV,,40.75843,-73.977104,,,0,
921,402172,E 50 ST/MADISON AV,,40.757725,-73.97539499999999,,,0,
922,402173,E 50 ST/LEXINGTON AV,,40.756245,-73.972137,,,0,
923,402174,E 50 ST/3 AV,,40.755547,-73.97048199999999,,,0,
924,402175,E 50 ST/2 AV,,40.754878999999995,-73.96880300000001,,,0,
925,402183,E 49 ST/1 AV,,40.75351,-73.966965,,,0,
926,402185,E 49 ST/3 AV,,40.755383,-73.97142,,,0,
927,402186,E 49 ST/LEXINGTON AV,,40.756138,-73.973083,,,0,
928,402188,E 49 ST/MADISON AV,,40.757442,-73.976219,,,0,
929,402189,W 49 ST/5 AV,,40.758114,-73.97802,,,0,
930,402191,W 49 ST/AV OF THE AMERICAS,,40.759502000000005,-73.981125,,,0,
931,402194,W 49 ST/9 AV,,40.763034999999995,-73.98955500000001,,,0,
932,402195,W 49 ST/10 AV,,40.764099,-73.991982,,,0,
933,402205,W 57 ST/11 AV,,40.770035,-73.990974,,,0,
934,402211,E 57 ST/5 AV,,40.762772,-73.973747,,,0,
935,402214,E 57 ST/LEXINGTON AV,,40.760674,-73.968773,,,0,
936,402215,E 57 ST/3 AV,,40.759876,-73.966827,,,0,
937,402216,E 57 ST/2 AV,,40.759040999999996,-73.964897,,,0,
938,402217,E 57 ST/1 AV,,40.758034,-73.962524,,,0,
939,402218,E 57 ST/SUTTON PL,,40.757614000000004,-73.961517,,,0,
940,402221,E 55 ST/1 AV,,40.757,-73.963631,,,0,
941,402222,E 57 ST/1 AV,,40.758564,-73.963303,,,0,
942,402223,E 57 ST/2 AV,,40.759571,-73.965683,,,0,
943,402224,E 57 ST/3 AV,,40.760521000000004,-73.967934,,,0,
944,402228,W 57 ST/5 AV,,40.76321,-73.974319,,,0,
945,402229,W 57 ST/AV OF THE AMERICAS,,40.764595,-73.977615,,,0,
946,402233,W 57 ST/9 AV,,40.768085,-73.985893,,,0,
947,402269,W 72 ST/CENTRAL PK W,,40.776207,-73.97618100000001,,,0,
948,402290,E 72 ST/MADISON AV,,40.771503,-73.964996,,,0,
949,402292,E 72 ST/LEXINGTON AV,,40.770267,-73.96210500000001,,,0,
950,402293,E 72 ST/3 AV,,40.76952,-73.96028100000001,,,0,
951,402295,E 72 ST/1 AV,,40.767672999999995,-73.955849,,,0,
952,402296,E 72 ST/YORK AV,,40.766949,-73.95411700000001,,,0,
953,402298,E 72 ST/1 AV,,40.768046999999996,-73.956375,,,0,
954,402299,E 72 ST/2 AV,,40.769047,-73.95871700000001,,,0,
955,402300,E 72 ST/3 AV,,40.769997,-73.960983,,,0,
956,402301,E 72 ST/LEXINGTON AV,,40.77066,-73.962547,,,0,
957,402303,E 72 ST/MADISON AV,,40.77179,-73.965248,,,0,
958,402328,SUTTON PL/SUTTON SQ,,40.75824,-73.9599,,,0,
959,402330,YORK AV/E 63 ST,,40.761475,-73.957535,,,0,
960,402331,YORK AV/E 66 ST,,40.763317,-73.956192,,,0,
961,402334,YORK AV/E 72 ST,,40.767154999999995,-73.9534,,,0,
962,402336,YORK AV/E 76 ST,,40.769661,-73.951576,,,0,
963,402338,YORK AV/E 82 ST,,40.773571000000004,-73.948708,,,0,
964,402339,YORK AV/E 84 ST,,40.774837,-73.947792,,,0,
965,402345,YORK AV/E 86 ST,,40.775776,-73.947319,,,0,
966,402346,YORK AV/E 84 ST,,40.774334,-73.94841,,,0,
967,402347,YORK AV/E 82 ST,,40.773125,-73.949303,,,0,
968,402348,YORK AV/E 79 ST,,40.771091,-73.950783,,,0,
969,402349,YORK AV/E 77 ST,,40.769844,-73.951698,,,0,
970,402351,YORK AV/E 72 ST,,40.766613,-73.95405600000001,,,0,
971,402355,YORK AV/E 64 ST,,40.76157,-73.95773299999999,,,0,
972,402446,5 AV/W 58 ST,,40.763496,-73.973709,,,0,
973,402458,LEXINGTON AV/E 125 ST,,40.804581,-73.937416,,,0,
974,402460,E 124 ST/3 AV,,40.803051,-73.936516,,,0,
975,402461,E 124 ST/2 AV,,40.802147,-73.93447900000001,,,0,
976,402498,E 126 ST/2 AV,,40.803669,-73.93354000000001,,,0,
977,402502,E 125 ST/3 AV,,40.803936,-73.93621800000001,,,0,
978,402503,E 125 ST/LEXINGTON AV,,40.804611,-73.937744,,,0,
979,402504,E 125 ST/PARK AV,,40.805332,-73.939461,,,0,
980,402505,E 125 ST/MADISON AV,,40.805981,-73.941002,,,0,
981,402506,W 125 ST/5 AV,,40.806366,-73.94191,,,0,
982,402507,W 125 ST/MALCOLM X BL,,40.808056,-73.94593,,,0,
983,402508,W 125 ST/ADAM C POWELL BL,,40.809253999999996,-73.948761,,,0,
984,402509,W 125 ST/FRED DOUGLASS BL,,40.810444,-73.951576,,,0,
985,402510,W 125 ST/ST NICHOLAS AV,,40.811031,-73.952988,,,0,
986,402512,W 125 ST/AMSTERDAM AV,,40.813621999999995,-73.955894,,,0,
987,402517,AMSTERDAM AV/W 135 ST,,40.819309000000004,-73.95180500000001,,,0,
988,402518,AMSTERDAM AV/W 138 ST,,40.82103,-73.950546,,,0,
989,402519,AMSTERDAM AV/W 140 ST,,40.822388000000004,-73.949547,,,0,
990,402520,AMSTERDAM AV/W 143 ST,,40.824222999999996,-73.948219,,,0,
991,402521,AMSTERDAM AV/W 145 ST,,40.825592,-73.947212,,,0,
992,402526,AMSTERDAM AV/W 155 ST,,40.831672999999995,-73.94279499999999,,,0,
993,402535,BROADWAY/W 173 ST,,40.844952,-73.938675,,,0,
994,402634,3 AV/E 31 ST,,40.743694,-73.979454,,,0,
995,402638,AMSTERDAM AV/W 158 ST,,40.833346999999996,-73.94180300000001,,,0,
996,402639,AMSTERDAM AV/W 156 ST,,40.831947,-73.942833,,,0,
997,402641,AMSTERDAM AV/W 152 ST,,40.829762,-73.944389,,,0,
998,402642,AMSTERDAM AV/W 150 ST,,40.828078999999995,-73.945656,,,0,
999,402643,AMSTERDAM AV/W 148 ST,,40.826931,-73.946495,,,0,
1000,402644,AMSTERDAM AV/W 145 ST,,40.82497,-73.947929,,,0,
1001,402645,AMSTERDAM AV/W 143 ST,,40.823646999999994,-73.948898,,,0,
1002,402646,AMSTERDAM AV/W 140 ST,,40.821743,-73.950287,,,0,
1003,402647,AMSTERDAM AV/W 138 ST,,40.820518,-73.95118000000001,,,0,
1004,402653,W 125 ST/AMSTERDAM AV,,40.812588,-73.95571899999999,,,0,
1005,402656,W 125 ST/ST NICHOLAS AV,,40.810493,-73.952202,,,0,
1006,402657,W 125 ST/FRED DOUGLASS BL,,40.809883,-73.95072900000001,,,0,
1007,402658,W 125 ST/ADAM C POWELL BL,,40.808673999999996,-73.947861,,,0,
1008,402659,W 125 ST/MALCOLM X  BL,,40.807487,-73.945045,,,0,
1009,402660,E 125 ST/5 AV,,40.806149,-73.941879,,,0,
1010,402661,E 125 ST/MADISON AV,,40.8055,-73.94032299999999,,,0,
1011,402662,E 125 ST/PARK AV,,40.804771,-73.938599,,,0,
1012,402666,COOPER SQ/E 6 ST,,40.728374,-73.990578,,,0,
1013,402670,3 AV/E 17 ST,,40.735489,-73.98541999999999,,,0,
1014,402673,3 AV/E 26 ST,,40.741043,-73.98138399999999,,,0,
1015,402674,3 AV/E 29 ST,,40.74287,-73.980049,,,0,
1016,402677,3 AV/E 37 ST,,40.747974,-73.976334,,,0,
1017,402678,3 AV/E 39 ST,,40.749157000000004,-73.975471,,,0,
1018,402679,3 AV/E 42 ST,,40.751068,-73.974083,,,0,
1019,402680,3 AV/E 45 ST,,40.752388,-73.973106,,,0,
1020,402681,3 AV/E 47 ST,,40.754215,-73.971802,,,0,
1021,402682,3 AV/E 50 ST,,40.755482,-73.97085600000001,,,0,
1022,402683,3 AV/E 52 ST,,40.757435,-73.969437,,,0,
1023,402687,3 AV/E 65 ST,,40.765591,-73.96347800000001,,,0,
1024,402688,3 AV/E 67 ST,,40.767117,-73.962448,,,0,
1025,402689,3 AV/E 69 ST,,40.768101,-73.96165500000001,,,0,
1026,402691,3 AV/E 75 ST,,40.771927000000005,-73.958862,,,0,
1027,402692,3 AV/E 77 ST,,40.773196999999996,-73.957932,,,0,
1028,402694,3 AV/E 82 ST,,40.776554,-73.95548199999999,,,0,
1029,402696,3 AV/E 88 ST,,40.780449,-73.952652,,,0,
1030,402697,3 AV/E 91 ST,,40.782222999999995,-73.951347,,,0,
1031,402704,3 AV/E 109 ST,,40.793735999999996,-73.94294000000001,,,0,
1032,402705,3 AV/E 112 ST,,40.795757,-73.941467,,,0,
1033,402707,3 AV/E 118 ST,,40.799568,-73.938675,,,0,
1034,402723,W 125 ST/MORNINGSIDE AV,,40.811352,-73.954224,,,0,
1035,402740,AMSTERDAM AV/W 171 ST,,40.841972,-73.935242,,,0,
1036,402741,AMSTERDAM AV/W 173 ST,,40.843105,-73.93441,,,0,
1037,402744,AMSTERDAM AV/W 179 ST,,40.846996000000004,-73.931572,,,0,
1038,402745,AMSTERDAM AV/W 181 ST,,40.848347,-73.930588,,,0,
1039,402748,AMSTERDAM AV/W 187 ST,,40.852184,-73.927788,,,0,
1040,402749,AMSTERDAM AV/W 190 ST,,40.85392,-73.926521,,,0,
1041,402753,BOWERY/BAYARD ST,,40.715389,-73.99646800000001,,,0,
1042,402755,BOWERY/GRAND ST,,40.718788,-73.994545,,,0,
1043,402757,BOWERY/DELANCEY ST,,40.720749,-73.993729,,,0,
1044,402760,BOWERY/E HOUSTON ST,,40.723873,-73.992538,,,0,
1045,402762,BOWERY/E 3 ST,,40.726723,-73.991524,,,0,
1046,402764,AMSTERDAM AV/W 188 ST,,40.852257,-73.927994,,,0,
1047,402766,AMSTERDAM AV/W 184 ST,,40.84959,-73.929947,,,0,
1048,402767,AMSTERDAM AV/W 181 ST,,40.848263,-73.930916,,,0,
1049,402769,AMSTERDAM AV/W 178 ST,,40.845898,-73.93264,,,0,
1050,402772,AMSTERDAM AV/W 172 ST,,40.842068,-73.93544,,,0,
1051,402773,AMSTERDAM AV/W 170 ST,,40.840702,-73.93644,,,0,
1052,402774,AMSTERDAM AV/W 168 ST,,40.839569,-73.937263,,,0,
1053,402805,LEXINGTON AV/E 122 ST,,40.802101,-73.939163,,,0,
1054,402809,LEXINGTON AV/E 114 ST,,40.797184,-73.942764,,,0,
1055,402811,LEXINGTON AV/E 110 ST,,40.794552,-73.94467900000001,,,0,
1056,402816,LEXINGTON AV/E 100 ST,,40.787506,-73.94982900000001,,,0,
1057,402819,LEXINGTON AV/E 94 ST,,40.784225,-73.952248,,,0,
1058,402826,LEXINGTON AV/E 79 ST,,40.774891,-73.959106,,,0,
1059,402829,LEXINGTON AV/E 74 ST,,40.77142,-73.96159399999999,,,0,
1060,402831,LEXINGTON AV/E 70 ST,,40.76878,-73.963516,,,0,
1061,402835,LEXINGTON AV/E 62 ST,,40.763832,-73.967117,,,0,
1062,402838,LEXINGTON AV/E 56 ST,,40.760143,-73.969833,,,0,
1063,402841,LEXINGTON AV/E 49 ST,,40.755539,-73.973175,,,0,
1064,402842,LEXINGTON AV/E 47 ST,,40.754307,-73.974068,,,0,
1065,402843,LEXINGTON AV/E 45 ST,,40.753113,-73.97494499999999,,,0,
1066,402845,LEXINGTON AV/E 40 ST,,40.749790000000004,-73.977364,,,0,
1067,402846,LEXINGTON AV/E 37 ST,,40.748405,-73.978371,,,0,
1068,402851,LEXINGTON AV/E 28 ST,,40.742393,-73.98275799999999,,,0,
1069,402852,LEXINGTON AV/E 26 ST,,40.741158,-73.983727,,,0,
1070,402854,3 AV/E 23 ST,,40.739005999999996,-73.983177,,,0,
1071,402856,3 AV/E 17 ST,,40.734898,-73.98616,,,0,
1072,402857,5 AV/W 14 ST,,40.735714,-73.99395,,,0,
1073,402858,3 AV/E 11 ST,,40.730995,-73.989006,,,0,
1074,402861,BOWERY/E 4 ST,,40.726822,-73.991791,,,0,
1075,402862,BOWERY/BLEECKER ST,,40.725361,-73.992325,,,0,
1076,402863,BOWERY/E HOUSTON ST,,40.723755,-73.99290500000001,,,0,
1077,402864,BOWERY/PRINCE ST,,40.722054,-73.993515,,,0,
1078,402865,BOWERY/KENMARE ST,,40.720036,-73.994293,,,0,
1079,402867,BOWERY/GRAND ST,,40.718136,-73.995079,,,0,
1080,402868,BOWERY/CANAL ST,,40.715916,-73.996422,,,0,
1081,402869,BOWERY/BAYARD ST,,40.71479,-73.997139,,,0,
1082,402870,PARK ROW/WORTH ST,,40.71349,-73.999023,,,0,
1083,403036,WEST END AV/W 72 ST,,40.779533,-73.98481,,,0,
1084,403037,WEST END AV/W 69 ST,,40.77747,-73.986336,,,0,
1085,403038,WEST END AV/W 66 ST,,40.77618,-73.987274,,,0,
1086,403047,CENTRAL PK S/AVE OF THE AMERICAS,,40.765656,-73.97644,,,0,
1087,403076,WEST END AV/W 66 ST,,40.776333,-73.986855,,,0,
1088,403103,BROADWAY/W 73 ST,,40.779590999999996,-73.981514,,,0,
1089,403104,BROADWAY/W 75 ST,,40.781303,-73.981018,,,0,
1090,403106,BROADWAY/W 79 ST,,40.784084,-73.979584,,,0,
1091,403107,BROADWAY/W 82 ST,,40.785995,-73.978165,,,0,
1092,403108,BROADWAY/W 84 ST,,40.787216,-73.977211,,,0,
1093,403109,BROADWAY/W 86 ST,,40.788532000000004,-73.976089,,,0,
1094,403110,BROADWAY/W 88 ST,,40.789803000000006,-73.97511300000001,,,0,
1095,403111,BROADWAY/W 91 ST,,40.791668,-73.973747,,,0,
1096,403112,BROADWAY/W 93 ST,,40.792969,-73.972809,,,0,
1097,403114,BROADWAY/W 99 ST,,40.796726,-73.970047,,,0,
1098,403115,BROADWAY/W 101 ST,,40.798140999999994,-73.968925,,,0,
1099,403116,BROADWAY/W 103 ST,,40.79932,-73.968239,,,0,
1100,403117,BROADWAY/W 106 ST,,40.801819,-73.96764399999999,,,0,
1101,403118,BROADWAY/W 108 ST,,40.803131,-73.967239,,,0,
1102,403119,BROADWAY/CATHEDRAL PY,,40.804268,-73.966347,,,0,
1103,403122,BROADWAY/W 116 ST,,40.807949,-73.96374499999999,,,0,
1104,403125,BROADWAY/W 122 ST,,40.812034999999995,-73.960739,,,0,
1105,403126,BROADWAY/LA SALLE ST,,40.813972,-73.959305,,,0,
1106,403127,BROADWAY/TIEMANN PL,,40.814921999999996,-73.958527,,,0,
1107,403132,AV OF THE AMERICAS/W 50 ST,,40.759772999999996,-73.980385,,,0,
1108,403139,MORNINGSIDE AV/W 125 ST,,40.811474,-73.954018,,,0,
1109,403142,BROADWAY/TIEMANN PL,,40.815025,-73.95904499999999,,,0,
1110,403144,BROADWAY/LA SALLE ST,,40.813736,-73.95996099999999,,,0,
1111,403145,BROADWAY/W 122 ST,,40.811737,-73.961464,,,0,
1112,403147,BROADWAY/W 116 ST,,40.807957,-73.964218,,,0,
1113,403148,BROADWAY/W 114 ST,,40.806644,-73.965164,,,0,
1114,403149,BROADWAY/W 112 ST,,40.805378000000005,-73.966072,,,0,
1115,403150,BROADWAY/CATHEDRAL PY,,40.804085,-73.96701800000001,,,0,
1116,403151,BROADWAY/W 108 ST,,40.803162,-73.96772800000001,,,0,
1117,403152,BROADWAY/W 106 ST,,40.800987,-73.968109,,,0,
1118,403153,BROADWAY/W 104 ST,,40.79974,-73.968498,,,0,
1119,403154,BROADWAY/W 102 ST,,40.798435,-73.96929200000001,,,0,
1120,403155,BROADWAY/W 100 ST,,40.79718,-73.97023,,,0,
1121,403158,BROADWAY/W 94 ST,,40.793163,-73.973091,,,0,
1122,403159,BROADWAY/W 92 ST,,40.791903999999995,-73.974014,,,0,
1123,403160,BROADWAY/W 90 ST,,40.790638,-73.974937,,,0,
1124,403161,BROADWAY/W 88 ST,,40.789390999999995,-73.97584499999999,,,0,
1125,403162,BROADWAY/W 86 ST,,40.788067,-73.97694399999999,,,0,
1126,403163,BROADWAY/W 84 ST,,40.786819,-73.977982,,,0,
1127,403164,BROADWAY/W 82 ST,,40.785595,-73.978897,,,0,
1128,403165,BROADWAY/W 79 ST,,40.7836,-73.98039200000001,,,0,
1129,403166,BROADWAY/W 76 ST,,40.781643,-73.981415,,,0,
1130,403167,BROADWAY/W 74 ST,,40.780167,-73.981865,,,0,
1131,403168,BROADWAY/W 72 ST,,40.778671,-73.9823,,,0,
1132,403169,BROADWAY/W 70 ST,,40.776768,-73.98230699999999,,,0,
1133,403191,W 34 ST/11 AV,,40.755634,-74.00183100000001,,,0,
1134,403192,W 34 ST/10 AV,,40.754329999999996,-73.998779,,,0,
1135,403216,E 34 ST/2 AV,,40.745041,-73.976265,,,0,
1136,403238,W 42 ST/9 AV,,40.757961,-73.991928,,,0,
1137,403239,W 42 ST/8 AV,,40.757228999999995,-73.989838,,,0,
1138,403240,W 42 ST/7 AV,,40.75626,-73.987732,,,0,
1139,403241,W 42 ST/BROADWAY,,40.755272,-73.985336,,,0,
1140,403242,W 42 ST/6TH AVENUE,,40.754536,-73.983643,,,0,
1141,403245,E 42 ST/LEXINGTON AV,,40.751148,-73.97560899999999,,,0,
1142,403246,E 42 ST/3 AV,,40.750473,-73.974121,,,0,
1143,403247,E 42 ST/2 AV,,40.74958,-73.971878,,,0,
1144,403248,E 42 ST/1 AV,,40.748581,-73.969658,,,0,
1145,403249,E 41 ST/1 AV,,40.748047,-73.969887,,,0,
1146,403251,E 42 ST/1 AV,,40.749077,-73.97028399999999,,,0,
1147,403252,E 42 ST/2 AV,,40.750088,-73.972603,,,0,
1148,403253,E 42 ST/3 AV,,40.751015,-73.974762,,,0,
1149,403254,E 42 ST/LEXINGTON AV,,40.751442,-73.97604399999999,,,0,
1150,403257,W 42 ST/5 AV,,40.753735,-73.98111,,,0,
1151,403259,W 42 ST/7 AV,,40.756313,-73.98739599999999,,,0,
1152,403266,5 AV/W 56 ST,,40.761798999999996,-73.974937,,,0,
1153,403267,CENTRAL PK N/5 AV,,40.797165,-73.94914200000001,,,0,
1154,403271,BROADWAY/W 66 ST,,40.774269,-73.982025,,,0,
1155,403276,FRED DOUGLASS BL/W 128 ST,,40.811896999999995,-73.95004300000001,,,0,
1156,403292,AMSTERDAM AV/LA SALLE ST,,40.812756,-73.95658900000001,,,0,
1157,403293,PEARL ST/PECK SLIP,,40.708626,-74.002922,,,0,
1158,403297,YORK AV/E 69 ST,,40.765041,-73.9552,,,0,
1159,403303,E HOUSTON ST/AV C,,40.720989,-73.981735,,,0,
1160,403304,AV C/E 3 ST,,40.721382,-73.98090400000001,,,0,
1161,403305,AV C/E 6 ST,,40.723244,-73.979576,,,0,
1162,403306,AV C/E 8 ST,,40.724441999999996,-73.978699,,,0,
1163,403307,AV C/E 10 ST,,40.725623999999996,-73.977837,,,0,
1164,403311,BROADWAY/W HOUSTON ST,,40.725124,-73.997139,,,0,
1165,403312,W 10 ST/HUDSON ST,,40.733776,-74.005852,,,0,
1166,403313,W 10 ST/GREENWICH ST,,40.733475,-74.007462,,,0,
1167,403316,E 25 ST/PARK AV S,,40.741566,-73.985497,,,0,
1168,403317,ESSEX ST/GRAND ST,,40.71682,-73.989006,,,0,
1169,403318,ESSEX ST/DELANCEY ST,,40.718246,-73.988472,,,0,
1170,403319,ESSEX ST/RIVINGTON ST,,40.719584999999995,-73.987778,,,0,
1171,403320,AV A/E HOUSTON ST,,40.722572,-73.985954,,,0,
1172,403323,W HOUSTON ST/LA GUARDIA PL,,40.726836999999996,-73.99947399999999,,,0,
1173,403326,E 105 ST/FDR  DR,,40.788277,-73.938843,,,0,
1174,403338,ADAM C POWELL BL/W 151 ST,,40.825611,-73.935959,,,0,
1175,403350,WORTH ST/MOTT ST,,40.713757,-73.999039,,,0,
1176,403354,W 42 ST/BROADWAY,,40.755753000000006,-73.986046,,,0,
1177,403359,E 34 ST/1 AV,,40.744049,-73.973915,,,0,
1178,403362,COLUMBUS AV/W 97 ST,,40.793274,-73.967361,,,0,
1179,403367,E 91 ST/YORK AV,,40.77924,-73.94493100000001,,,0,
1180,403372,COLUMBUS AV/W 75 ST,,40.778873,-73.977859,,,0,
1181,403373,FT WASHINGTON AV/W 168 ST,,40.8419,-73.94246700000001,,,0,
1182,403374,FT WASHINGTON AV/W 165 ST,,40.839905,-73.94326,,,0,
1183,403375,FT WASHINGTON AV/W 164 ST,,40.838726,-73.943733,,,0,
1184,403376,FT WASHINGTON AV/W 162 ST,,40.837543,-73.944199,,,0,
1185,403377,FT WASHINGTON AV/W 160 ST,,40.836094,-73.94475600000001,,,0,
1186,403380,DELANCEY ST/COLUMBIA ST,,40.716423,-73.98024699999999,,,0,
1187,403383,1 AV/E 91 ST,,40.780246999999996,-73.94680799999999,,,0,
1188,403392,MANHATTAN AV/CATHEDRAL PY,,40.800884,-73.959938,,,0,
1189,403397,WEST THAMES ST/SOUTH END AV,,40.708408,-74.01709,,,0,
1190,403399,SOUTH END AV/ALBANY ST,,40.711472,-74.015762,,,0,
1191,403415,PARK AV/E 125 ST,,40.804806,-73.939453,,,0,
1192,403416,LEXINGTON AV/E 116 ST,,40.798161,-73.94203900000001,,,0,
1193,403417,LEXINGTON AV/E 106 ST,,40.791908,-73.946609,,,0,
1194,403418,LEXINGTON AV/E 96 ST,,40.785183,-73.951454,,,0,
1195,403419,LEXINGTON AV/E 86 ST,,40.779324,-73.955833,,,0,
1196,403421,LEXINGTON AV/E 72 ST,,40.770344,-73.962418,,,0,
1197,403422,LEXINGTON AV/E 68 ST,,40.767738,-73.964294,,,0,
1198,403424,LEXINGTON AV/E 50 ST,,40.756607,-73.972397,,,0,
1199,403425,LEXINGTON AV/E 42 ST,,40.750842999999996,-73.97653199999999,,,0,
1200,403427,3 AV/E 33 ST,,40.745166999999995,-73.978394,,,0,
1201,403432,3 AV/E 72 ST,,40.770053999999995,-73.960228,,,0,
1202,403433,3 AV/E 79 ST,,40.774586,-73.956924,,,0,
1203,403434,3 AV/E 86 ST,,40.778439,-73.95411700000001,,,0,
1204,403436,3 AV/E 106 ST,,40.791866,-73.944305,,,0,
1205,403438,3 AV/E 122 ST,,40.802006,-73.93690500000001,,,0,
1206,403439,W 179 ST/AMSTERDAM AV,,40.847042,-73.93225100000001,,,0,
1207,403440,W 179 ST/ST NICHOLAS AV,,40.848026000000004,-73.93447900000001,,,0,
1208,403443,E 10 ST/AV D,,40.725082,-73.97545600000001,,,0,
1209,403447,W 135 ST/BROADWAY,,40.819614,-73.954285,,,0,
1210,403454,BROADWAY/W 119 ST,,40.809723,-73.962868,,,0,
1211,403456,MADISON AV/E 37 ST,,40.750126,-73.98107900000001,,,0,
1212,403457,MADISON AV/E 40  ST,,40.752041,-73.979729,,,0,
1213,403459,E 42 ST/PARK AV,,40.751881,-73.977333,,,0,
1214,403461,BROADWAY/W 133 ST,,40.818493,-73.95594,,,0,
1215,403465,W 42 ST/5 AV,,40.753319,-73.980751,,,0,
1216,403466,ST NICOLAS AV/FORT GEORGE HILL,,40.857071000000005,-73.927933,,,0,
1217,403472,AMSTERDAM AV/W 67 ST,,40.775639,-73.983673,,,0,
1218,403475,GRAND ST/ESSEX ST,,40.716484,-73.988823,,,0,
1219,403477,W 79 ST/RIVERSIDE DR,,40.784988,-73.98246,,,0,
1220,403480,1 AV/E 34 ST,,40.744141,-73.973106,,,0,
1221,403483,BROADWAY/W 145 ST,,40.826694,-73.950478,,,0,
1222,403486,W 42 ST/11 AV,,40.760822,-73.998047,,,0,
1223,403487,W 66 ST/WEST END AV,,40.776009,-73.987022,,,0,
1224,403488,W 65 ST/WEST END AV,,40.77512,-73.987282,,,0,
1225,403489,W 65 ST/AMSTERDAM AV,,40.773834,-73.984352,,,0,
1226,403491,W 65 ST/BROADWAY,,40.773178,-73.982788,,,0,
1227,403492,W 65 ST/CENTRAL PK W,,40.771809000000005,-73.979385,,,0,
1228,403494,E 65 ST/5 AV,,40.767811,-73.969933,,,0,
1229,403495,E 68 ST/MADISON AV,,40.768993,-73.966911,,,0,
1230,403497,E 68 ST/LEXINGTON AV,,40.767651,-73.963707,,,0,
1231,403503,E 67 ST/1 AV,,40.764832,-73.95871,,,0,
1232,403504,E 67 ST/2 AV,,40.765831,-73.96108199999999,,,0,
1233,403505,E 67 ST/3 AV,,40.766525,-73.96273000000001,,,0,
1234,403506,E 67 ST/LEXINGTON AV,,40.767437,-73.96489,,,0,
1235,403508,E 67 ST/MADISON AV,,40.768570000000004,-73.96758299999999,,,0,
1236,403510,W 66 ST/CENTRAL PK W,,40.772621,-73.979118,,,0,
1237,403512,W 66 ST/BROADWAY,,40.774132,-73.982727,,,0,
1238,403513,W 66 ST/AMSTERDAM AV,,40.775051,-73.984749,,,0,
1239,403518,W 87 ST/WEST END AV,,40.789547,-73.97719599999999,,,0,
1240,403519,W 34 ST/DYER AV,,40.754082000000004,-73.997734,,,0,
1241,403522,W 79 ST/RIVERSIDE DR,,40.78474,-73.98234599999999,,,0,
1242,403523,W 79 ST/BROADWAY,,40.783867,-73.98028599999999,,,0,
1243,403525,2 AV/E 28 ST,,40.740971,-73.97876,,,0,
1244,403526,3 AV/E 11 ST,,40.731654999999996,-73.98822,,,0,
1245,403528,W 34 ST/9 AV,,40.753361,-73.996048,,,0,
1246,403537,3 AV/E 125 ST,,40.80389,-73.935524,,,0,
1247,403539,W 32 ST/AV OF THE AMERICAS,,40.748379,-73.98859399999999,,,0,
1248,403545,3 AV/E 60 ST,,40.76255,-73.96570600000001,,,0,
1249,403547,W 23 ST/10 AV,,40.747917,-74.004509,,,0,
1250,403552,8 AV/W 39 ST,,40.755177,-73.991135,,,0,
1251,403555,AMSTERDAM AV/W 69 ST,,40.776913,-73.982742,,,0,
1252,403556,E 14 ST/IRVING PL,,40.733948,-73.988899,,,0,
1253,403557,DELANCEY ST/FDR DR,,40.715427000000005,-73.97663100000001,,,0,
1254,403562,W 57 ST/8 AV,,40.766594,-73.98271899999999,,,0,
1255,403563,YORK AV/E 69 ST,,40.764793,-73.955116,,,0,
1256,403573,W 65 ST/COLUMBUS AV,,40.772835,-73.981873,,,0,
1257,403590,PEARL ST/FULTON ST,,40.70763,-74.003998,,,0,
1258,403604,W 125 ST/AMSTERDAM AV,,40.813694,-73.95639,,,0,
1259,403606,W 72 ST/COLUMBUS AV,,40.777405,-73.979019,,,0,
1260,403608,WEST END AV/W 69 ST,,40.777706,-73.985855,,,0,
1261,403610,W 72 ST/CENTRAL PK W,,40.77647,-73.976318,,,0,
1262,403611,W 72 ST/COLUMBUS AV,,40.777657,-73.979141,,,0,
1263,403612,W 72 ST/AMSTERDAM AV,,40.77861,-73.9814,,,0,
1264,403617,E 57 ST/LEXINGTON AV,,40.761185,-73.969505,,,0,
1265,403620,E 57 ST/MADISON AV,,40.762012,-73.971954,,,0,
1266,403621,W 57 ST/AV OF THE AMERICAS,,40.764034,-73.976753,,,0,
1267,403626,WEST END AV/W 59 ST,,40.771412,-73.990799,,,0,
1268,403632,E 97 ST/2 AV,,40.784946000000005,-73.946365,,,0,
1269,403670,W 179 ST/BROADWAY,,40.849113,-73.937752,,,0,
1270,403671,E 125 ST/LEXINGTON AV,,40.804138,-73.93710300000001,,,0,
1271,403673,E 125 ST/2 AV,,40.80275,-73.933815,,,0,
1272,403676,E 125 ST/2 AV,,40.803028000000005,-73.93399000000001,,,0,
1273,403699,W 155 ST/ST NICHOLAS AV,,40.830883,-73.941597,,,0,
1274,403703,W 155 ST/AMSTERDAM AV,,40.831554,-73.94272600000001,,,0,
1275,403711,E 135 ST/MADISON AV,,40.812359,-73.936493,,,0,
1276,403726,YORK AV/E 74 ST,,40.768066,-73.953018,,,0,
1277,403731,E HOUSTON ST/2 AV,,40.723896,-73.99131,,,0,
1278,403732,ESSEX ST/DELANCEY ST,,40.718945,-73.987892,,,0,
1279,403733,W 79 ST/AMSTERDAM AV,,40.783058000000004,-73.977882,,,0,
1280,403735,YORK AV/E 67 ST,,40.763386,-73.956406,,,0,
1281,403736,W 57 ST/7 AV,,40.765564000000005,-73.980324,,,0,
1282,403749,LEXINGTON AV/E 98 ST,,40.787277,-73.949989,,,0,
1283,403754,WATER ST/WALL ST,,40.705044,-74.007759,,,0,
1284,403757,W 135 ST/AMSTERDAM AV,,40.81916,-73.952621,,,0,
1285,403760,W 50 ST/7 AV,,40.761063,-73.98350500000001,,,0,
1286,403763,W 125 ST/OLD BROADWAY,,40.815071,-73.957588,,,0,
1287,403765,3 AV/E 93 ST,,40.783485,-73.950424,,,0,
1288,403769,AV OF THE AMERICAS/W 31 ST,,40.747986,-73.988907,,,0,
1289,403772,3 AV/E 20 ST,,40.736732,-73.984833,,,0,
1290,403776,ST NICHOLAS AV/W 137 ST,,40.818359,-73.947311,,,0,
1291,403777,3 AV/E 97 ST,,40.785725,-73.948792,,,0,
1292,403779,W 66 ST/COLUMBUS AV,,40.773579,-73.98138399999999,,,0,
1293,403781,CENTRAL PK S/COLUMBUS CI,,40.767567,-73.980988,,,0,
1294,403782,PARK AV S/E 23 ST,,40.740494,-73.98599200000001,,,0,
1295,403786,W 135 ST/AMSTERDAM AV,,40.818923999999996,-73.95253000000001,,,0,
1296,403787,E 126 ST/3 AV,,40.804581,-73.935707,,,0,
1297,403793,4 AV/E 9 ST,,40.730465,-73.99047900000001,,,0,
1298,403797,7 AV/W 50 ST,,40.760853000000004,-73.983566,,,0,
1299,403802,10 AV/W 23 ST,,40.747929,-74.003845,,,0,
1300,403804,E 42 ST/PARK AV,,40.752098,-73.97739399999999,,,0,
1301,403805,E 42 ST/MADISON AV,,40.753094,-73.97976700000001,,,0,
1302,403808,E HOUSTON ST/COLUMBIA ST,,40.719627,-73.978386,,,0,
1303,403816,11 AV/W 34 ST,,40.755665,-74.002167,,,0,
1304,403821,LEXINGTON AV/E 34 ST,,40.746265,-73.979973,,,0,
1305,403822,LEXINGTON AV/E 31 ST,,40.744122,-73.981499,,,0,
1306,403826,FRED DOUGLASS BL/W 145 ST,,40.82312,-73.941582,,,0,
1307,403830,W 42 ST/AV OF THE AMERICAS,,40.754993,-73.984276,,,0,
1308,403831,WATER ST/JOHN ST,,40.706814,-74.00522600000001,,,0,
1309,403832,FRED DOUGLASS BL/W 138 ST,,40.818645000000004,-73.944847,,,0,
1310,403835,MARGARET CORBIN DR/CLOISTERS,,40.865547,-73.932159,,,0,
1311,403846,8 AV/W  57 ST,,40.766762,-73.982742,,,0,
1312,403847,AV OF THE AMERICAS/WEST BROADWAY,,40.720909000000006,-74.005119,,,0,
1313,403849,ALLEN ST/E HOUSTON ST,,40.722527,-73.989029,,,0,
1314,403851,SPRING ST/HUDSON ST,,40.725735,-74.007195,,,0,
1315,403853,W HOUSTON ST/HUDSON ST,,40.728889,-74.007301,,,0,
1316,403854,WASHINGTON ST/W HOUSTON ST,,40.728775,-74.009476,,,0,
1317,403855,3 AV/E 23 ST,,40.739204,-73.98271899999999,,,0,
1318,403870,E 14 ST/2 AV,,40.732582,-73.985291,,,0,
1319,403871,E 14 ST/3 AV,,40.733546999999994,-73.987579,,,0,
1320,403876,HUDSON ST/BETHUNE ST,,40.737072,-74.00586700000001,,,0,
1321,403878,VESEY ST/NORTH END AV,,40.714554,-74.015846,,,0,
1322,403886,AMSTERDAM AV/W 114 ST,,40.805729,-73.96171600000001,,,0,
1323,403887,2 AV/E 54 ST,,40.757168,-73.966995,,,0,
1324,403893,E 14 ST/UNION SQ W,,40.735465999999995,-73.992134,,,0,
1325,403894,W 14 ST/5 AV,,40.736228999999994,-73.99395799999999,,,0,
1326,403895,W 14 ST/6 AV,,40.737663,-73.99736,,,0,
1327,403896,W 14 ST/7 AV,,40.7388,-74.000046,,,0,
1328,403897,W 14 ST/8 AV,,40.740028,-74.00296800000001,,,0,
1329,403902,RIVERSIDE DR/W 100 ST,,40.798832,-73.973412,,,0,
1330,403903,BROADWAY/W 129 ST,,40.81617,-73.95818299999999,,,0,
1331,403906,E 14 ST/IRVING PL,,40.734417,-73.9897,,,0,
1332,403907,W 165 ST/AMSTERDAM AV,,40.837872,-73.938156,,,0,
1333,403908,AUDUBON AV/W 165 ST,,40.839054,-73.939316,,,0,
1334,403910,W 165 ST/AMSTERDAM AV,,40.837688,-73.93804200000001,,,0,
1335,403913,3 AV/E 14 ST,,40.733677,-73.98674799999999,,,0,
1336,403914,AV OF THE AMERICAS/W 20 ST,,40.741158,-73.993874,,,0,
1337,403942,CONVENT AV/W 129 ST,,40.814223999999996,-73.95317800000001,,,0,
1338,403953,STATE ST/BRIDGE ST,,40.70335,-74.014526,,,0,
1339,403954,W 49 ST/11 AV,,40.765476,-73.995476,,,0,
1340,403955,W 49 ST/12 AV,,40.766205,-73.99713100000001,,,0,
1341,403956,12 AV/W 46 ST,,40.764446,-73.998657,,,0,
1342,403975,ST NICHOLAS AV/W 176 ST,,40.846367,-73.935745,,,0,
1343,403976,ST NICHOLAS AV/W 184 ST,,40.851368,-73.932106,,,0,
1344,403978,ST NICHOLAS AV/W 187 ST,,40.852759999999996,-73.931343,,,0,
1345,403979,ST NICHOLAS AV/W 174 ST,,40.844906,-73.937096,,,0,
1346,403980,MADISON AV/E 121 ST,,40.803482,-73.942223,,,0,
1347,403981,CENTRAL PK W/W 69 ST,,40.774509,-73.97706600000001,,,0,
1348,403982,FRED DOUGLASS BL/W 135 ST,,40.816772,-73.946213,,,0,
1349,403984,W 57 ST/9 AV,,40.767672999999995,-73.985359,,,0,
1350,403986,W 57 ST/10 AV,,40.769363,-73.98893000000001,,,0,
1351,403987,11 AV/W 57 ST,,40.770046,-73.991745,,,0,
1352,403989,E 79 ST/5 AV,,40.776981,-73.96347800000001,,,0,
1353,403992,W 57 ST/10 AV,,40.768840999999995,-73.988152,,,0,
1354,403993,E 68 ST/3 AV,,40.766964,-73.962074,,,0,
1355,403994,E 68 ST/2 AV,,40.766262,-73.96043399999999,,,0,
1356,403995,E 68 ST/1 AV,,40.765029999999996,-73.957497,,,0,
1357,403996,EAST 68 ST/YORK AV,,40.764252,-73.95575,,,0,
1358,403997,E 67 ST/YORK AV,,40.763908,-73.956299,,,0,
1359,404008,AMSTERDAM AV/W 190 ST,,40.853458,-73.927116,,,0,
1360,404010,E 8 ST/LAFAYETTE ST,,40.730068,-73.99128,,,0,
1361,404011,W 135 ST/BROADWAY,,40.820343,-73.95542900000001,,,0,
1362,404012,W 135 ST/RIVERSIDE DR,,40.821026,-73.957031,,,0,
1363,404013,RIVERSIDE DR/W 137 ST,,40.822433000000004,-73.95585600000001,,,0,
1364,404014,RIVERSIDE DR/W 142 ST,,40.825466,-73.9533,,,0,
1365,404015,RIVERSIDE DR/W 144 ST,,40.826653,-73.952225,,,0,
1366,404017,RIVERSIDE DR/W 142 ST,,40.825382,-73.953987,,,0,
1367,404018,RIVERSIDE DR/W 139 ST,,40.823483,-73.95549799999999,,,0,
1368,404019,W 135 ST/RIVERSIDE DR,,40.820801,-73.956985,,,0,
1369,404021,RIVERBANK ST PK/CULTURAL CTR,,40.826702000000004,-73.955475,,,0,
1370,404024,CENTRAL PK W/W 75 ST,,40.778511,-73.974144,,,0,
1371,404029,E 14 ST/1 AV,,40.731152,-73.981964,,,0,
1372,404030,COLUMBUS AV/W 61 ST,,40.770016,-73.984344,,,0,
1373,404031,RIVERSIDE DR/W 145 ST,,40.827011,-73.952148,,,0,
1374,404032,E 9 ST/4 AV,,40.73082,-73.99086,,,0,
1375,404035,W 49 ST/7 AV,,40.760704,-73.98406999999999,,,0,
1376,404036,WEST END AV/W 61 ST,,40.772991,-73.98960100000001,,,0,
1377,404037,SUTTON PLACE/E 55 ST,,40.756195,-73.96165500000001,,,0,
1378,404039,AV OF THE AMERICAS/W 38 ST,,40.752140000000004,-73.98597,,,0,
1379,404040,AV OF THE AMERICAS/W 40 ST,,40.753708,-73.984734,,,0,
1380,404043,AV OF THE AMERICAS/W 45 ST,,40.75703,-73.982376,,,0,
1381,404046,ST NICHOLAS AV/W 190 ST,,40.855198,-73.929298,,,0,
1382,404049,CENTRAL PK W/W 63 ST,,40.770657,-73.979874,,,0,
1383,404050,7 AV/W 56 ST,,40.764984000000005,-73.980553,,,0,
1384,404054,RIVERSIDE DR/W 94 ST,,40.794708,-73.97649399999999,,,0,
1385,404056,RIVERSIDE DR/W 139 ST,,40.823433,-73.955322,,,0,
1386,404058,W 54 ST/11 AV,,40.767925,-73.99185899999999,,,0,
1387,404066,ST NICHOLAS AV/W 167 ST,,40.840931,-73.939499,,,0,
1388,404071,ST NICHOLAS AV/W 124 ST,,40.810356,-73.952751,,,0,
1389,404075,W 96 ST/COLUMBUS AV,,40.793083,-73.967827,,,0,
1390,404076,E 106 ST/LEXINGTON AV,,40.792010999999995,-73.94596899999999,,,0,
1391,404077,E 106 ST/3 AV,,40.791325,-73.94433599999999,,,0,
1392,404079,E 106 ST/LEXINGTON AV,,40.792465,-73.94657099999999,,,0,
1393,404080,E 106 ST/MADISON AV,,40.793834999999994,-73.94982900000001,,,0,
1394,404081,5 AV/EAST 98 ST,,40.789192,-73.954872,,,0,
1395,404085,12 AV/W 23 ST,,40.748844,-74.008125,,,0,
1396,404087,E 96 ST/5 AV,,40.787659000000005,-73.955414,,,0,
1397,404091,2 AV/E 103 ST,,40.788605,-73.944099,,,0,
1398,404092,3 AV/EAST 7 ST,,40.729313,-73.990196,,,0,
1399,404094,AV A/ST MARKS PL,,40.726826,-73.982834,,,0,
1400,404099,E 20 ST/E 20 ST OVAL,,40.734337,-73.978088,,,0,
1401,404100,E HOUSTON ST/RIDGE ST,,40.720653999999996,-73.98164399999999,,,0,
1402,404101,FRANKFORT ST/WILLIAM ST,,40.711376,-74.004372,,,0,
1403,404103,MADISON AV/E 114 ST,,40.798491999999996,-73.94581600000001,,,0,
1404,404104,RIVERSIDE DR/W 103 ST,,40.800419,-73.971703,,,0,
1405,404105,2 AV/E 12 ST,,40.730812,-73.986191,,,0,
1406,404106,3 AV/E 14 ST,,40.732983000000004,-73.987564,,,0,
1407,404107,CHURCH ST/WARREN ST,,40.714146,-74.008423,,,0,
1408,404108,CHURCH ST/VESEY ST,,40.712128,-74.010048,,,0,
1409,404116,W 43 ST/8 AV,,40.758392,-73.990189,,,0,
1410,404117,FT TRYON PARK/OPP CAFE LOT,,40.863331,-73.932396,,,0,
1411,404118,FT TRYON PARK/CAFE LOT,,40.863796,-73.932556,,,0,
1412,404120,UNION SQ E/E 15 ST,,40.73555,-73.989609,,,0,
1413,404121,11 AV/W 57 ST,,40.770565000000005,-73.991066,,,0,
1414,404122,5 AV/W 67 ST,,40.769032,-73.96965,,,0,
1415,404124,W 178 ST/ST NICHOLAS AV,,40.847336,-73.935379,,,0,
1416,404125,W 178 ST/AUDUBON AV,,40.84655,-73.933441,,,0,
1417,404129,ADAM C POWELL BL/W 149 ST,,40.824261,-73.936943,,,0,
1418,404130,RIVERSIDE DR/W 104 ST,,40.800999,-73.971642,,,0,
1419,404131,RIVERSIDE DR/W 94 ST,,40.795059,-73.976624,,,0,
1420,404132,AV OF THE AMERICAS/PRINCE ST,,40.727024,-74.003349,,,0,
1421,404133,HUDSON ST/BARROW ST,,40.731571,-74.00653100000001,,,0,
1422,404134,CENTRAL PK W/W 79 ST,,40.781147,-73.972229,,,0,
1423,404135,FRED DOUGLASS BL/W 158 ST,,40.830956,-73.935989,,,0,
1424,404136,CENTRAL PK W/W 79 ST,,40.780621000000004,-73.97285500000001,,,0,
1425,404137,12 AV/W 23 ST,,40.748718,-74.00811,,,0,
1426,404138,BROADWAY/W 63 ST,,40.770615,-73.98226899999999,,,0,
1427,404147,W 133 ST/AMSTERDAM AV,,40.817822,-73.953568,,,0,
1428,404153,7 AV/W 41 ST,,40.755482,-73.98745,,,0,
1429,404154,YORK AV/E 60 ST,,40.759544,-73.958946,,,0,
1430,404155,E HOUSTON ST/MOTT ST,,40.724976,-73.99449200000001,,,0,
1431,404160,E 42 ST/MADISON AV,,40.752533,-73.978889,,,0,
1432,404161,10 AV/W 19 ST,,40.745426,-74.005684,,,0,
1433,404168,5 AV/EAST 96 ST,,40.788216,-73.955635,,,0,
1434,404169,3 AV/E 55 ST,,40.759201000000004,-73.968147,,,0,
1435,404171,LEXINGTON AV/E 59 ST,,40.762135,-73.968399,,,0,
1436,404191,MADISON AV/E 95 ST,,40.787197,-73.95414699999999,,,0,
1437,404194,W 179 ST/WADSWORTH AV,,40.848515,-73.935776,,,0,
1438,404196,12 AV/W 42 ST ISLAND,,40.762051,-74.000999,,,0,
1439,404225,BROADWAY/BARCLAY ST,,40.711895,-74.00831600000001,,,0,
1440,404232,BROADWAY/W 131 ST,,40.817322,-73.956856,,,0,
1441,404244,7 AV/W 23 ST,,40.743813,-73.995987,,,0,
1442,404245,FRED DOUGLASS BL/W 119 ST,,40.806090999999995,-73.954262,,,0,
1443,404253,1 AV/E 62 ST,,40.7616,-73.960388,,,0,
1444,404255,LEXINGTON AV/E 124 ST,,40.803886,-73.937851,,,0,
1445,404257,RIVERSIDE DR/W 120 ST,,40.811584,-73.963684,,,0,
1446,404258,RIVERSIDE DR/W 122 ST,,40.812934999999996,-73.9627,,,0,
1447,404259,RIVERSIDE DR/W 122 ST,,40.812241,-73.964149,,,0,
1448,404260,BROADWAY/W 113 ST,,40.806259000000004,-73.964958,,,0,
1449,404262,BROADWAY/W 120 ST,,40.810340999999994,-73.96198299999999,,,0,
1450,404264,AVENUE C/E 23 ST,,40.735191,-73.97522,,,0,
1451,404266,SUTTON PL/E 58 ST,,40.757828,-73.960464,,,0,
1452,404274,W 116 ST/MALCOLM X BL,,40.802292,-73.950027,,,0,
1453,404278,CENTRAL PK N/MALCOLM X BL,,40.798115,-73.952332,,,0,
1454,404279,10 AV/W 37 ST,,40.756718,-73.99744399999999,,,0,
1455,404283,ADAM C POWELL BL/W 125 ST,,40.809158000000004,-73.947975,,,0,
1456,404286,W 14 ST/HUDSON ST,,40.74062,-74.004807,,,0,
1457,404287,ESSEX ST/ E BROADWAY,,40.714127000000005,-73.99028,,,0,
1458,404289,RIVERSIDE DR/W 74 ST,,40.78204,-73.984871,,,0,
1459,404290,RIVERSIDE DR/W 82 ST,,40.787205,-73.98111,,,0,
1460,404303,5 AV/EAST 78 ST,,40.776253000000004,-73.964386,,,0,
1461,404308,W 86 ST/COLUMBUS AV,,40.786709,-73.97245799999999,,,0,
1462,404320,AMSTERDAM AV/W 89 ST,,40.78949,-73.97357199999999,,,0,
1463,404321,LEXINGTON AV/E 83 ST,,40.777245,-73.95734399999999,,,0,
1464,404325,FRED DOUGLASS BL/MACOMBS PL,,40.825817,-73.93965899999999,,,0,
1465,404327,PEARL ST / PEARL ST,,40.710831,-74.000824,,,0,
1466,404329,W 18 ST/11 AV,,40.744984,-74.00743100000001,,,0,
1467,404333,MALCOLM X BL/W 122 ST,,40.806067999999996,-73.946564,,,0,
1468,404334,MALCOLM X BL/W 125 ST,,40.808040999999996,-73.945122,,,0,
1469,404335,MALCOLM X BL/W 142 ST,,40.818794,-73.937263,,,0,
1470,404336,MALCOLM X BL/W 127 ST,,40.808754,-73.944939,,,0,
1471,404337,MALCOLM X BL/W 129 ST,,40.810005,-73.94403100000001,,,0,
1472,404338,MALCOLM X BL/W 137 ST,,40.815083,-73.940331,,,0,
1473,404339,MALCOLM X BL/W 139 ST,,40.816345,-73.9394,,,0,
1474,404341,MALCOLM X BL / W 116 ST,,40.802338,-73.94928,,,0,
1475,404350,MAIN RWDY/OPP ICAHN STADIUM,,40.793163,-73.921776,,,0,
1476,404351,MAIN RWDY/TENNIS CENTER,,40.794987,-73.920029,,,0,
1477,404352,MAIN RDY/AFTER EXIT RAMP,,40.796139000000004,-73.91951,,,0,
1478,404353,MAIN RDY/ICAHN STADIUM,,40.792862,-73.923363,,,0,
1479,404354,MAIN ROADWAY/ MANHATTAN PSYC CTR,,40.789169,-73.92684200000001,,,0,
1480,404355,MAIN RDY/OPP CLARKE THOMAS BLDG,,40.786804,-73.930702,,,0,
1481,404356,MAIN ROADWAY/SUNKEN GARDEN,,40.786297,-73.932114,,,0,
1482,404681,E 86 ST/2 AV,,40.777573,-73.951263,,,0,
1483,404820,W 34 ST/7 AV,,40.751118,-73.991112,,,0,
1484,404821,RIVERSIDE DR/TIEMANN PL,,40.816071,-73.961166,,,0,
1485,404822,RIVERSIDE DR/TIEMANN PL,,40.816311,-73.961929,,,0,
1486,404824,FRED DOUGLASS BL/W 147 ST,,40.823914,-73.941261,,,0,
1487,404825,FRED DOUGLASS BL/W 148 ST,,40.824928,-73.94025400000001,,,0,
1488,404826,WEST END AV/W 64 ST,,40.774494,-73.98850300000001,,,0,
1489,404832,HUDSON ST/SPRING ST,,40.726028,-74.00739300000001,,,0,
1490,404833,E 23 ST/PARK AV S,,40.74049,-73.986847,,,0,
1491,404834,W 23 ST/11 AV,,40.748631,-74.00663,,,0,
1492,404837,ADAM C POWELL BL/W 153 ST,,40.82653,-73.935265,,,0,
1493,404838,COLUMBUS AV/W 80 ST,,40.782806,-73.974976,,,0,
1494,404843,PIKE ST/MADISON ST,,40.712875,-73.992264,,,0,
1495,404844,PIKE ST/MADISON ST,,40.71262,-73.992653,,,0,
1496,404846,8 AV/W 49 ST,,40.761902,-73.986237,,,0,
1497,404847,8 AV/W 31 ST,,40.749953999999995,-73.994949,,,0,
1498,404850,PEARL ST/FULTON ST,,40.70755,-74.00386,,,0,
1499,404852,W 81ST/AMSTERDAM AV,,40.784264,-73.97718,,,0,
1500,404853,AMSTERDAM AV/W 161 ST,,40.835239,-73.940201,,,0,
1501,404854,LEXINGTON AV/E 77 ST,,40.773319,-73.960213,,,0,
1502,404855,RIVERSIDE DR/W 89 ST,,40.791832,-73.978943,,,0,
1503,404856,E 110 ST/MADISON AV,,40.796397999999996,-73.94806700000001,,,0,
1504,404857,PARK ROW/ST JAMES PL,,40.713367,-73.99855,,,0,
1505,404858,E 79 ST/MADISON AV,,40.776039000000004,-73.961685,,,0,
1506,404859,YORK AV/E 87 ST,,40.776024,-73.947136,,,0,
1507,404860,E 79 ST/LEXINGTON AV,,40.775116,-73.959106,,,0,
1508,404863,HARRISON ST/HUDSON ST,,40.718596999999995,-74.009163,,,0,
1509,404864,HARRISON ST/WEST ST,,40.718895,-74.012054,,,0,
1510,404865,W 70 ST/FREEDOM PL,,40.778912,-73.986687,,,0,
1511,404871,CENTRAL PK W/COLUMBUS CIR,,40.768688,-73.981339,,,0,
1512,404872,8 AV/W 46 ST,,40.759411,-73.988052,,,0,
1513,404876,W 168 ST/AUDUBON AV,,40.840579999999996,-73.93843100000001,,,0,
1514,404881,9 AV/W 23 ST,,40.746265,-74.00164000000001,,,0,
1515,404909,2 AV/E 36 ST,,40.746201,-73.974998,,,0,
1516,404911,W 106 ST/BROADWAY,,40.801155,-73.967575,,,0,
1517,404915,FREDERICK DOUGLASS BL/W 116 ST,,40.804153,-73.955673,,,0,
1518,404916,BROADWAY/PRINCE ST,,40.72401,-73.998085,,,0,
1519,404918,BROADWAY/W 167 ST,,40.840168,-73.940636,,,0,
1520,404919,8 AV/W 43 ST,,40.758003,-73.98909,,,0,
1521,404920,FT WASHINGTON AV/W 165 ST,,40.840557000000004,-73.942825,,,0,
1522,404921,FT WASHINGTON AV/W 168 ST,,40.842407,-73.942093,,,0,
1523,404922,MADISON ST/GRAND ST,,40.713505,-73.98041500000001,,,0,
1524,404926,W 24 St/11 AV,,40.749996,-74.007492,,,0,
1525,404927,W 24 ST/12 AV,,40.749969,-74.007805,,,0,
1526,404928,ST NICHOLAS AV/W 193 ST,,40.856667,-73.928268,,,0,
1527,404936,PARK AV S/E 18 ST,,40.736809,-73.98867,,,0,
1528,404938,E 60 ST/YORK AV,,40.759312,-73.95946500000001,,,0,
1529,404940,W HOUSTON ST/VARICK ST,,40.728718,-74.00550799999999,,,0,
1530,404947,LEXINGTON AV/E 92 ST,,40.782955,-73.953171,,,0,
1531,404948,W 49 ST/8 AV,,40.761996999999994,-73.98703,,,0,
1532,404949,AMSTERDAM AV/W 161 ST,,40.83548,-73.94025400000001,,,0,
1533,404950,E 34 ST /1 AV,,40.743774,-73.973732,,,0,
1534,404951,FERRY TERMINAL/FDR DRIVE,,40.743439,-73.971809,,,0,
1535,404963,ADAM C POWELL BL/WEST 119 ST,,40.805386,-73.950813,,,0,
1536,404969,CHAMBERS ST/GREENWICH ST,,40.716076,-74.01061999999999,,,0,
1537,404973,CHAMBERS ST/GREENWICH ST,,40.716553000000005,-74.011353,,,0,
1538,404976,CHAMBERS ST/W BROADWAY,,40.715378,-74.009102,,,0,
1539,404977,CHAMBERS ST/CHURCH ST,,40.714714,-74.007713,,,0,
1540,404978,MALCOLM X B / W 119 ST,,40.803638,-73.948677,,,0,
1541,404979,BATTERY PL/3 PL,,40.707271999999996,-74.01735699999999,,,0,
1542,404980,BATTERY PL/1 PL,,40.705837,-74.018089,,,0,
1543,404983,BATTERY PL/WEST ST,,40.704997999999996,-74.017387,,,0,
1544,404986,BATTERY PL/3 PL,,40.707615000000004,-74.01690699999999,,,0,
1545,404987,CENTRAL PK W/W 66 ST,,40.772331,-73.978981,,,0,
1546,404988,CENTRAL PK W/W 64 ST,,40.771095,-73.979904,,,0,
1547,404990,SPRING ST/GREENWICH ST,,40.725906,-74.00874300000001,,,0,
1548,404991,AV OF THE AMERICAS/W 18 ST,,40.73959,-73.995071,,,0,
1549,404992,AV OF THE AMERICAS/W 57 ST,,40.7644,-73.976997,,,0,
1550,404994,MADISON AV/E 66 ST,,40.767838,-73.96818499999999,,,0,
1551,404995,1 AV/E 28 ST,,40.740513,-73.975746,,,0,
1552,405003,E 92 ST/YORK AV,,40.779755,-73.94453399999999,,,0,
1553,405006,E BROADWAY/CATHERINE ST,,40.713375,-73.99739100000001,,,0,
1554,405014,MALCOLM X BL/W 132 ST,,40.8125,-73.941856,,,0,
1555,405015,MAIN RDY/OPP PARK & RECREATION,,40.799484,-73.922508,,,0,
1556,405016,MAIN RDWY/T.B.T.A.,,40.798576000000004,-73.921364,,,0,
1557,405024,CHURCH ST/WORTH ST,,40.716679,-74.006424,,,0,
1558,405026,9 AV/W 40 ST,,40.756901,-73.99389599999999,,,0,
1559,405052,CHAMBERS ST/BROADWAY,,40.713875,-74.005905,,,0,
1560,405053,MURRAY ST/NORTH END AV,,40.715481,-74.015373,,,0,
1561,405054,VESEY ST/NORTH END AV,,40.71463,-74.015694,,,0,
1562,405056,NORTH END AV/WARREN ST,,40.717071999999995,-74.014084,,,0,
1563,405057,LEXINGTON AV/E 119 ST,,40.800205,-73.940552,,,0,
1564,405061,3 AV/E 21 ST,,40.737415000000006,-73.984024,,,0,
1565,405062,NORTH END AV/WARREN ST,,40.717251,-74.014496,,,0,
1566,405063,MURRAY ST/NORTH END AV,,40.715733,-74.015038,,,0,
1567,405065,WEST ST/CHAMBERS ST,,40.71748,-74.01255,,,0,
1568,405066,LEXINGTON AV/E 89 ST,,40.781147,-73.954491,,,0,
1569,405069,AMSTERDAM AV/W 175 ST,,40.843849,-73.934143,,,0,
1570,405070,AMSTERDAM AV/W 165 ST,,40.837627000000005,-73.93869000000001,,,0,
1571,405071,W 70 ST/WEST END AV,,40.778706,-73.985786,,,0,
1572,405073,AMSTERDAM AV/W 158 ST,,40.833637,-73.941376,,,0,
1573,405074,AMSTERDAM AV/W 152 ST,,40.829887,-73.94407700000001,,,0,
1574,405075,AMSTERDAM AV/W 164 ST,,40.837456,-73.93854499999999,,,0,
1575,405076,AMSTERDAM AV/W 167 ST,,40.839657,-73.93693499999999,,,0,
1576,405077,AMSTERDAM AV/W 176 ST,,40.845139,-73.93293800000001,,,0,
1577,405078,AMSTERDAM AV/W 135 ST,,40.81863,-73.952568,,,0,
1578,405079,AMSTERDAM AV/W 125 ST,,40.812903999999996,-73.956863,,,0,
1579,405084,BROAD ST/WATER ST,,40.702538,-74.01149000000001,,,0,
1580,405086,WEST END AV/WEST 70 ST,,40.778725,-73.985138,,,0,
1581,405087,MANHATTAN AV/W 111 ST,,40.801731,-73.959137,,,0,
1582,405091,FT GEORGE AV/66 FORT GEORGE AV,,40.85833,-73.92538499999999,,,0,
1583,405092,MANHATTAN AV/W 113 ST,,40.803345,-73.957962,,,0,
1584,405093,MANHATTAN AV/W 119 ST,,40.807076,-73.955421,,,0,
1585,405098,1 AV / 4 ST,,40.725437,-73.986725,,,0,
1586,405100,1 AV/E 82 ST,,40.774559,-73.950912,,,0,
1587,405103,AMSTERDAM AV/W 149 ST,,40.827652,-73.945709,,,0,
1588,405111,ST NICHOLAS AV/W 165 ST,,40.838383,-73.939774,,,0,
1589,405112,RIVERSIDE BL/W 69 ST,,40.77906,-73.98838,,,0,
1590,405124,SOUTH END AV/GATEWAY PLAZA,,40.710621,-74.016258,,,0,
1591,405125,WEST THAMES ST/SOUTH END AV,,40.708324,-74.01726500000001,,,0,
1592,405130,BOWERY/E 1 ST,,40.725155,-73.992081,,,0,
1593,405133,HUDSON ST/WEST 13 ST,,40.74073,-74.005264,,,0,
1594,405135,E 116 ST/3 AV,,40.798203,-73.940392,,,0,
1595,405140,MAIN RDY/OPP GOLF CTR PARKING,,40.794952,-73.921646,,,0,
1596,405150,7 AV/WEST 14 ST,,40.7384,-73.999886,,,0,
1597,405151,10 AV/WEST 16 ST,,40.743598999999996,-74.006943,,,0,
1598,405152,W 14 ST/WASHINGTON ST,,40.741806,-74.007141,,,0,
1599,405153,WEST END AV/W 63 ST,,40.774147,-73.988518,,,0,
1600,405155,3 AV/E 9 ST,,40.730362,-73.989166,,,0,
1601,405157,11 AV/W 15 ST,,40.743389,-74.008347,,,0,
1602,405161,WEST END AV/W 62 ST,,40.773140000000005,-73.989517,,,0,
1603,405165,ESSEX ST/CANAL ST,,40.715446,-73.989723,,,0,
1604,405169,E 79 ST/LEXINGTON AV,,40.774947999999995,-73.959137,,,0,
1605,405172,W HOUSTON ST/GREENE ST,,40.725947999999995,-73.998329,,,0,
1606,405179,5 AV/W 45 ST,,40.754871,-73.979965,,,0,
1607,405181,3 AV/E 116 ST,,40.797798,-73.94004100000001,,,0,
1608,405182,FRED DOUGLASS BL/W 125 ST,,40.810558,-73.95076800000001,,,0,
1609,405185,AMSTERDAM AV/W 183 ST,,40.849808,-73.929604,,,0,
1610,405186,AMSTERDAM AV/W 185 ST,,40.850628,-73.929214,,,0,
1611,405193,EAST 49 ST/2 Av,,40.754490000000004,-73.969368,,,0,
1612,405219,BROADWAY/WARREN ST,,40.713786999999996,-74.006744,,,0,
1613,405227,ST NICHOLAS AV/W 147 ST,,40.825404999999996,-73.94351999999999,,,0,
1614,405231,E 23 ST/BROADWAY,,40.74139,-73.98904399999999,,,0,
1615,405233,2 AV/E 91 ST,,40.780895,-73.94963100000001,,,0,
1616,405234,BROADWAY/WEST 120 ST,,40.810371,-73.96255500000001,,,0,
1617,405237,W 72 ST/BROADWAY,,40.778766999999995,-73.982162,,,0,
1618,405247,FREDERICK DOUGLASS BL/114 ST,,40.803307000000004,-73.956314,,,0,
1619,405248,BROADWAY/W 97 ST,,40.795173999999996,-73.971199,,,0,
1620,405249,BROADWAY/W 97 ST,,40.794933,-73.971848,,,0,
1621,405260,AV D/EAST 3 ST,,40.720467,-73.978584,,,0,
1622,405265,W 14 ST/9 AV,,40.74115,-74.005524,,,0,
1623,405269,BOWERY/HESTER ST,,40.717341999999995,-73.9953,,,0,
1624,405272,EAST 24 ST/LEXINGTON AV,,40.739956,-73.984039,,,0,
1625,405283,COLUMBUS AV/W 66 ST,,40.773396000000005,-73.981804,,,0,
1626,405284,MALCOLM X BL/W 146 ST,,40.821056,-73.935829,,,0,
1627,405285,11 AV/W 34 ST,,40.75563,-74.00219,,,0,
1628,405289,FREDERICK DOUGLASS/W 121 ST,,40.807526,-73.953285,,,0,
1629,405293,7 AV/WEST 55 ST,,40.763973,-73.981346,,,0,
1630,405297,7 AV/W 44 ST,,40.757256,-73.986214,,,0,
1631,405298,7 AV/WEST 17 STREET,,40.740353000000006,-73.998489,,,0,
1632,405307,2 AV/E 88 ST,,40.779278000000005,-73.95082099999999,,,0,
1633,405308,WEST 66 ST/FREEDOM PL,,40.776501,-73.988632,,,0,
1634,405315,PLEASANT AV/E 117 ST,,40.795918,-73.932693,,,0,
1635,405316,9 AV/WEST 25 ST,,40.74757,-74.00071,,,0,
1636,405319,MADISON ST/CATHERINE ST,,40.711929,-73.99715400000001,,,0,
1637,405320,ALLEN ST/GRAND ST,,40.717166999999996,-73.991188,,,0,
1638,405323,1 AV/E 25 ST,,40.737991,-73.97760799999999,,,0,
1639,405336,2 AV/E 28 ST,,40.741116,-73.978638,,,0,
1640,405337,WATER ST/GOUVERNEUR LA,,40.704662,-74.00829300000001,,,0,
1641,405340,2 AV/E 13 ST,,40.731792,-73.985451,,,0,
1642,405347,2 AV/E 106 ST,,40.790859000000005,-73.942429,,,0,
1643,405348,2 AV/E 115 ST,,40.795918,-73.938766,,,0,
1644,405350,COLUMBIA ST/HOUSTON ST,,40.719623999999996,-73.978729,,,0,
1645,405352,LEWIS ST/GRAND ST,,40.714039,-73.979843,,,0,
1646,405353,WEST END AV/W 61 ST,,40.772884000000005,-73.989334,,,0,
1647,405359,PIKE ST/CHERRY ST,,40.710861,-73.991936,,,0,
1648,405361,E HOUSTON ST/CROSBY ST,,40.725426,-73.996063,,,0,
1649,405365,EAST 72 ST/2 AV,,40.768710999999996,-73.958282,,,0,
1650,405366,HUDSON ST/LAIGHT ST,,40.722122,-74.008034,,,0,
1651,405367,E 20 ST/AV C,,40.733036,-73.974937,,,0,
1652,405369,E 79 ST/3rd AV,,40.774260999999996,-73.957413,,,0,
1653,405371,EAST 79 ST/PARK AV,,40.775612,-73.960258,,,0,
1654,405372,GRAND ST/FDR DRIVE,,40.713359999999994,-73.977791,,,0,
1655,405373,ALLEN ST/HESTER ST,,40.716393,-73.992058,,,0,
1656,405374,W 41 ST/8 AV,,40.75655,-73.99011999999999,,,0,
1657,405376,BROADWAY/WEST 57 ST,,40.766529,-73.981964,,,0,
1658,405380,MADISON AV/E 28 ST,,40.74419,-73.985428,,,0,
1659,405384,FREDERICK DOUGLASS BL/125 ST,,40.810055,-73.951408,,,0,
1660,405389,YORK AV/E 62 ST,,40.7607,-73.95837399999999,,,0,
1661,405392,MADISON AV/E 75 ST,,40.773842,-73.963821,,,0,
1662,405393,8 AV/W  56 ST,,40.766284999999996,-73.98307,,,0,
1663,405394,BROADWAY/WEST 105 ST,,40.801659,-73.967651,,,0,
1664,405396,1 AV/ E 27 ST,,40.739596999999996,-73.976425,,,0,
1665,405420,GREENWICH ST/HORATIO ST,,40.738865000000004,-74.006371,,,0,
1666,405480,3 AV/E 57 ST,,40.760139,-73.967522,,,0,
1667,405488,3 AV/E 53 ST,,40.757751,-73.969238,,,0,
1668,405489,MADISON AV/E 67 ST,,40.768791,-73.96751400000001,,,0,
1669,405490,MADISON AV/E 63 ST,,40.766453000000006,-73.969246,,,0,
1670,405491,5 AV/E 69 ST,,40.770599,-73.968475,,,0,
1671,450123,5 AV/W 50 ST,,40.758891999999996,-73.97706600000001,,,0,
1672,450222,W 18 ST / 10 AV,,40.744324,-74.005936,,,0,
1673,450335,BATTERY PL/WASHINGTON ST,,40.705086,-74.015984,,,0,
1674,450375,W 37 ST/5 AV,,40.750572,-73.983559,,,0,
1675,503357,HOYT AV/31 ST,,40.770161,-73.917488,,,0,
1676,503848,LGA/TERMINAL C,,40.770294,-73.864502,,,0,
1677,503855,DITMARS BL/GRAND CENTRAL PY,,40.767281,-73.88799300000001,,,0,
1678,503870,ASTORIA BL/STEINWAY ST,,40.769489,-73.90973699999999,,,0,
1679,503875,LGA/TERMINAL D,,40.768387,-73.862534,,,0,
1680,503876,23 AV/87 ST,,40.767246,-73.88237,,,0,
1681,504007,HOYT AV/31 ST,,40.771114000000004,-73.917511,,,0,
1682,504023,94 ST/23 AV,,40.768482,-73.876213,,,0,
1683,504417,23 AV/82 ST,,40.766323,-73.887108,,,0,
1684,504423,ASTORIA BL S/77 ST,,40.765587,-73.891449,,,0,
1685,504517,ASTORIA BL N/77 ST,,40.7668,-73.89250899999999,,,0,
1686,504542,LAGUARDIA INTERNAL RDY/PARKING LOT #1,,40.773159,-73.875298,,,0,
1687,505254,ASTORIA BL S/STEINWAY ST,,40.768734,-73.91081199999999,,,0,
1688,803001,W 57 ST/8 AV,,40.766472,-73.982506,,,0,
1689,803002,SOUTH ST/WHITEHALL ST,,40.701611,-74.01223,,,0,
1690,803003,146 ST/LENOX AV,,40.82111,-73.935898,,,0,
1691,803007,W 58 ST/BROADWAY,,40.767154999999995,-73.98197900000001,,,0,
1692,803008,W 58 St/BROADWAY,,40.76709,-73.981842,,,0,
1693,803012,DELANCEY ST/ALLEN ST,,40.719147,-73.99063100000001,,,0,
1694,803013,11 AV/56 ST,,40.769135,-73.992363,,,0,
1695,803015, E HOUSTON ST/ELDERIDGE ST,,40.723,-73.989311,,,0,
1696,803016,2 AV/E 99 ST,,40.786282,-73.945709,,,0,
1697,803019,SOUTH ST/WHITEHALL ST,,40.701538,-74.01248199999999,,,0,
1698,803020,AMSTERDAM AV/193 ST,,40.855667,-73.925255,,,0,
1699,803021,HELL GATE Cir/Nr MANHATTAN PSYC CTR,,40.789497,-73.925591,,,0,
1700,803024,W 146 ST/MALCOLM X  BLVD,,40.821197999999995,-73.93611899999999,,,0,
1701,803026,SUNKEN GARDEN LOOP/CHARLES H GAY CTR,,40.785267,-73.930565,,,0,
1702,803027,Sunken Grd loop/Charles Gay Ctr 2,,40.786118,-73.931511,,,0,
1703,803028,HELL GATE CIRCLE/NR Tom CLARKE Bldg,,40.786003,-73.929115,,,0,
1704,803029,HELL GATE CIRCLE/Opp ODYSSEY House,,40.785069,-73.927071,,,0,
1705,803030,HELL GATE CIRCLE/FIELD 60/61,,40.785973,-73.925606,,,0,
1706,803034, SUNKEN GARDEN LOOP/Charles Gay CTR,,40.785109999999996,-73.930717,,,0,
1707,803054,E 126 ST/2 AV,,40.80315,-73.932266,,,0,
1708,803055,12 AV/42 ST,,40.76215,-74.001442,,,0,
1709,803056,W 66 ST/FREEDOM PL,,40.776489,-73.988724,,,0,
1710,803057,W 66 ST/WEST END AV,,40.775906,-73.986809,,,0,
1711,803058,E 72 ST/YORK AV,,40.76696,-73.95414,,,0,
1712,803059,PLEASANT AV/E 120 ST,,40.797615,-73.931007,,,0,
1713,803066,E 105 ST/FDR DR,,40.788216,-73.938423,,,0,
1714,803067,MARGARET CORBIN DR/CLOISTERS,,40.865646000000005,-73.93205999999999,,,0,
1715,803077,PARK ROW/WORTH ST,,40.71347,-73.998871,,,0,
1716,803078,CHRYSTIE ST/HOUSTON ST,,40.723438,-73.991226,,,0,
1717,803079,W 34 ST/HUDSON BL,,40.755367,-74.000854,,,0,
1718,803094,VESEY ST/NORTH END AV,,40.714531,-74.01535799999999,,,0,
1719,803098,8 AV/W 34 ST,,40.7523,-73.993248,,,0,
1720,803099,9 AV/W 42 ST,,40.758617,-73.992638,,,0,
1721,803104,west st/liberty st,,40.711037,-74.014061,,,0,
1722,803105,WARREN ST/CHURCH ST,,40.714233,-74.008255,,,0,
1723,803106,MURRAY ST/CHURCH ST,,40.714515999999996,-74.010223,,,0,
1724,803107,MURRAY ST/GREENWICH ST,,40.715042,-74.011505,,,0,
1725,803108,SOUTH END AV/ALBANY ST,,40.710278,-74.016205,,,0,
1726,803109,E HOUSTON ST/2 AVv,,40.723377,-73.99063100000001,,,0,
1727,803115,GRAND ST/FDR DR,,40.713347999999996,-73.977745,,,0,
1728,803117,E 57 ST/MADISON AV,,40.762383,-73.972427,,,0,
1729,803120,SOUTH FERRY/TERMINAL,,40.702121999999996,-74.013664,,,0,
1730,803121,SOUTH FERRY/TERMINAL,,40.702171,-74.013535,,,0,
1731,803130,W 34 ST/12 AV,,40.756671999999995,-74.004311,,,0,
1732,803131,W 34 ST/12 AV,,40.756535,-74.00394399999999,,,0,
1733,803144,W 41 ST/8 AV,,40.756409000000005,-73.98981500000001,,,0,
1734,803147,WARREN ST/GREENWICH ST,,40.715614,-74.01133,,,0,
1735,803150,11 AV/W 23 ST,,40.748257,-74.00743100000001,,,0,
1736,803151,49 ST/1 AV,,40.753417999999996,-73.966835,,,0,
1737,803153,E 126 ST/2 AV,,40.803875,-73.933876,,,0,
1738,803154,E 126 ST/2 AV,,40.803986,-73.934212,,,0,
1739,803156,BROADWAY / W 123 ST,,40.81221,-73.960594,,,0,
1740,803157,BROADWAY / W 135 ST,,40.819973,-73.955399,,,0,
1741,803158,LEXINGTON AV/E 64 ST,,40.765202,-73.96614100000001,,,0,
1742,803159,YORK AV/E 74 ST,,40.767990000000005,-73.952805,,,0,
1743,803160,AV OF THE AMERICAS/SPRING ST,,40.725273,-74.00398299999999,,,0,
1744,803161,AMSTERDAM AV/W 120 ST,,40.809532,-73.95919,,,0,
1745,803162,5 AV/EAST 81 ST,,40.778538,-73.962677,,,0,
1746,803163,LEXINGTON AV/E 52 ST,,40.757659999999994,-73.971657,,,0,
1747,803164,BATTERY PL/WASHINGTON ST,,40.704632000000004,-74.01557199999999,,,0,
1748,803165,MALCOLM X BL/W 124 ST,,40.807034,-73.94624300000001,,,0,
1749,803166,W 86 ST/BROADWAY,,40.788227,-73.976074,,,0,
1750,803177,AV D/LOOP,,40.724689,-73.974548,,,0,
1751,803180,E 96 ST/5 AV,,40.787659000000005,-73.955414,,,0,
1752,803182,2 AV/E 96 ST,,40.783901,-73.94747199999999,,,0,
1753,803184,STATE ST/WHITEHALL ST,,40.702419,-74.013046,,,0,
1754,803185,STATE ST/WHITEHALL ST,,40.70237,-74.013039,,,0,
1755,804103,T4/T4,,40.770247999999995,-73.880791,,,0,
1756,804109,sbs60-q48-geo,,40.772152,-73.872574,,,0,
1757,804110,LGA/TERMINAL B,,40.774059,-73.87185699999999,,,0,
1758,804118,LAGUARDIA INTERNAL RY/For GEO,,40.773331,-73.870644,,,0,
1759,804121,LaGUARDIA INTERNAL RDWY/term c loop,,40.771023,-73.86676800000001,,,0,
1760,804143,LAGUARDIA INTERNAL RY/term c loop,,40.771358,-73.86685899999999,,,0,
1761,804170,marine term rd/sbs60,,40.7687,-73.88646700000001,,,0,
1762,823252,LEWIS ST/Delancy (not used),,40.715466,-73.979118,,,0,
1763,903002,AV C/E 20 ST,,40.733006,-73.974594,,,0,
1764,903003,E 97 ST/1 AV,,40.784222,-73.94474,,,0,
1765,903004,W 96 ST/WEST END AV,,40.795105,-73.973091,,,0,
1766,903025,GRAND ST/FDR DR,,40.713356,-73.978279,,,0,
1767,903027,WATERSIDE/WATERSIDE,,40.737553000000005,-73.973846,,,0,
1768,903028,FERRY TERMINAL/FDR DR,,40.743137,-73.97206899999999,,,0,
1769,903030,WEST ST/CHRISTOPHER ST,,40.732494,-74.010132,,,0,
1770,903042,3 AV /E 125 ST,,40.804268,-73.935303,,,0,
1771,903046,E 41 ST/1 AV,,40.748005,-73.969803,,,0,
1772,903048,E 8 ST/LAFAYETTE ST,,40.730038,-73.99131,,,0,
1773,903049,168 ST/AUDUBON AV,,40.840645,-73.93854499999999,,,0,
1774,903054,MADISON ST/ST JAMES PL,,40.711884000000005,-73.99942800000001,,,0,
1775,903063,8 AV/JANE ST,,40.738014,-74.004181,,,0,
1776,903074,W 54 ST/11 AV,,40.768192,-73.99254599999999,,,0,
1777,903075,LEXINGTON AV/E 125 ST,,40.804764,-73.937248,,,0,
1778,903076,11 AV/W 54 ST,,40.768229999999996,-73.993011,,,0,
1779,903078,W 43 ST/9 AV,,40.75877,-73.991173,,,0,
1780,903079,SPRING ST/GREENWICH ST,,40.725947999999995,-74.00943000000001,,,0,
1781,903080,1 AV/E 26 ST,,40.738625,-73.977112,,,0,
1782,903082,12 AV/W 42 ST,,40.76255,-74.000969,,,0,
1783,903084,12 AV/W 42 ST,,40.762238,-74.000977,,,0,
1784,903085,W 32 ST/7 AV,,40.749435,-73.99108100000001,,,0,
1785,903086,W 18 ST/11 AV,,40.745064,-74.007675,,,0,
1786,903087,11 AV/W 50 ST,,40.765987,-73.994644,,,0,
1787,903088,DELANCY ST/COLUMBIA ST,,40.716393,-73.980133,,,0,
1788,903089,AMSTERDAM AV/W 129 ST,,40.814907,-73.955048,,,0,
1789,903092,BROADWAY/W 133 ST,,40.818256,-73.956108,,,0,
1790,903093,1 AV/E 1 ST,,40.72401,-73.987801,,,0,
1791,903094,E 60 ST/YORK AV,,40.759518,-73.95989200000001,,,0,
1792,903102,1 AV/ E 97 ST,,40.784679,-73.943535,,,0,
1793,903103,2 AV/E 100 ST,,40.786915,-73.94524399999999,,,0,
1794,903105,LEXINGTON AV/E 68 ST,,40.767746,-73.964256,,,0,
1795,903106,11 AV/W 47 ST,,40.764107,-73.99601,,,0,
1796,903107,11 AV/W 44 ST,,40.762001,-73.997589,,,0,
1797,903110,11 AV/W 38 ST,,40.758109999999995,-74.000381,,,0,
1798,903125,1 AV/E 23 ST,,40.736655999999996,-73.97863000000001,,,0,
1799,903133,11 AV/W 29 ST,,40.752765999999994,-74.004288,,,0,
1800,903134,11 AV/W 26 ST,,40.750896000000004,-74.005638,,,0,
1801,903145,PARK ROW/BEEKMAN ST,,40.711777000000005,-74.006729,,,0,
1802,903146,PARK ROW/BEEKMAN ST,,40.711746000000005,-74.007378,,,0,
1803,903147,ASTOR PL/3 AV,,40.729568,-73.990051,,,0,
1804,903148,3 AV/ASTOR PL,,40.729115,-73.990257,,,0,
1805,903161,12 AV/W 27 ST,,40.75222,-74.007622,,,0,
1806,903162,11 AV/W 19 ST,,40.745983,-74.00795,,,0,
1807,903164,11 AV/W 17 ST,,40.744816,-74.008133,,,0,
1808,903169,central park south/7 Av (does not stop),,40.766678000000006,-73.979515,,,0,
1809,903176,AV OF THE AMERICAS/W 14 ST,,40.737411,-73.996696,,,0,
1810,903184,8 AV/JANE ST,,40.738239,-74.003967,,,0,
1811,903195,12 AV/W 54 ST,,40.76939,-73.994804,,,0,
1812,903196,2 AV/E 94 ST,,40.782803,-73.948273,,,0,
1813,903198,12 AV/W 40 ST,,40.760822,-74.002052,,,0,
1814,903199,12 AV/W 33 ST,,40.756462,-74.00522600000001,,,0,
1815,903200,12 AV/W 30 ST,,40.754898,-74.006348,,,0,
1816,903206,12 AV/W 56 ST,,40.771137,-73.993965,,,0,
1817,903207,11 AV/W 42 ST,,40.760661999999996,-73.998535,,,0,
1818,903209,Columbus Circle (does not stop),,40.768242,-73.98129300000001,,,0,
1819,903210,RIVERBANK ST PARK/BAY 1,,40.826756,-73.955421,,,0,
1820,903214,12 AV/W 52 ST,,40.768124,-73.99569699999999,,,0,
1821,903217,7 AV/W 36 ST,,40.752410999999995,-73.989731,,,0,
1822,903218,W 72 ST/AMSTERDAM AV (M5 - does not stop),,40.778713,-73.98176600000001,,,0,
1823,903219,FT GEORGE AV/66 FT GEORGE AV,,40.858093,-73.925537,,,0,
1824,903226,1 AV/E 20 ST (M23 non-stop),,40.735352,-73.979568,,,0,
1825,903228,CPW/110ST (not used),,40.800831,-73.95832800000001,,,0,
1826,903229,BROADWAY/W 131 ST,,40.81728,-73.956909,,,0,
1827,903230,BROADWAY/W 133 ST,,40.818443,-73.956512,,,0,
1828,903231,W 178 ST/BROADWAY (M5 last stop),,40.848263,-73.937454,,,0,
1829,903232,10 AV/W15 (does not stop),,40.743057,-74.008064,,,0,
1830,903233,COL CIR (Time Warner) does not stop,,40.768059,-73.982529,,,0,
1831,903234,W 58 ST/BROADWAY (does not stop),,40.767494,-73.98175,,,0,
1832,903235,W 37 ST/BROADWAY,,40.752178,-73.98738900000001,,,0,
1833,903236,BROADWAY / W 135 ST,,40.820644,-73.954491,,,0,
1834,903237,11 AV / W 17 ST,,40.744415000000004,-74.00814799999999,,,0,
1835,904046,lga/circle,,40.770740999999994,-73.86792,,,0,
1836,904077,T7/T7,,40.768147,-73.88475,,,0,
1837,904167,Ditmars bl/100 st,,40.770579999999995,-73.87104000000001,,,0,
1838,904199,LGA/TERMINAL D(Drop off only),,40.768074,-73.862091,,,0,
1839,904200,LGA M60 E.B. (does not stop),,40.767445,-73.863449,,,0,
1840,904201,LGA-SBS60 W.B. (does not stop),,40.769554,-73.88195,,,0,
1841,904918,EAST 92 ST/YORK AV,,40.779841999999995,-73.94480899999999,,,0,
1842,904920,PIKE ST/CHERRY ST,,40.710823,-73.99192,,,0,
