,stop_id,stop_name,stop_desc,stop_lat,stop_lon,zone_id,stop_url,location_type,parent_station
0,200001,GOETHALS RD N/ADMIN PARKING LOT,,40.629345,-74.1838,,,0,
1,200008,RICHMOND TER/SOUTH AV,,40.64011,-74.165756,,,0,
2,200009,RICHMOND TER/POST LA,,40.639542,-74.164413,,,0,
3,200010,RICHMOND TER/ANDROS AV,,40.637909,-74.162086,,,0,
4,200011,RICHMOND TER/HARBOR RD,,40.636990000000004,-74.159935,,,0,
5,200013,RICHMOND TER/VAN PELT AV,,40.636749,-74.154884,,,0,
6,200014,RICHMOND TER/DAVIS AV,,40.644711,-74.110733,,,0,
7,200015,RICHMOND TER/LAKE AV,,40.637015999999996,-74.1502,,,0,
8,200016,RICHMOND TER/HOUSEMAN AV,,40.637271999999996,-74.14872,,,0,
9,200017,RICHMOND TER/GRANITE AV,,40.637569,-74.146751,,,0,
10,200018,RICHMOND TER/MORNINGSTAR RD,,40.637856,-74.14492800000001,,,0,
11,200019,RICHMOND TER/JOHN ST,,40.638954,-74.14235699999999,,,0,
12,200020,RICHMOND TER/NICHOLAS AV,,40.639618,-74.13938900000001,,,0,
13,200021,RICHMOND TER/SHARPE AV,,40.640133,-74.136787,,,0,
14,200022,RICHMOND TER/FABER ST,,40.640223999999996,-74.134743,,,0,
15,200023,RICHMOND TER/MAPLE AV,,40.64027,-74.133301,,,0,
16,200025,RICHMOND TER/HEBERTON AV,,40.638977000000004,-74.12944,,,0,
17,200026,RICHMOND TER/JEWETT AV,,40.63765,-74.128853,,,0,
18,200027,RICHMOND TER/RECTOR ST,,40.637188,-74.127388,,,0,
19,200028,RICHMOND TER/BODINE ST,,40.637142,-74.125854,,,0,
20,200029,RICHMOND TER/TAYLOR ST,,40.637772,-74.123611,,,0,
21,200030,RICHMOND TER/ALASKA ST,,40.638977000000004,-74.121849,,,0,
22,200031,RICHMOND TER/TOMPKINS CT,,40.640152,-74.12069699999999,,,0,
23,200032,RICHMOND TER/BROADWAY,,40.640701,-74.117195,,,0,
24,200033,RICHMOND TER/N BURGHER AV,,40.641785,-74.115501,,,0,
25,200034,RICHMOND TER/BEMENT AV,,40.642715,-74.11395999999999,,,0,
26,200035,RICHMOND TER/DAVIS AV,,40.644474,-74.110947,,,0,
27,200036,RICHMOND TER/BARD AV,,40.645,-74.108871,,,0,
28,200037,RICHMOND TER/SAILORS S H GATE,,40.645035,-74.101929,,,0,
29,200038,RICHMOND TER/CLINTON AV,,40.644604,-74.098129,,,0,
30,200040,RICHMOND TER/FRANKLIN AV,,40.64539,-74.092949,,,0,
31,200041,RICHMOND TER/JERSEY ST,,40.646854,-74.088539,,,0,
32,200042,RICHMOND TER/WESTERVELT AV,,40.647758,-74.086967,,,0,
33,200043,RICHMOND TER/ST PETERS PL,,40.648029,-74.084236,,,0,
34,200044,RICHMOND TER/NICHOLAS ST,,40.647293,-74.081123,,,0,
35,200045,RICHMOND TER/STUYVESANT PL,,40.646029999999996,-74.07839200000001,,,0,
36,200046,RICHMOND TER/WALL ST,,40.644034999999995,-74.076683,,,0,
37,200047,RICHMOND TER/SCHUYLER ST,,40.643139,-74.076004,,,0,
38,200050,RICHMOND TER/WALL ST,,40.644787,-74.07695,,,0,
39,200051,RICHMOND TER/STUYVESANT PL,,40.646381,-74.07839200000001,,,0,
40,200052,RICHMOND TER/NICHOLAS ST,,40.647438,-74.08075,,,0,
41,200053,RICHMOND TER/ST PETERS PL,,40.648422,-74.084579,,,0,
42,200054,RICHMOND TER/WESTERVELT AV,,40.647396,-74.087852,,,0,
43,200055,RICHMOND TER/JERSEY ST,,40.646622,-74.089233,,,0,
44,200056,RICHMOND TER/FRANKLIN AV,,40.645588000000004,-74.092766,,,0,
45,200057,RICHMOND TER/LAFAYETTE AV,,40.644821,-74.09644300000001,,,0,
46,200058,RICHMOND TER/CLINTON AV,,40.644714,-74.098404,,,0,
47,200062,RICHMOND TER/BEMENT AV,,40.642807,-74.114182,,,0,
48,200063,RICHMOND TER/N BURGHER AV,,40.641453000000006,-74.116264,,,0,
49,200064,RICHMOND TER/BROADWAY,,40.640636,-74.11795,,,0,
50,200065,RICHMOND TER/TOMPKINS CT,,40.64056,-74.12059,,,0,
51,200066,RICHMOND TER/ALASKA ST,,40.638923999999996,-74.12224599999999,,,0,
52,200069,RICHMOND TER/CLOVE RD,,40.637257,-74.126701,,,0,
53,200070,RICHMOND TER/JEWETT AV,,40.637707,-74.128647,,,0,
54,200072,RICHMOND TER/PARK AV,,40.64027,-74.130783,,,0,
55,200073,RICHMOND TER/NORTH ST,,40.640324,-74.13488000000001,,,0,
56,200074,RICHMOND TER/SHARPE AV,,40.640278,-74.136551,,,0,
57,200075,RICHMOND TER/NICHOLAS AV,,40.639790000000005,-74.139595,,,0,
58,200076,RICHMOND TER/JOHN ST,,40.639010999999996,-74.14256999999999,,,0,
59,200077,RICHMOND TER/MORNINGSTAR RD,,40.637985,-74.14475999999999,,,0,
60,200078,RICHMOND TER/GRANITE AV,,40.637634000000006,-74.14696500000001,,,0,
61,200079,RICHMOND TER/HOUSEMAN AV,,40.637405,-74.148476,,,0,
62,200080,RICHMOND TER/SIMONSON AV,,40.637039,-74.151108,,,0,
63,200081,RICHMOND TER/VAN NAME AV,,40.636917,-74.15280899999999,,,0,
64,200082,RICHMOND TER/VAN PELT AV,,40.636837,-74.154671,,,0,
65,200083,RICHMOND TER/UNION AV,,40.636864,-74.157715,,,0,
66,200084,RICHMOND TER/HARBOR RD,,40.637146,-74.160065,,,0,
67,200085,RICHMOND TER/ANDROS AV,,40.638275,-74.162529,,,0,
68,200086,RICHMOND TER/GRANDVIEW AV,,40.639812,-74.164742,,,0,
69,200097,MIDLAND AV/KISWICK ST,,40.574028000000006,-74.09644300000001,,,0,
70,200099,MIDLAND AV/FREEBORN ST,,40.572762,-74.09407,,,0,
71,200102,FR CAPODANNO BL/HUNTER AV,,40.572971,-74.087723,,,0,
72,200104,FR CAPODANNO BL/SIOUX ST,,40.575138,-74.08384699999999,,,0,
73,200105,FR CAPODANNO BL/SLATER BL,,40.576412,-74.081665,,,0,
74,200107,FR CAPODANNO BL/BUEL AV,,40.578049,-74.07914699999999,,,0,
75,200110,FR CAPODANNO BL/ALTER AV,,40.581379,-74.07530200000001,,,0,
76,200111,FR CAPODANNO BL/DELAWARE AV,,40.582203,-74.074524,,,0,
77,200113,FR CAPODANNO BL/BURGHER AV,,40.58358,-74.073128,,,0,
78,200114,FR CAPODANNO BL/EVERGREEN AV,,40.584103000000006,-74.072609,,,0,
79,200115,FR CAPODANNO BL/SAND LA,,40.590435,-74.066437,,,0,
80,200119,OLYMPIA BL/BIONIA AV,,40.592464,-74.072624,,,0,
81,200120,OLYMPIA BL/KENSINGTON ST,,40.591373,-74.074577,,,0,
82,200121,OLYMPIA BL/NORWAY AV,,40.590603,-74.076607,,,0,
83,200122,NORWAY AV/FOCH AV,,40.592285,-74.077736,,,0,
84,200123,NORWAY AV/MC CLEAN AV,,40.593734999999995,-74.07866700000001,,,0,
85,200124,MC CLEAN AV/LAMPORT BL,,40.594345000000004,-74.077492,,,0,
86,200125,MC CLEAN AV/KENSINGTON AV,,40.594883,-74.075882,,,0,
87,200126,MC CLEAN AV/BIONIA AV,,40.595432,-74.074188,,,0,
88,200127,MC CLEAN AV/LINWOOD AV,,40.595943,-74.072746,,,0,
89,200128,MC CLEAN AV/SAND LA,,40.596786,-74.070099,,,0,
90,200129,MC CLEAN AV/MILLS AV,,40.59721,-74.068748,,,0,
91,200131,MC CLEAN AV/OCEAN AV,,40.598526,-74.064812,,,0,
92,200132,LILY POND AV/MC CLEAN AV,,40.599154999999996,-74.063835,,,0,
93,200135,SCHOOL RD/TOMPKINS AV,,40.605125,-74.065071,,,0,
94,200136,SCHOOL RD/D TORRECELLI ST,,40.606007,-74.063171,,,0,
95,200137,BAY ST/SEA GATE RD,,40.607704,-74.061256,,,0,
96,200139,BAY ST/NEW LA,,40.611504,-74.064133,,,0,
97,200140,BAY ST/HYLAN BL,,40.613997999999995,-74.065903,,,0,
98,200142,BAY ST/LYNHURST AV,,40.618443,-74.069244,,,0,
99,200144,BAY ST/TOWNSEND AV,,40.621414,-74.071617,,,0,
100,200145,BAY ST/VANDERBILT AV,,40.622859999999996,-74.072746,,,0,
101,200146,BAY ST/THOMPSON ST,,40.625908,-74.075119,,,0,
102,200147,BAY ST/WATER ST,,40.627083,-74.07582099999999,,,0,
103,200148,BAY ST/PROSPECT ST,,40.628479,-74.076385,,,0,
104,200149,BAY ST/WAVE ST,,40.629791,-74.076622,,,0,
105,200151,BAY ST/GRANT ST,,40.633278000000004,-74.07513399999999,,,0,
106,200152,BAY ST/HANNAH ST,,40.635887,-74.075638,,,0,
107,200153,BAY ST/VICTORY BL,,40.63752,-74.075958,,,0,
108,200154,BAY ST/SLOSSON TE,,40.6395,-74.075424,,,0,
109,200157,MIDLAND AV/RICHMOND RD,,40.581974,-74.109993,,,0,
110,200159,MIDLAND AV/CLAWSON ST,,40.578765999999995,-74.103996,,,0,
111,200160,MIDLAND AV/EDISON ST,,40.579601000000004,-74.10554499999999,,,0,
112,200161,MIDLAND AV/HYLAN BL,,40.577698,-74.10198199999999,,,0,
113,200163,FR CAPODANNO BL/DOTY AV,,40.592377,-74.06398,,,0,
114,200165,FR CAPODANNO BL/OCEAN AV,,40.595046999999994,-74.06280500000001,,,0,
115,200166,FR CAPODANNO BL/OCEAN AV,,40.596958,-74.062027,,,0,
116,200170,LILY POND AV/MC CLEAN AV,,40.598595,-74.06366700000001,,,0,
117,200171,FR CAPODANNO BL/ROBIN RD,,40.595703,-74.062607,,,0,
118,200173,FR CAPODANNO BL/DOTY AV,,40.592148,-74.064667,,,0,
119,200176,BAY ST/NICK LAPORTE PL,,40.641872,-74.075699,,,0,
120,200177,BAY ST/CENTRAL AV,,40.638756,-74.075867,,,0,
121,200178,BAY ST/VICTORY BL,,40.63752,-74.076202,,,0,
122,200180,BAY ST/GRANT ST,,40.632903999999996,-74.07558399999999,,,0,
123,200181,BAY ST/WILLIAM ST,,40.630615,-74.076714,,,0,
124,200183,BAY ST/PROSPECT ST,,40.628616,-74.076553,,,0,
125,200184,BAY ST/WATER ST,,40.626765999999996,-74.07579,,,0,
126,200185,BAY ST/BROAD ST,,40.625755,-74.07518,,,0,
127,200187,BAY ST/VANDERBILT AV,,40.622173,-74.072411,,,0,
128,200188,BAY ST/TOWNSEND AV,,40.621196999999995,-74.07164,,,0,
129,200189,BAY ST/EDGEWATER ST,,40.620155,-74.070847,,,0,
130,200190,BAY ST/WILLOW AV,,40.618717,-74.069633,,,0,
131,200191,BAY ST/CHESTNUT AV,,40.617252,-74.068565,,,0,
132,200192,BAY ST/ST MARYS AV,,40.61602,-74.067657,,,0,
133,200193,BAY ST/HYLAN BL,,40.613789000000004,-74.06600999999999,,,0,
134,200194,BAY ST/ST JOHNS AV,,40.611923,-74.06462900000001,,,0,
135,200195,BAY ST/FINGERBOARD RD,,40.609066,-74.062523,,,0,
136,200196,BAY ST/LYMAN AV,,40.607471000000004,-74.061348,,,0,
137,200197,SCHOOL RD/DENNIS TORRICELLI ST,,40.605839,-74.063965,,,0,
138,200198,SCHOOL RD/TOMPKINS AV,,40.604935,-74.065605,,,0,
139,200200,LILY POND AV/MAJOR AV,,40.600266,-74.064789,,,0,
140,200201,MC CLEAN AV/LILY POND AV,,40.598843,-74.064217,,,0,
141,200202,CLOVE RD/CLOVE LAKE PARK,,40.619282,-74.10650600000001,,,0,
142,200203,MC CLEAN AV/MILLS AV,,40.597256,-74.06903100000001,,,0,
143,200204,SAND LA/McCLEAN AV,,40.596809,-74.070572,,,0,
144,200206,MC CLEAN AV/HICKORY AV,,40.595585,-74.074127,,,0,
145,200207,MC CLEAN AV/JEROME AV,,40.595039,-74.075783,,,0,
146,200210,NORWAY AV/OLYMPIA BL,,40.590828,-74.076965,,,0,
147,200211,OLYMPIA BL/MCLAUGHLIN ST,,40.591595,-74.073883,,,0,
148,200218,FR CAPODANNO BL/BURGHER AV,,40.583702,-74.07328000000001,,,0,
149,200219,FR CAPODANNO BL/ATLANTIC AV,,40.583065000000005,-74.073944,,,0,
150,200220,FR CAPODANNO BL/DELAWARE AV,,40.582316999999996,-74.07470699999999,,,0,
151,200223,FR CAPADONNO BL/SEAVIEW AV,,40.579468,-74.07770500000001,,,0,
152,200224,FR CAPODANNO BL/BUEL AV,,40.57803,-74.079247,,,0,
153,200225,FR CAPODANNO BL/NAUGHTON AV,,40.576996,-74.081032,,,0,
154,200226,FR CAPODANNO BL/SLATER BL,,40.576309,-74.082329,,,0,
155,200228,FR CAPODANNO BL/JEFFERSON AV,,40.574017,-74.08626600000001,,,0,
156,200233,MIDLAND AV/FREEBORN ST,,40.572987,-74.094215,,,0,
157,200234,MIDLAND AV/MORELAND ST,,40.574688,-74.09729,,,0,
158,200235,MIDLAND AV/MASON AV,,40.575480999999996,-74.098602,,,0,
159,200236,MIDLAND AV/BOUNDARY AV,,40.577042,-74.100761,,,0,
160,200237,HYLAN BL/MIDLAND AV,,40.577740000000006,-74.102676,,,0,
161,200238,LINCOLN AV/GRANT PL,,40.577099,-74.104736,,,0,
162,200240,LINCOLN AV/S RAILROAD AV,,40.579556,-74.10883299999999,,,0,
163,200242,LINCOLN AV/RICHMOND RD,,40.581245,-74.111992,,,0,
164,200244,GRANDVIEW AV/BRABANT ST,,40.632008,-74.16516899999999,,,0,
165,200245,BRABANT ST/LOCKMAN AV,,40.631561,-74.161324,,,0,
166,200246,BRABANT ST/UNION AV,,40.631329,-74.158333,,,0,
167,200247,WALLOON ST/MAPLE PY,,40.632412,-74.156601,,,0,
168,200248,DE RUYTER PL/VAN PELT AV,,40.631207,-74.155495,,,0,
169,200249,WALKER ST/VAN NAME AV,,40.631863,-74.15383100000001,,,0,
170,200250,WALKER ST/SIMONSON AV,,40.631687,-74.151794,,,0,
171,200251,WALKER ST/MORNINGSTAR RD,,40.631088,-74.147141,,,0,
172,200252,MORNINGSTAR RD/KALVER PL,,40.632599,-74.146286,,,0,
173,200254,INNIS ST/JOHN ST,,40.633949,-74.143829,,,0,
174,200255,INNIS ST/NICHOLAS AV,,40.633423,-74.141754,,,0,
175,200256,NICHOLAS AV/CHARLES AV,,40.634979,-74.140648,,,0,
176,200257,NICHOLAS AV/CASTLETON AV,,40.636066,-74.140182,,,0,
177,200259,CASTLETON AV/HEBERTON AV,,40.634995,-74.13282,,,0,
178,200260,CASTLETON AV/PORT RICHMOND AV,,40.635937,-74.135063,,,0,
179,200261,CASTLETON AV/JEWETT AV,,40.63364,-74.129646,,,0,
180,200263,CASTLETON AV/TAYLOR ST,,40.634048,-74.122726,,,0,
181,200264,CASTLETON AV/ELIZABETH ST,,40.634232,-74.12026999999999,,,0,
182,200265,CASTLETON AV/CAROLINE ST,,40.634335,-74.118988,,,0,
183,200266,CASTLETON AV/BROADWAY,,40.634499,-74.117325,,,0,
184,200267,CASTLETON AV/N BURGHER AV,,40.634708,-74.114632,,,0,
185,200268,CASTLETON AV/BEMENT AV,,40.634696999999996,-74.112427,,,0,
186,200269,CASTLETON AV/OAKLAND AV,,40.634678,-74.11083199999999,,,0,
187,200270,CASTLETON AV/DAVIS AV,,40.634646999999994,-74.108528,,,0,
188,200271,CASTLETON AV/BARD AV,,40.634644,-74.106163,,,0,
189,200272,CASTLETON AV/KISSEL AV,,40.634636,-74.104698,,,0,
190,200273,CASTLETON AV/HUNTER PL,,40.634464,-74.101791,,,0,
191,200274,CASTLETON AV/RANDALL AV,,40.633976000000004,-74.09906,,,0,
192,200275,CASTLETON AV/BRIGHTON AV,,40.633922999999996,-74.09774,,,0,
193,200276,CASTLETON AV/HAVENWOOD RD,,40.633114,-74.095772,,,0,
194,200278,CASTLETON AV/WOODSTOCK AV,,40.632641,-74.090088,,,0,
195,200279,CASTLETON AV/WEBSTER AV,,40.634254,-74.087654,,,0,
196,200280,CASTLETON AV/CEBRA AV,,40.634705,-74.08645600000001,,,0,
197,200281,CASTLETON AV/JERSEY ST,,40.636097,-74.085228,,,0,
198,200284,VICTORY BL/VAN DUZER ST,,40.638145,-74.078239,,,0,
199,200285,BAY ST/VICTORY BL,,40.637543,-74.075897,,,0,
200,200292,VICTORY BL/BAY ST,,40.637833,-74.07674399999999,,,0,
201,200293,VICTORY BL/MONTGOMERY AV,,40.638081,-74.077682,,,0,
202,200297,CASTLETON AV/CEBRA AV,,40.634636,-74.086739,,,0,
203,200298,CASTLETON AV/GLEN AV,,40.633091,-74.089989,,,0,
204,200299,CASTLETON AV/HARBOR VIEW CT,,40.633415,-74.092178,,,0,
205,200300,CASTLETON AV/HAVENWOOD RD,,40.633236,-74.095413,,,0,
206,200301,CASTLETON AV/BRIGHTON AV,,40.634045,-74.097664,,,0,
207,200302,CASTLETON AV/N RANDALL AV,,40.634228,-74.099762,,,0,
208,200303,CASTLETON AV/CONYINGHAM AV,,40.634644,-74.102074,,,0,
209,200304,CASTLETON AV/KISSEL AV,,40.634762,-74.105026,,,0,
210,200306,CASTLETON AV/BARD AV,,40.634803999999995,-74.10629300000001,,,0,
211,200307,CASTLETON AV/DAVIS AV,,40.634777,-74.108559,,,0,
212,200308,CASTLETON AV/BEMENT AV,,40.634792,-74.111839,,,0,
213,200309,CASTLETON AV/N BURGHER AV,,40.634811,-74.11440999999999,,,0,
214,200310,CASTLETON AV/BROADWAY,,40.634598,-74.117661,,,0,
215,200311,CASTLETON AV/CAROLINE ST,,40.634487,-74.11927800000001,,,0,
216,200312,CASTLETON AV/BARKER ST,,40.634239,-74.121613,,,0,
217,200313,CASTLETON AV/TAYLOR ST,,40.634106,-74.12344399999999,,,0,
218,200314,CASTLETON AV/CLOVE RD,,40.633919,-74.125847,,,0,
219,200315,CASTLETON AV/JEWETT AV,,40.63385,-74.129761,,,0,
220,200316,CASTLETON AV/HEBERTON AV,,40.63501,-74.132408,,,0,
221,200317,CASTLETON AV/PORT RICHMOND AV,,40.636051,-74.134819,,,0,
222,200318,CASTLETON AV/SHARPE AV,,40.636162,-74.137703,,,0,
223,200319,CASTLETON AV/NICHOLAS AV,,40.636238,-74.139946,,,0,
224,200320,NICHOLAS AV/CHARLES AV,,40.6353,-74.140701,,,0,
225,200322,INNIS ST/ST JOSEPH AV,,40.633781,-74.14254,,,0,
226,200323,INNIS ST/EATON PL,,40.634502000000005,-74.144638,,,0,
227,200327,WALKER ST/PULASKI AV,,40.63147,-74.148201,,,0,
228,200329,WALKER ST/SIMONSON AV,,40.631931,-74.152588,,,0,
229,200330,WALKER ST/VAN PELT AV,,40.632111,-74.155022,,,0,
230,200331,LINDEN AV/VAN PELT AV,,40.633873,-74.155556,,,0,
231,200332,MAPLE PY/WALLOON ST,,40.632725,-74.156616,,,0,
232,200333,UNION AV/BRABANT ST,,40.631653,-74.158302,,,0,
233,200334,BRABANT ST/LOCKMAN AV,,40.631737,-74.162109,,,0,
234,200335,BRABANT ST/GRANDVIEW AV,,40.632202,-74.16508499999999,,,0,
235,200340,RICHMOND RD/ENFIELD PL,,40.576202,-74.12606,,,0,
236,200341,RICHMOND RD/MC CULLY AV,,40.574684000000005,-74.12957,,,0,
237,200342,RICHMOND RD/HITCHCOCK AV,,40.574024,-74.131294,,,0,
238,200343,RICHMOND RD/WILDER AV,,40.573196,-74.134987,,,0,
239,200350,ARTHUR KILL RD/CENTER ST,,40.571815,-74.147224,,,0,
240,200357,GIFFORDS LA/BARLOW AV,,40.559074,-74.15385400000001,,,0,
241,200358,GIFFORDS LA/LEVERETTE AV,,40.557034,-74.152946,,,0,
242,200359,GIFFORDS LA/WOODLAND AV,,40.555302000000005,-74.152176,,,0,
243,200361,NELSON AV/AMBOY RD,,40.550036999999996,-74.150986,,,0,
244,200362,NELSON AV/BELDEN ST,,40.547199,-74.149918,,,0,
245,200363,NELSON AV/HILLCREST ST,,40.544922,-74.148605,,,0,
246,200364,NELSON AV/DRIGGS ST,,40.543518,-74.14768199999999,,,0,
247,200367,HYLAN BL/OSBORNE AV,,40.539684,-74.14850600000001,,,0,
248,200368,HYLAN BL/ARMSTRONG AV,,40.537521000000005,-74.150391,,,0,
249,200371,RICHMOND AV/HYLAN BL,,40.534569,-74.154335,,,0,
250,200372,RICHMOND AV/KING ST,,40.535579999999996,-74.156181,,,0,
251,200374,RICHMOND AV/SYCAMORE ST,,40.540195000000004,-74.161186,,,0,
252,200375,RICHMOND AV/OAKDALE ST,,40.541832,-74.16272,,,0,
253,200377,RICHMOND AV/ELTINGVILLE BL,,40.544189,-74.16503900000001,,,0,
254,200378,RICHMOND AV/WILSON AV,,40.545738,-74.16573299999999,,,0,
255,200379,RICHMOND AV/BARTLETT AV,,40.547585,-74.166451,,,0,
256,200380,RICHMOND AV/MEMPHIS AV,,40.549507,-74.167229,,,0,
257,200381,RICHMOND AV/KATAN AV,,40.550877,-74.167542,,,0,
258,200382,RICHMOND AV/GENESEE AV,,40.552799,-74.167961,,,0,
259,200383,RICHMOND AV/LEVERETT AV,,40.555256,-74.16851,,,0,
260,200384,RICHMOND AV/BARLOW AV,,40.557308,-74.168968,,,0,
261,200385,RICHMOND AV/GURLEY AV,,40.559025,-74.16935,,,0,
262,200386,ELTINGVILLE/TRANSIT CENTER,,40.561035,-74.1707,,,0,
263,200387,YUKON AV/WATCHMANS OFFICE,,40.574886,-74.165154,,,0,
264,200388,YUKON AV/KMART DWY,,40.575634,-74.166733,,,0,
265,200389,YUKON AV/RICHMOND AV,,40.576977,-74.169411,,,0,
266,200391,RING RD/MACYS PLATINUM AV,,40.585079,-74.166664,,,0,
267,200392,RICHMOND AV/RICHMOND HILL RD,,40.589016,-74.167397,,,0,
268,200393,RICHMOND AV/NOME AV,,40.590878000000004,-74.165352,,,0,
269,200394,RICHMOND AV/DRAPER PL S,,40.592571,-74.163025,,,0,
270,200395,RICHMOND AV/ROCKLAND AV,,40.595631,-74.161835,,,0,
271,200397,RICHMOND AV/AMSTERDAM PL,,40.600838,-74.162933,,,0,
272,200399,RICHMOND AV/ETON PL,,40.604488,-74.162308,,,0,
273,200400,RICHMOND AV/VICTORY BL,,40.607535999999996,-74.162315,,,0,
274,200401,RICHMOND AV/MORANI ST,,40.610073,-74.160126,,,0,
275,200403,RICHMOND AV/W CASWELL AV,,40.6166,-74.156448,,,0,
276,200406,RICHMOND AV/VEDDER AV,,40.62262,-74.149612,,,0,
277,200407,FOREST AV/RICHMOND AV,,40.624966,-74.148422,,,0,
278,200408,FOREST AV/WILLOWBROOK RD,,40.624809,-74.144669,,,0,
279,200409,PORT RICHMOND AV/SMITH PL,,40.626461,-74.142471,,,0,
280,200410,PORT RICHMOND AV/ORANGE AV,,40.628368,-74.141823,,,0,
281,200411,PORT RICHMOND AV/BEEKMAN ST,,40.62936,-74.1408,,,0,
282,200412,PORT RICHMOND AV/CATHERINE ST,,40.630417,-74.139534,,,0,
283,200413,PORT RICHMOND AV/HOMESTEAD AV,,40.631648999999996,-74.138153,,,0,
284,200414,PORT RICHMOND AV/HATFIELD PL,,40.632877,-74.136848,,,0,
285,200416,PORT RICHMOND AV/HARRISON AV,,40.636596999999995,-74.134224,,,0,
286,200417,PORT RICHMOND AV/BENNETT ST,,40.638382,-74.13290400000001,,,0,
287,200426,PORT RICHMOND AV/ANN ST,,40.638744,-74.13295699999999,,,0,
288,200427,PORT RICHMOND AV/HARRISON AV,,40.636459,-74.134659,,,0,
289,200428,PORT RICHMOND AV/CHARLES AV,,40.634724,-74.135773,,,0,
290,200430,PORT RICHMOND AV/BLACKFORD AV,,40.631527,-74.138634,,,0,
291,200432,PORT RICHMOND AV/ORANGE AV,,40.628634999999996,-74.141869,,,0,
292,200434,FOREST AV/RICHMOND AV,,40.625217,-74.148987,,,0,
293,200437,RICHMOND AV/VEDDER AV,,40.622271999999995,-74.15038299999999,,,0,
294,200438,RICHMOND AV/BARON HIRSCH CEM,,40.620197,-74.153351,,,0,
295,200439,RICHMOND AV/JULES DR,,40.61829,-74.155594,,,0,
296,200440,RICHMOND AV/GOETHALS RD N,,40.616463,-74.156868,,,0,
297,200441,RICHMOND AV/LAMBERTS LA,,40.614596999999996,-74.157669,,,0,
298,200442,RICHMOND AV/LANDER AV,,40.612854,-74.15907299999999,,,0,
299,200443,RICHMOND AV/MERRILL AV,,40.609947,-74.160461,,,0,
300,200444,RICHMOND AV/VICTORY BL,,40.607018,-74.162483,,,0,
301,200446,RICHMOND AV/CARNEGIE AV,,40.604103,-74.162727,,,0,
302,200447,RICHMOND AV/SIGNS RD,,40.601349,-74.163383,,,0,
303,200450,RICHMOND AV/DRAPER PL,,40.595181,-74.161987,,,0,
304,200451,RICHMOND AV/TRAVIS AV,,40.593113,-74.162735,,,0,
305,200452,RICHMOND AV/NOME AV,,40.590571999999995,-74.166191,,,0,
306,200453,RICHMOND AV/RICHMOND HILL RD,,40.588654,-74.168144,,,0,
307,200454,RING RD/MACYS PLATINUM AV,,40.584949,-74.166916,,,0,
308,200455,RING RD/SEARS PLATINUM AV,,40.57996,-74.168526,,,0,
309,200456,YUKON AV/RICHMOND AV,,40.576622,-74.169037,,,0,
310,200457,YUKON AV/KMART DWY,,40.575645,-74.167152,,,0,
311,200459,RICHMOND AV/FOREST HILL RD,,40.570434999999996,-74.170029,,,0,
312,200460,ELTINGVILLE/TRANSIT CENTER,,40.560669,-74.171165,,,0,
313,200461,RICHMOND AV/DRUMGOOLE RD E,,40.560036,-74.169861,,,0,
314,200462,RICHMOND AV/BARLOW AV,,40.556683,-74.169037,,,0,
315,200463,RICHMOND AV/LEVERETT AV,,40.554913,-74.168648,,,0,
316,200466,RICHMOND AV/KATAN AV,,40.550243,-74.167603,,,0,
317,200467,RICHMOND AV/MEMPHIS AV,,40.548862,-74.16729699999999,,,0,
318,200468,RICHMOND AV/SERRELL AV,,40.547527,-74.166687,,,0,
319,200469,RICHMOND AV/WILSON AV,,40.545094,-74.165756,,,0,
320,200470,RICHMOND AV/ELTINGVILLE BL,,40.544067,-74.165199,,,0,
321,200471,RICHMOND AV/AMBOY RD,,40.54295,-74.164001,,,0,
322,200472,RICHMOND AV/OAKDALE ST,,40.541199,-74.162369,,,0,
323,200473,RICHMOND AV/SYCAMORE ST,,40.539604,-74.160866,,,0,
324,200474,RICHMOND AV/KOCH BL,,40.538028999999995,-74.159386,,,0,
325,200475,RICHMOND AV/SHIRLEY AV,,40.536964000000005,-74.158394,,,0,
326,200476,RICHMOND AV/KING ST,,40.535109999999996,-74.155663,,,0,
327,200479,HYLAN BL/WINCHESTER AV,,40.535599,-74.152275,,,0,
328,200480,HYLAN BL/LITTLEFIELD AV,,40.536514000000004,-74.15121500000001,,,0,
329,200484,NELSON AV/HYLAN BL,,40.542675,-74.146088,,,0,
330,200486,NELSON AV/MONTICELLO TER,,40.545059,-74.148537,,,0,
331,200487,NELSON AV/BELDEN ST,,40.547413,-74.14986400000001,,,0,
332,200488,NELSON AV/AMBOY RD,,40.549873,-74.150665,,,0,
333,200490,GIFFORDS LA/KATAN AV,,40.553551,-74.15119200000001,,,0,
334,200491,GIFFORDS LA/GIBSON AV,,40.555679,-74.152214,,,0,
335,200492,GIFFORDS LA/LEVERETT AV,,40.557167,-74.15275600000001,,,0,
336,200496,ARTHUR KILL RD/GIFFORDS LA,,40.563969,-74.155579,,,0,
337,200507,RICHMOND RD/WILDER AV,,40.573192999999996,-74.134277,,,0,
338,200508,RICHMOND RD/ALTOONA AV,,40.573669,-74.131989,,,0,
339,200509,RICHMOND RD/BISHOP ST,,40.57476,-74.128693,,,0,
340,200524,JEWETT AV/POST AV,,40.631096,-74.13069200000001,,,0,
341,200525,JEWETT AV/KRAMER PL,,40.62915,-74.130478,,,0,
342,200526,JEWETT AV/FOREST AV,,40.626457,-74.131325,,,0,
343,200527,JEWETT AV/EGBERT AV,,40.624607,-74.131958,,,0,
344,200528,JEWETT AV/BURNSIDE AV,,40.622864,-74.132195,,,0,
345,200529,JEWETT AV/COLLEGE AV,,40.620712,-74.131813,,,0,
346,200530,JEWETT AV/THE BLVD,,40.618214,-74.131416,,,0,
347,200531,JEWETT AV/WATERS AV,,40.616596,-74.131264,,,0,
348,200532,JEWETT AV/MARKHAM PL,,40.61554,-74.13117199999999,,,0,
349,200533,JEWETT AV/WATCHOGUE RD,,40.612976,-74.13086700000001,,,0,
350,200534,VICTORY BL/PERRY AV,,40.612473,-74.129837,,,0,
351,200535,VICTORY BL/MOUNTAINVIEW AV,,40.61274,-74.126541,,,0,
352,200536,VICTORY BL/LESTER ST,,40.612896,-74.124496,,,0,
353,200537,VICTORY BL/MANOR RD,,40.613040999999996,-74.122231,,,0,
354,200538,VICTORY BL/TODT HILL RD,,40.613308,-74.118904,,,0,
355,200539,VICTORY BL/SLOSSON AV,,40.613468,-74.11640200000001,,,0,
356,200540,VICTORY BL/LITTLE CLOVE RD,,40.613735,-74.112946,,,0,
357,200541,VICTORY BL/ALBERT ST,,40.61412,-74.11103100000001,,,0,
358,200542,VICTORY BL/RENWICK AV,,40.614861,-74.107559,,,0,
359,200543,VICTORY BL/SENECA AV,,40.615852000000004,-74.10466,,,0,
360,200544,VICTORY BL/CLOVE RD,,40.616402,-74.103279,,,0,
361,200545,VICTORY BL/GRAND AV,,40.617664000000005,-74.10153199999999,,,0,
362,200546,VICTORY BL/HIGHLAND AV,,40.619820000000004,-74.099365,,,0,
363,200548,VICTORY BL/THERESA PL,,40.624477,-74.09356700000001,,,0,
364,200549,VICTORY BL/EDDY ST,,40.626759,-74.091339,,,0,
365,200550,VICTORY BL/FOREST AV,,40.63028,-74.088814,,,0,
366,200551,VICTORY BL/AUSTIN PL,,40.632481,-74.086807,,,0,
367,200552,VICTORY BL/CEBRA AV,,40.634209000000006,-74.08543399999999,,,0,
368,200553,VICTORY BL/JERSEY ST,,40.635624,-74.083862,,,0,
369,200570,VICTORY BL/JERSEY ST,,40.635818,-74.083679,,,0,
370,200571,VICTORY BL/CEBRA AV,,40.633858000000004,-74.085999,,,0,
371,200572,VICTORY BL/WOODSTOCK AV,,40.631771,-74.087601,,,0,
372,200573,VICTORY BL/FOREST AV,,40.630375,-74.08886700000001,,,0,
373,200574,VICTORY BL/EDDY ST,,40.626289,-74.09185,,,0,
374,200575,VICTORY BL/THERESA PL,,40.624043,-74.094414,,,0,
375,200576,VICTORY BL/GOLF COURSE ENT,,40.62257,-74.096336,,,0,
376,200579,VICTORY BL/MELROSE AV,,40.617802000000005,-74.10165400000001,,,0,
377,200580,VICTORY BL/CLOVE RD,,40.616077000000004,-74.104546,,,0,
378,200582,VICTORY BL/ALBERT ST,,40.614193,-74.111374,,,0,
379,200583,VICTORY BL/LITTLE CLOVE RD,,40.613846,-74.11367,,,0,
380,200584,VICTORY BL/SLOSSON AV,,40.613548,-74.117325,,,0,
381,200585,VICTORY BL/HODGES PL,,40.613338,-74.119865,,,0,
382,200586,VICTORY BL/MANOR RD,,40.613106,-74.123016,,,0,
383,200590,JEWETT AV/KIMBALL AV,,40.614929,-74.130875,,,0,
384,200591,JEWETT AV/GOODWIN AV,,40.616413,-74.13105,,,0,
385,200592,JEWETT AV/KEIBER CT,,40.618572,-74.13134000000001,,,0,
386,200593,JEWETT AV/COLLEGE AV,,40.621338,-74.131798,,,0,
387,200594,JEWETT AV/BURNSIDE AV,,40.622559,-74.131996,,,0,
388,200595,JEWETT AV/EGBERT AV,,40.624432,-74.131889,,,0,
389,200596,JEWETT AV/FOREST AV,,40.626197999999995,-74.131226,,,0,
390,200597,JEWETT AV/HOLBERNT CT,,40.629448,-74.13015,,,0,
391,200598,JEWETT AV/POST AV,,40.630787,-74.13028,,,0,
392,200612,CLOVE RD/SCHOHARIE ST,,40.614307000000004,-74.10189100000001,,,0,
393,200614,HOWARD AV/CLOVE RD,,40.612465,-74.098961,,,0,
394,200616,HOWARD AV / WAGNER COLLEGE,,40.616482,-74.094307,,,0,
395,200618,HOWARD AV/SIGNAL HILL RD,,40.618507,-74.091049,,,0,
396,200619,ARLO RD/HOWARD AV,,40.619597999999996,-74.090469,,,0,
397,200620,ARLO RD / 73 ARLO RD,,40.619038,-74.096313,,,0,
398,200621,ARLO RD/STRATFORD RD,,40.619759,-74.09446700000001,,,0,
399,200622,HOWARD AV/SETH CT,,40.618179,-74.094101,,,0,
400,200623,HOWARD AV / WAGNER COLLEGE,,40.616501,-74.094643,,,0,
401,200624,HOWARD AV/CAMPUS RD,,40.615673,-74.096535,,,0,
402,200626,CLOVE RD/FOOTE AV,,40.613422,-74.100349,,,0,
403,200627,CLOVE RD/VAN CORTLANDT AV,,40.614861,-74.102188,,,0,
404,200646,CLOVE RD/BEMENT AV,,40.620483,-74.109787,,,0,
405,200652,CLOVE RD/MILFORD DR,,40.610191,-74.096977,,,0,
406,200660,HYLAN BL/NORWAY AV,,40.598499,-74.08126800000001,,,0,
407,200661,HYLAN BL/LAMPORT BL,,40.598408,-74.07911700000001,,,0,
408,200662,HYLAN BL/KRAMER ST,,40.597992,-74.076279,,,0,
409,200663,HYLAN BL/LINWOOD AV,,40.597519,-74.073944,,,0,
410,200664,HYLAN BL/SAND LA,,40.598518,-74.072334,,,0,
411,200677,RENWICK AV/LITTLE CLOVE RD,,40.610771,-74.105637,,,0,
412,200678,MILFORD DR/OCEAN TER,,40.609844,-74.103912,,,0,
413,200679,MILFORD DR/ENDOR AV,,40.610073,-74.10039499999999,,,0,
414,200694,SAND LA/McCLEAN AV,,40.597027000000004,-74.07047299999999,,,0,
415,200695,SAND LA/HYLAN BL,,40.598576,-74.071861,,,0,
416,200696,HYLAN BL/FINGERBOARD RD,,40.601532,-74.07265500000001,,,0,
417,200697,HYLAN BL/BIONIA AV,,40.598045,-74.075829,,,0,
418,200698,HYLAN BL/STEUBEN ST,,40.598576,-74.07814,,,0,
419,200699,HYLAN BL/ALLENDALE RD,,40.598671,-74.079887,,,0,
420,200700,HYLAN BL/CLOVE RD,,40.598732,-74.080963,,,0,
421,200708,NARROWS RD N/RICHMOND RD,,40.609711,-74.090767,,,0,
422,200710,CLOVE RD/HOWARD AV,,40.612716999999996,-74.099518,,,0,
423,200713,CLOVE RD/VICTORY BL,,40.616596,-74.103516,,,0,
424,200714,CLOVE RD/BEVERLY AV,,40.617897,-74.10470600000001,,,0,
425,200715,CLOVE RD/CLOVE LAKE PARK,,40.619514,-74.10749799999999,,,0,
426,200716,CLOVE RD/BEMENT AV,,40.620945,-74.110313,,,0,
427,200736,LITTLE CLOVE RD/SENECA AV,,40.610946999999996,-74.101784,,,0,
428,200746,CLYDE PL/ARNOLD ST,,40.638915999999995,-74.090111,,,0,
429,200747,FRANKLIN AV/PROSPECT AV,,40.639477,-74.091003,,,0,
430,200748,PROSPECT AV/PENDELTON PL,,40.639683000000005,-74.091957,,,0,
431,200749,PROSPECT AV/LAFAYETTE AV,,40.639381,-74.09365799999999,,,0,
432,200750,LAFAYETTE AV/ALDEN PL,,40.636955,-74.093636,,,0,
433,200751,LAFAYETTE AV/BRIGHTON AV,,40.635670000000005,-74.092651,,,0,
434,200752,BRIGHTON AV/WEBSTER AV,,40.635784,-74.089424,,,0,
435,200753,BRIGHTON AV/JERSEY ST,,40.637756,-74.087303,,,0,
436,200754,JERSEY ST/HENDRICKS AV,,40.640141,-74.087074,,,0,
437,200755,JERSEY ST/LAYTON AV,,40.641459999999995,-74.086708,,,0,
438,200756,JERSEY ST/CRESCENT AV,,40.642399,-74.08649399999999,,,0,
439,200757,WESTERVELT AV/CRESCENT AV,,40.64373,-74.084305,,,0,
440,200758,WESTERVELT AV/HAMILTON AV,,40.64571,-74.085747,,,0,
441,200760,HAMILTON AV/DANIEL LOW TER,,40.64463,-74.08223000000001,,,0,
442,200761,HAMILTON AV/ST MARKS PL,,40.644718,-74.080704,,,0,
443,200762,ST MARKS PL/WALL ST,,40.643192,-74.07914,,,0,
444,200763,ST MARKS PL/FORT PL,,40.642338,-74.078438,,,0,
445,200764,HYATT ST/CENTRAL AV,,40.641819,-74.07713299999999,,,0,
446,200765,SLOSSON TER/BAY ST,,40.639549,-74.075829,,,0,
447,200770,BRIGHTON AV/PORTLAND PL,,40.635445000000004,-74.096138,,,0,
448,200771,BRIGHTON AV/LAFAYETTE AV,,40.635494,-74.092422,,,0,
449,200775,BRIGHTON AV/CASTLETON AV,,40.634178000000006,-74.09723699999999,,,0,
450,200779,SLOSSON TER/BAY ST,,40.639633,-74.076141,,,0,
451,200780,CENTRAL AV/HYATT ST,,40.641842,-74.076942,,,0,
452,200781,ST MARKS PL/HYATT ST,,40.641956,-74.078011,,,0,
453,200782,ST MARKS PL/WALL ST,,40.643684,-74.07933,,,0,
454,200783,ST MARKS PL/HAMILTON AV,,40.645092,-74.080437,,,0,
455,200784,ST MARKS PL/NICHOLAS ST,,40.646190999999995,-74.081802,,,0,
456,200785,WESTERVELT AV/ST MARKS PL,,40.646392999999996,-74.086548,,,0,
457,200786,WESTERVELT AV/CLEVELAND ST,,40.644665,-74.085167,,,0,
458,200787,CRESCENT AV/WESTERVELT AV,,40.643349,-74.084503,,,0,
459,200791,JERSEY ST/BRIGHTON AV,,40.638149,-74.08755500000001,,,0,
460,200792,BRIGHTON AV/PINE ST,,40.636978000000006,-74.088684,,,0,
461,200793,BRIGHTON AV/WEBSTER AV,,40.635765,-74.089638,,,0,
462,200795,LAFAYETTE AV/ALDEN PL,,40.637577,-74.093666,,,0,
463,200796,LAFAYETTE AV/PROSPECT AV,,40.63892,-74.093971,,,0,
464,200797,PROSPECT AV/PENDELTON PL,,40.639503000000005,-74.092201,,,0,
465,200798,PROSPECT AV/FRANKLIN AV,,40.639763,-74.090805,,,0,
466,200800,BRIGHTON AV/PORTLAND PL,,40.635234999999994,-74.096634,,,0,
467,200820,MORNINGSTAR RD/FOREST  AV,,40.625172,-74.148666,,,0,
468,200821,MORNINGSTAR RD/BOWLES AV,,40.627753999999996,-74.147987,,,0,
469,200822,MORNINGSTAR RD/ST ADALBERT PL,,40.62962,-74.147385,,,0,
470,200823,MORNINGSTAR RD/WALKER ST,,40.631031,-74.146904,,,0,
471,200836,POST AV/DECKER AV,,40.63213,-74.13298,,,0,
472,200837,POST AV/JEWETT AV,,40.630936,-74.130821,,,0,
473,200838,POST AV/GREENLEAF AV,,40.631096,-74.12773100000001,,,0,
474,200839,POST AV/CLOVE RD,,40.631634000000005,-74.12509200000001,,,0,
475,200840,CARY AV/TAYLOR ST,,40.631886,-74.12294,,,0,
476,200841,CARY AV/ELIZABETH ST,,40.632175,-74.120506,,,0,
477,200842,CARY AV/CAROLINE ST,,40.632328,-74.119247,,,0,
478,200843,CARY AV/BROADWAY,,40.632668,-74.11640200000001,,,0,
479,200844,CARY AV/N BURGHER AV,,40.632847,-74.11438000000001,,,0,
480,200845,CARY AV/BEMENT AV,,40.633186,-74.11203,,,0,
481,200846,BEMENT AV/CASTLETON AV,,40.634628,-74.11212900000001,,,0,
482,200847,BEMENT AV/HENDERSON AV,,40.637398,-74.112701,,,0,
483,200848,HENDERSON AV/PELTON AV,,40.637661,-74.111099,,,0,
484,200850,HENDERSON AV/BARD AV,,40.638335999999995,-74.10773499999999,,,0,
485,200853,HENDERSON AV/DEVON PL,,40.639683000000005,-74.101639,,,0,
486,200855,HENDERSON AV/LAFAYETTE AV,,40.640652,-74.095177,,,0,
487,200856,LAFAYETTE AV/CASSIDY PL,,40.641739,-74.09498599999999,,,0,
488,200857,LAFAYETTE AV/FILLMORE ST,,40.643139,-74.095413,,,0,
489,200858,LAFAYETTE AV/RICHMOND TER,,40.644459000000005,-74.095795,,,0,
490,200878,LAFAYETTE AV/RICHMOND TER,,40.644493,-74.095955,,,0,
491,200879,LAFAYETTE AV/FILLMORE ST,,40.643505,-74.095673,,,0,
492,200880,LAFAYETTE AV/CASSIDY PL,,40.642303000000005,-74.09530600000001,,,0,
493,200881,LAFAYETTE AV/HENDERSON AV,,40.641113,-74.094948,,,0,
494,200883,HENDERSON AV/DEVON PL,,40.639957,-74.10099,,,0,
495,200884,HENDERSON AV/WESTBURY AV,,40.639301,-74.103706,,,0,
496,200886,HENDERSON AV/BARD AV,,40.638763,-74.107025,,,0,
497,200888,HENDERSON AV/PELTON AV,,40.637833,-74.110466,,,0,
498,200889,HENDERSON AV/BEMENT AV,,40.637634000000006,-74.112335,,,0,
499,200890,BEMENT AV/CASTLETON AV,,40.634871999999994,-74.11235,,,0,
500,200891,BEMENT AV/CARY AV,,40.633365999999995,-74.112053,,,0,
501,200892,CARY AV/N BURGHER AV,,40.63306,-74.114052,,,0,
502,200893,CARY AV/BROADWAY,,40.632687,-74.11692,,,0,
503,200894,CARY AV/CAROLINE ST,,40.632453999999996,-74.11908000000001,,,0,
504,200895,CARY AV/ELIZABETH ST,,40.632282000000004,-74.120651,,,0,
505,200896,CARY AV/TAYLOR ST,,40.632027,-74.12271899999999,,,0,
506,200897,CARY AV/CLOVE RD,,40.631778999999995,-74.124794,,,0,
507,200898,POST AV/DRIPROCK ST,,40.631203,-74.127831,,,0,
508,200899,POST AV/JEWETT AV,,40.630947,-74.130386,,,0,
509,200900,POST AV/DECKER AV,,40.632404,-74.133087,,,0,
510,200902,PORT RICHMOND AV/ALBION PL,,40.634464,-74.135635,,,0,
511,200915,MORNINGSTAR RD/DAVID PL,,40.629589,-74.147522,,,0,
512,200916,MORNINGSTAR RD/DIXON AV,,40.628376,-74.147964,,,0,
513,200930,RICHMOND AV/RIVINGTON AV,,40.597,-74.162407,,,0,
514,200966,MAIN ST/AMBOY RD,,40.508663,-74.24683399999999,,,0,
515,200967,MAIN ST/HYLAN BL,,40.504238,-74.245308,,,0,
516,200968,HYLAN BL/BRIGHTON ST,,40.504356,-74.243546,,,0,
517,200969,HYLAN BL/YETMAN AV,,40.504719,-74.24173,,,0,
518,200970,HYLAN BL/SPRAGUE AV,,40.505417,-74.23826600000001,,,0,
519,200971,HYLAN BL/JOLINE AV,,40.506077000000005,-74.234978,,,0,
520,200972,HYLAN BL/BEDELL AV,,40.506634000000005,-74.233147,,,0,
521,200973,HYLAN BL/PAGE AV,,40.507721000000004,-74.229576,,,0,
522,200974,HYLAN BL/RICHARD AV,,40.50848,-74.223923,,,0,
523,200977,HYLAN BL/SHARROTT AV,,40.511528000000006,-74.210541,,,0,
524,200978,HYLAN BL/WOODVALE AV,,40.514256,-74.206284,,,0,
525,200979,HYLAN BL/BAY VIEW AV,,40.516457,-74.202873,,,0,
526,200980,HYLAN BL/INEZ ST,,40.518341,-74.19982900000001,,,0,
527,200981,HYLAN BL/SEGUINE AV,,40.519112,-74.196922,,,0,
528,200982,HYLAN BL/CORNELIA AV,,40.522434000000004,-74.190071,,,0,
529,200983,HYLAN BL/LUTEN AV,,40.523239000000004,-74.187828,,,0,
530,200984,HYLAN BL/HUGUENOT AV,,40.523865,-74.186226,,,0,
531,200985,HYLAN BL/ARBUTUS AV,,40.526112,-74.179932,,,0,
532,200987,HYLAN BL/POILLON AV,,40.526623,-74.174385,,,0,
533,200988,HYLAN BL/DOLE ST,,40.526569,-74.172638,,,0,
534,200990,HYLAN BL/LIPSETT AV,,40.526474,-74.168633,,,0,
535,200991,HYLAN BL/BARCLAY AV,,40.526965999999994,-74.166832,,,0,
536,200992,HYLAN BL/HOLDRIDGE AV,,40.527954,-74.164467,,,0,
537,200993,HYLAN BL/ARDEN AV,,40.529427,-74.160934,,,0,
538,200994,HYLAN BL/WOODS OF ARDEN RD,,40.530621000000004,-74.158089,,,0,
539,200995,HYLAN BL/HALES AV,,40.532272,-74.15570799999999,,,0,
540,201003,HYLAN BL/NELSON AV,,40.542587,-74.145569,,,0,
541,201005,HYLAN BL/HILLSIDE TER,,40.545567,-74.142349,,,0,
542,201006,HYLAN BL/GREAT KILLS RD,,40.546558000000005,-74.141029,,,0,
543,201007,HYLAN BL/FIELDWAY AV,,40.548023,-74.139061,,,0,
544,201008,HYLAN BL/KEEGANS LA,,40.549746999999996,-74.136902,,,0,
545,201009,HYLAN BL/REDGRAVE AV,,40.551369,-74.134186,,,0,
546,201010,HYLAN BL/BAY TERRACE,,40.552494,-74.132805,,,0,
547,201011,HYLAN BL/JUSTIN AV,,40.553501000000004,-74.131546,,,0,
548,201012,HYLAN BL/GREAT KILLS PARK,,40.556808000000004,-74.12763199999999,,,0,
549,201013,HYLAN BL/CHESTERTON AV,,40.558009999999996,-74.126335,,,0,
550,201014,HYLAN BL/MONTREAL AV,,40.559101,-74.125153,,,0,
551,201016,HYLAN BL/GUYON AV,,40.560574,-74.119667,,,0,
552,201017,HYLAN BL/OAK AV,,40.562298,-74.117828,,,0,
553,201020,HYLAN BL/EBBITTS ST,,40.566685,-74.113388,,,0,
554,201022,HYLAN BL/JACQUES AV,,40.5709,-74.109123,,,0,
555,201023,HYLAN BL/BURBANK AV,,40.572258000000005,-74.107788,,,0,
556,201026,HYLAN BL/ELMTREE AV,,40.574721999999994,-74.10530899999999,,,0,
557,201028,HYLAN BL/MIDLAND AV,,40.578185999999995,-74.10192099999999,,,0,
558,201029,HYLAN BL/HAMDEN AV,,40.579308000000005,-74.100693,,,0,
559,201030,HYLAN BL/ADAMS AV,,40.580315,-74.099419,,,0,
560,201031,HYLAN BL/JEFFERSON AV,,40.581394,-74.098061,,,0,
561,201032,HYLAN BL/SEAVER AV,,40.583298,-74.095665,,,0,
562,201033,HYLAN BL/NAUGHTON AV,,40.584068,-74.094688,,,0,
563,201034,HYLAN BL/BUEL AV,,40.585411,-74.092995,,,0,
564,201036,HYLAN BL/CROMWELL AV,,40.587826,-74.090775,,,0,
565,201037,HYLAN BL/DELAWARE AV,,40.589218,-74.089554,,,0,
566,201038,HYLAN BL/BURGHER AV,,40.590824,-74.088127,,,0,
567,201039,HYLAN BL/BENTON AV,,40.592464,-74.08714300000001,,,0,
568,201042,HYLAN BL/PARKINSON AV,,40.597946,-74.083199,,,0,
569,201049,HYLAN BL/FINGERBOARD RD,,40.601475,-74.072273,,,0,
570,201050,HYLAN BL/PIEDMONT AV,,40.602748999999996,-74.07412,,,0,
571,201052,HYLAN BL/NARROWS RD S,,40.605292999999996,-74.076561,,,0,
572,201053,HYLAN BL/DONLEY AV,,40.607605,-74.07621,,,0,
573,201054,HYLAN BL/REYNOLDS ST,,40.609802,-74.074318,,,0,
574,201055,HYLAN BL/TOMPKINS AV,,40.611374,-74.07122,,,0,
575,201059,TOMPKINS AV/TOWNSEND AV,,40.61842,-74.07543199999999,,,0,
576,201060,TOMPKINS AV/VANDERBILT AV,,40.620476000000004,-74.077148,,,0,
577,201061,TOMPKINS AV/HILL ST,,40.622318,-74.078339,,,0,
578,201062,TOMPKINS AV/BROAD ST,,40.624503999999995,-74.07946,,,0,
579,201064,VAN DUZER ST/BEACH ST,,40.629185,-74.07943,,,0,
580,201066,VAN DUZER ST/GRANT ST,,40.633728000000005,-74.076347,,,0,
581,201077,ST PAULS AV/VAN DUZER ST,,40.63763,-74.078049,,,0,
582,201078,ST PAULS AV/SWAN ST,,40.634613,-74.07860600000001,,,0,
583,201080,ST PAULS AV/CEBRA AV,,40.630413,-74.081352,,,0,
584,201081,BEACH ST/VAN DUZER ST,,40.628966999999996,-74.079903,,,0,
585,201082,BEACH ST/UNION PL,,40.627758,-74.07766,,,0,
586,201083,CANAL ST/WRIGHT ST,,40.626656,-74.078209,,,0,
587,201084,TOMPKINS AV/BROAD ST,,40.624297999999996,-74.07952900000001,,,0,
588,201085,TOMPKINS AV/HILL ST,,40.621646999999996,-74.07817800000001,,,0,
589,201086,TOMPKINS AV/VANDERBILT AV,,40.620232,-74.07711,,,0,
590,201087,TOMPKINS AV/TOWNSEND AV,,40.618641,-74.07575200000001,,,0,
591,201088,TOMPKINS AV/CHESTNUT AV,,40.615307,-74.073448,,,0,
592,201090,HYLAN BL/VAUGHN ST,,40.611313,-74.071838,,,0,
593,201092,HYLAN BL/DONLEY AV,,40.607693,-74.077011,,,0,
594,201093,OLGA PL/POUCH TER,,40.603912,-74.076286,,,0,
595,201094,HYLAN BL/PIEDMONT AV,,40.602734000000005,-74.074455,,,0,
596,201096,HYLAN BL/W FINGERBOARD RD,,40.600097999999996,-74.072212,,,0,
597,201102,HYLAN BL/PARKINSON AV,,40.597828,-74.08416,,,0,
598,201104,HYLAN BL/REID AV,,40.593834,-74.086861,,,0,
599,201105,HYLAN BL/COOPER AV,,40.592514,-74.08740999999999,,,0,
600,201106,HYLAN BL/BURGHER AV,,40.590466,-74.088799,,,0,
601,201107,HYLAN BL/DELAWARE AV,,40.588802,-74.09025600000001,,,0,
602,201108,HYLAN BL/CROMWELL AV,,40.587444,-74.091461,,,0,
603,201109,HYLAN BL/SEAVIEW AV,,40.586365,-74.092422,,,0,
604,201110,HYLAN BL/BUEL AV,,40.585079,-74.093788,,,0,
605,201112,HYLAN BL/SEAVER AV,,40.58292,-74.096512,,,0,
606,201113,HYLAN BL/JEFFERSON AV,,40.581093,-74.09880799999999,,,0,
607,201114,HYLAN BL/ADAMS AV,,40.580048,-74.100128,,,0,
608,201115,HYLAN BL/HAMDEN AV,,40.578990999999995,-74.101456,,,0,
609,201117,HYLAN BL/LINCOLN AV,,40.57629,-74.104088,,,0,
610,201118,HYLAN BL/BANCROFT AV,,40.574207,-74.106171,,,0,
611,201119,HYLAN BL/OTIS AV,,40.573063,-74.107315,,,0,
612,201120,HYLAN BL/BURBANK AV,,40.571945,-74.10844399999999,,,0,
613,201121,HYLAN BL/NEW DORP LA,,40.57029,-74.110123,,,0,
614,201122,HYLAN BL/ROSE AV,,40.569148999999996,-74.11125899999999,,,0,
615,201123,HYLAN BL/STERLING AV,,40.568027,-74.112404,,,0,
616,201124,HYLAN BL/LINDBERGH AV,,40.56686,-74.113579,,,0,
617,201125,HYLAN BL/CANNON BL,,40.56517,-74.11526500000001,,,0,
618,201126,HYLAN BL/TYSENS LA,,40.56374,-74.11676800000001,,,0,
619,201127,HYLAN BL/OAK AV,,40.561954,-74.118546,,,0,
620,201128,HYLAN BL/GUYON AV,,40.560210999999995,-74.12043800000001,,,0,
621,201129,HYLAN BL/CHAMPLAIN AV,,40.559684999999995,-74.124306,,,0,
622,201130,HYLAN BL/MONTREAL AV,,40.558758000000005,-74.125885,,,0,
623,201131,HYLAN BL/CURRIE AV,,40.557442,-74.127335,,,0,
624,201132,HYLAN BL/BUFFALO ST,,40.556396,-74.12847099999999,,,0,
625,201133,HYLAN BL/BAY TER,,40.552292,-74.133507,,,0,
626,201134,HYLAN BL/BAY TER,,40.552181,-74.133575,,,0,
627,201135,HYLAN BL/REDGRAVE AV,,40.551178,-74.134979,,,0,
628,201136,HYLAN BL/KEEGANS LA,,40.549434999999995,-74.13780200000001,,,0,
629,201137,HYLAN BL/FIELDWAY AV,,40.547672,-74.13990799999999,,,0,
630,201138,HYLAN BL/GREAT KILLS RD,,40.546295,-74.141769,,,0,
631,201139,HYLAN BL/HILLSIDE TER,,40.545288,-74.14308199999999,,,0,
632,201141,HYLAN BL/NELSON AV,,40.542229,-74.146248,,,0,
633,201171,HYLAN BL/HALES AV,,40.531933,-74.156349,,,0,
634,201172,HYLAN BL/WOODS OF ARDEN RD,,40.530495,-74.158951,,,0,
635,201173,HYLAN BL/ARDEN AV,,40.529315999999994,-74.16175799999999,,,0,
636,201174,HYLAN BL/HOLDRIDGE AV,,40.527836,-74.16529799999999,,,0,
637,201175,HYLAN BL/BARCLAY AV,,40.526859,-74.167679,,,0,
638,201176,HYLAN BL/LIPSETT AV,,40.526676,-74.169579,,,0,
639,201177,HYLAN BL/LIPSETT AV,,40.526768,-74.172585,,,0,
640,201178,HYLAN BL/POILLON AV,,40.526852000000005,-74.175232,,,0,
641,201179,HYLAN BL/WENDY DR,,40.526798,-74.17826099999999,,,0,
642,201181,HYLAN BL/HUGUENOT AV,,40.523956,-74.186501,,,0,
643,201182,HYLAN BL/LUTEN AV,,40.523121,-74.188652,,,0,
644,201183,HYLAN BL/CORNELIA AV,,40.522526,-74.190445,,,0,
645,201184,HYLAN BL/SEGUINE AV,,40.519245,-74.19696,,,0,
646,201185,HYLAN BL/INEZ ST,,40.518326,-74.200317,,,0,
647,201186,HYLAN BL/BAYVIEW AV,,40.516804,-74.20270500000001,,,0,
648,201187,HYLAN BL/WOODVALE AV,,40.514309000000004,-74.20661899999999,,,0,
649,201188,HYLAN BL/SHARROTT AV,,40.51194,-74.21032,,,0,
650,201189,HYLAN BL/KENNY RD,,40.510231,-74.21575899999999,,,0,
651,201190,HYLAN BL/CUNNINGHAM RD,,40.509762,-74.217911,,,0,
652,201191,HYLAN BL/RICHARD AV,,40.508720000000004,-74.223579,,,0,
653,201192,HYLAN BL/PAGE AV,,40.507870000000004,-74.229897,,,0,
654,201193,HYLAN BL/BEDELL AV,,40.506882,-74.232979,,,0,
655,201194,HYLAN BL/JOLINE AV,,40.506298,-74.234779,,,0,
656,201195,HYLAN BL/SPRAGUE AV,,40.50565,-74.238014,,,0,
657,201196,HYLAN BL/BRIGHTON ST,,40.504578,-74.24335500000001,,,0,
658,201198,HYLAN BL/CARTERET ST,,40.503864,-74.24691800000001,,,0,
659,201220,FINGERBOARD RD/HYLAN BL,,40.601574,-74.07193000000001,,,0,
660,201221,FINGERBOARD RD/CLEVELAND PL,,40.603275,-74.069374,,,0,
661,201222,FINGERBOARD RD/LINCOLN PL,,40.604735999999995,-74.068779,,,0,
662,201223,FINGERBOARD RD/TOMPKINS AV,,40.606949,-74.067146,,,0,
663,201224,TOMPKINS AV/BELAIR RD,,40.609077,-74.069016,,,0,
664,201225,TOMPKINS AV/HYLAN BL,,40.611286,-74.070915,,,0,
665,201235,BEACH ST/VAN DUZER ST,,40.628840999999994,-74.07940699999999,,,0,
666,201236,CEBRA AV/ST PAULS AV,,40.630619,-74.081627,,,0,
667,201237,CEBRA AV/WARD AV,,40.632534,-74.083618,,,0,
668,201238,CEBRA AV/VICTORY BL,,40.633972,-74.08557900000001,,,0,
669,201241,JERSEY ST/SCRIBNER AV,,40.637791,-74.086967,,,0,
670,201256,RICHMOND TER/ST GEORGE FERRY,,40.642921,-74.075478,,,0,
671,201269,JERSEY ST/CASTLETON AV,,40.636471,-74.08551,,,0,
672,201271,CEBRA AV/VICTORY BL,,40.633961,-74.08590699999999,,,0,
673,201272,CEBRA AV/WARD AV,,40.632011,-74.083267,,,0,
674,201273,CEBRA AV/ST PAULS AV,,40.630531,-74.08174100000001,,,0,
675,201282,TOMPKINS AV/ST MARYS AV,,40.613789000000004,-74.072304,,,0,
676,201283,TOMPKINS AV/HYLAN BL,,40.611259000000004,-74.071114,,,0,
677,201284,TOMPKINS AV/BELAIR RD,,40.60944,-74.06948100000001,,,0,
678,201285,TOMPKINS AV/FINGERBOARD RD,,40.606503000000004,-74.066849,,,0,
679,201286,FINGERBOARD RD/LINCOLN PL,,40.604931,-74.06907700000001,,,0,
680,201288,FINGERBOARD RD/GRASMERE DR,,40.601879,-74.071663,,,0,
681,201289,SAND LA/HYLAN BL,,40.598236,-74.07209,,,0,
682,201291,MC CLEAN AV/LINWOOD AV,,40.596111,-74.072525,,,0,
683,201294,MC CLEAN AV/MALLORY AV,,40.594284,-74.078171,,,0,
684,201315,DECKER AV/PALMER AV,,40.630524,-74.134743,,,0,
685,201316,DECKER AV/CATHERINE ST,,40.628544,-74.13709300000001,,,0,
686,201317,DECKER AV/BEEKMAN ST,,40.627544,-74.138199,,,0,
687,201318,DECKER AV/HAGAMAN PL,,40.625919,-74.140175,,,0,
688,201319,DECKER AV/FOREST AV,,40.624702,-74.141663,,,0,
689,201320,WILLOWBROOK RD/FOREST AV,,40.624683000000005,-74.144142,,,0,
690,201321,WILLOWBROOK RD/HOUSTON ST,,40.622634999999995,-74.144409,,,0,
691,201322,WILLOWBROOK RD/VEDDER AV,,40.620785,-74.144653,,,0,
692,201323,WILLOWBROOK RD/DEVENS ST,,40.619178999999995,-74.14494300000001,,,0,
693,201324,WILLOWBROOK RD/WATCHOGUE RD,,40.617053999999996,-74.14520300000001,,,0,
694,201325,WATCHOGUE RD/CRYSTAL AV,,40.616493,-74.142052,,,0,
695,201326,WATCHOGUE RD/GLASCOE AV,,40.616322,-74.140465,,,0,
696,201356,BRADLEY AV/PURDY AV,,40.610367,-74.132385,,,0,
697,201357,BRADLEY AV/N GANNON AV,,40.607890999999995,-74.13217900000001,,,0,
698,201358,BRADLEY AV/WESTWOOD AV,,40.60569,-74.131851,,,0,
699,201359,BRADLEY AV/WILLOWBROOK RD,,40.603798,-74.131638,,,0,
700,201360,BRADLEY AV/HAROLD ST,,40.601524,-74.13136300000001,,,0,
701,201363,BRIELLE AV/ROANOKE ST,,40.59713,-74.133156,,,0,
702,201366,BRIELLE AV/ROCKLAND AV,,40.589138,-74.13874100000001,,,0,
703,201369,ROCKLAND AV/MEISNER AV,,40.58263,-74.130371,,,0,
704,201370,ROCKLAND AV/NEVADA AV,,40.579636,-74.127525,,,0,
705,201373,RICHMOND RD/SUMMIT AV,,40.575771,-74.124207,,,0,
706,201374,RICHMOND RD/ROSE AV,,40.575161,-74.121277,,,0,
707,201375,ROSE AV/3 ST,,40.574139,-74.119507,,,0,
708,201378,NEW DORP LA/3 ST,,40.575249,-74.118599,,,0,
709,201380,AMBOY RD/OAKLEY PL,,40.573929,-74.12181899999999,,,0,
710,201382,AMBOY RD/BELFAST AV,,40.570244,-74.123108,,,0,
711,201383,AMBOY RD/TYSENS LA,,40.568764,-74.12530500000001,,,0,
712,201385,GUYON AV/AMBOY RD,,40.565067,-74.12966899999999,,,0,
713,201387,GUYON AV/SIR,,40.564453,-74.12690699999999,,,0,
714,201388,GUYON AV/TARRING ST,,40.563305,-74.124985,,,0,
715,201389,GUYON AV/WHITEHALL ST,,40.562408000000005,-74.123512,,,0,
716,201390,GUYON AV/CLAWSON ST,,40.561081,-74.121315,,,0,
717,201422,VICTORY BL/JEWETT AV,,40.612625,-74.130402,,,0,
718,201427,WATCHOGUE RD/GLASCOE AV,,40.616516,-74.141098,,,0,
719,201428,WATCHOGUE RD/CRYSTAL AV,,40.616710999999995,-74.142662,,,0,
720,201429,WATCHOGUE RD/WILLOWBROOK RD,,40.617031,-74.144974,,,0,
721,201430,WILLOWBROOK RD/LEONARD AV,,40.619133000000005,-74.144699,,,0,
722,201431,WILLOWBROOK RD/LATHROP AV,,40.620277,-74.144554,,,0,
723,201432,WILLOWBROOK RD/COLLEGE AV,,40.622814,-74.144211,,,0,
724,201433,WILLOWBROOK RD/FOREST AV,,40.624863,-74.143936,,,0,
725,201434,DECKER AV/FOREST AV,,40.624992,-74.141014,,,0,
726,201435,DECKER AV/HAGAMAN PL,,40.626244,-74.139542,,,0,
727,201436,DECKER AV/BARRETT AV,,40.62743,-74.138054,,,0,
728,201437,DECKER AV/CATHERINE ST,,40.628807,-74.136452,,,0,
729,201448,GUYAN AV/SIR,,40.564674,-74.126999,,,0,
730,201450,AMBOY RD/E BROADWAY,,40.567913,-74.126419,,,0,
731,201451,AMBOY RD/TYSENS LA,,40.569088,-74.12455,,,0,
732,201453,AMBOY RD/BEACH AV,,40.571636,-74.121399,,,0,
733,201455,ROSE AV/3 ST,,40.574081,-74.119385,,,0,
734,201459,RICHMOND RD/NEW DORP LA,,40.575928000000005,-74.119377,,,0,
735,201460,RICHMOND RD/BEACON AV,,40.575878,-74.12329100000001,,,0,
736,201462,ROCKLAND AV/ST GEORGE RD,,40.577465000000004,-74.12715899999999,,,0,
737,201463,ROCKLAND AV/NEVADA AV,,40.579708000000004,-74.127388,,,0,
738,201464,ROCKLAND AV/FLORIDA TER,,40.581074,-74.128456,,,0,
739,201465,ROCKLAND AV/MANOR RD,,40.583110999999995,-74.13059200000001,,,0,
740,201473,BRADLEY AV/BRIELLE AV,,40.599129,-74.130875,,,0,
741,201474,BRADLEY AV/PORTAGE AV,,40.600254,-74.131004,,,0,
742,201476,BRADLEY AV/HOLDEN BL,,40.603893,-74.131485,,,0,
743,201477,BRADLEY AV/WESTWOOD AV,,40.60537,-74.131691,,,0,
744,201480,BRADLEY AV/VICTORY BL,,40.612309,-74.132286,,,0,
745,201484,FOREST AV/HARBOR PLAZA,,40.626754999999996,-74.16349,,,0,
746,201485,FOREST AV/AMITY PL,,40.626465,-74.160774,,,0,
747,201488,FOREST AV/EUNICE PL,,40.625427,-74.15238199999999,,,0,
748,201489,FOREST AV/SANDERS ST,,40.625278,-74.15094,,,0,
749,201492,FOREST AV/CRYSTAL AV,,40.62455,-74.141418,,,0,
750,201493,FOREST AV/STAPLES,,40.62426,-74.13916800000001,,,0,
751,201494,FOREST AV/LIVERMORE AV,,40.624171999999994,-74.137474,,,0,
752,201495,FOREST AV/BURNSIDE AV,,40.625423,-74.135132,,,0,
753,201496,FOREST AV/HAMLIN PL,,40.626308,-74.133011,,,0,
754,201497,FOREST AV/JEWETT AV,,40.626274,-74.13091999999999,,,0,
755,201498,FOREST AV/DUBOIS AV,,40.626591,-74.12838,,,0,
756,201499,FOREST AV/MANOR RD,,40.627014,-74.12530500000001,,,0,
757,201500,FOREST AV/RAYMOND PL,,40.62722,-74.123734,,,0,
758,201501,FOREST AV/CLOVE RD,,40.627728000000005,-74.12129200000001,,,0,
759,201502,FOREST AV/ELIZABETH ST,,40.628578000000005,-74.119156,,,0,
760,201503,FOREST AV/BROADWAY,,40.628857,-74.116318,,,0,
761,201504,FOREST AV/N BURGHER AV,,40.629204,-74.11346400000001,,,0,
762,201505,FOREST AV/BEMENT AV,,40.629677,-74.110893,,,0,
763,201506,FOREST AV/PELTON AV,,40.630043,-74.108917,,,0,
764,201507,FOREST AV/BARD  AV,,40.630516,-74.10593399999999,,,0,
765,201508,FOREST AV/SHARON AV,,40.630901,-74.10234100000001,,,0,
766,201509,FOREST AV/HART BL,,40.631203,-74.100121,,,0,
767,201510,FOREST AV/UNIVERSITY PL,,40.631351,-74.099113,,,0,
768,201511,FOREST AV/SILVER LAKE PK,,40.631592,-74.095589,,,0,
769,201512,FOREST AV/HAVEN ESPLANADE,,40.631088,-74.092934,,,0,
770,201513,FOREST AV/VICTORY BL,,40.630409,-74.089394,,,0,
771,201525,SOUTH AV/ARLINGTON PL,,40.636115999999994,-74.1661,,,0,
772,201542,FOREST AV/OXFORD PL,,40.630577,-74.089561,,,0,
773,201543,FOREST AV/HAVEN ESPLANADE,,40.631298,-74.09335300000001,,,0,
774,201545,FOREST AV/RANDALL AV,,40.631458,-74.099274,,,0,
775,201546,FOREST AV/HART BL,,40.631207,-74.10096,,,0,
776,201547,FOREST AV/WALBROOKE AV,,40.630939,-74.10305799999999,,,0,
777,201548,FOREST AV/BARD AV,,40.630665,-74.105476,,,0,
778,201549,FOREST AV/PELTON AV,,40.630134999999996,-74.1091,,,0,
779,201550,FOREST AV/BEMENT AV,,40.629665,-74.111649,,,0,
780,201551,FOREST AV/N BURGHER AV,,40.629288,-74.113739,,,0,
781,201552,FOREST AV/BROADWAY,,40.629044,-74.115974,,,0,
782,201553,FOREST AV/ELIZABETH ST,,40.628838,-74.11885799999999,,,0,
783,201554,FOREST AV/CLOVE RD,,40.627937,-74.121162,,,0,
784,201556,FOREST AV/MANOR RD,,40.627171000000004,-74.125008,,,0,
785,201557,FOREST AV/DUBOIS AV,,40.626743,-74.12818100000001,,,0,
786,201558,FOREST AV/JEWETT AV,,40.626415,-74.13208,,,0,
787,201560,FOREST AV/BARRETT  AV,,40.625088,-74.135773,,,0,
788,201561,FOREST AV/MARIANNE ST,,40.624294,-74.138145,,,0,
789,201562,FOREST AV/DECKER AV,,40.624638,-74.14115100000001,,,0,
790,201563,FOREST AV/WILLOWBROOK RD,,40.625060999999995,-74.144478,,,0,
791,201566,FOREST AV/SANDERS ST,,40.625443,-74.151321,,,0,
792,201567,FOREST AV/SIMONSON AV,,40.625721,-74.15349599999999,,,0,
793,201568,FOREST AV/VAN PELT AV,,40.626064,-74.156204,,,0,
794,201569,FOREST AV/UNION AV,,40.626358,-74.158234,,,0,
795,201570,FOREST AV/HARBOR RD,,40.626659000000004,-74.16091899999999,,,0,
796,201571,FOREST AV/HARBOR PLAZA,,40.627029,-74.163826,,,0,
797,201572,FOREST AV/GRANDVIEW AV,,40.627178,-74.165146,,,0,
798,201574,SOUTH AV/NETHERLAND AV,,40.629326,-74.166306,,,0,
799,201576,SOUTH AV/BRABANT ST,,40.632053000000006,-74.166229,,,0,
800,201593,RICHMOND RD/MIDLAND AV,,40.582275,-74.10992399999999,,,0,
801,201595,RICHMOND RD/HULL AV,,40.58556,-74.105591,,,0,
802,201596,RICHMOND RD/SEAVER AV,,40.58725,-74.103622,,,0,
803,201597,RICHMOND RD/DONGAN HILLS AV,,40.588966,-74.10174599999999,,,0,
804,201598,RICHMOND RD/SEAVIEW AV,,40.591282,-74.100853,,,0,
805,201600,RICHMOND RD/RARITAN AV,,40.594604,-74.098373,,,0,
806,201601,RICHMOND RD/BURGHER AV,,40.595473999999996,-74.096855,,,0,
807,201602,RICHMOND RD/MARK ST,,40.596321,-74.094498,,,0,
808,201604,RICHMOND RD/HUNTON ST,,40.598411999999996,-74.091904,,,0,
809,201605,TARGEE ST/W FINGERBOARD RD,,40.600184999999996,-74.091507,,,0,
810,201606,TARGEE ST/ROME AV,,40.602009,-74.091309,,,0,
811,201608,TARGEE ST/BALTIC ST,,40.605824,-74.090889,,,0,
812,201609,TARGEE ST/CLOVE RD,,40.607445,-74.08959200000001,,,0,
813,201611,TARGEE ST/STEUBEN ST,,40.610909,-74.08606,,,0,
814,201612,TARGEE ST/PALMA DR,,40.612358,-74.08506,,,0,
815,201613,TARGEE ST/SOBEL CT,,40.613823,-74.08473199999999,,,0,
816,201615,VANDERBILT AV/ROFF ST,,40.616226,-74.08318299999999,,,0,
817,201616,VANDERBILT AV/OSGOOD AV,,40.617889,-74.08075699999999,,,0,
818,201617,VANDERBILT AV/PARK HILL LA,,40.618675,-74.079636,,,0,
819,201623,VAN DUZER ST/BALTIC ST,,40.631797999999996,-74.077316,,,0,
820,201630,HYLAN BL/LINCOLN AV,,40.576778000000004,-74.103264,,,0,
821,201638,BAY ST/SANDS ST,,40.629337,-74.076691,,,0,
822,201644,VANDERBILT AV/PLEASANT PL,,40.618771,-74.07975,,,0,
823,201645,VANDERBILT AV/OSGOOD AV,,40.617622,-74.081451,,,0,
824,201646,VANDERBILT AV/IRVING PL,,40.616421,-74.083069,,,0,
825,201647,VANDERBILT AV/HILLSIDE AV,,40.614979,-74.085136,,,0,
826,201648,VANDERBILT AV/VAN DUZER ST,,40.61359,-74.086922,,,0,
827,201649,RICHMOND RD/LONGVIEW RD,,40.611794,-74.088348,,,0,
828,201650,RICHMOND RD/NARROWS RD S,,40.608891,-74.09078199999999,,,0,
829,201651,RICHMOND RD/DOUGLAS RD,,40.607189,-74.092384,,,0,
830,201653,RICHMOND RD/SPRING ST,,40.602936,-74.092735,,,0,
831,201654,RICHMOND RD/ROME AV,,40.601555,-74.092941,,,0,
832,201655,RICHMOND RD/TARGEE ST,,40.599705,-74.09204100000001,,,0,
833,201656,RICHMOND RD/HUNTON ST,,40.598304999999996,-74.092201,,,0,
834,201658,RICHMOND RD/MARK ST,,40.59626,-74.095238,,,0,
835,201659,RICHMOND RD/BURGHER AV,,40.595226000000004,-74.09761,,,0,
836,201662,RICHMOND RD/FOUR CORNERS RD,,40.590579999999996,-74.10092900000001,,,0,
837,201663,RICHMOND RD/BUEL AV,,40.589088000000004,-74.101837,,,0,
838,201664,RICHMOND RD/SEAVER AV,,40.587185,-74.103897,,,0,
839,201665,RICHMOND RD/HULL AV,,40.585167,-74.106277,,,0,
840,201680,MIDLAND AV/FR CAPODANNO BL,,40.570824,-74.09053,,,0,
841,201684,BRIELLE AV/BRADLEY AV,,40.598591,-74.130348,,,0,
842,201685,BRIELLE AV/LIVINGSTON AV,,40.598343,-74.128151,,,0,
843,201686,BRIELLE AV/GANSEVOORT BL,,40.598076,-74.125587,,,0,
844,201687,BRIELLE AV/MANOR RD,,40.598991,-74.123276,,,0,
845,201688,MANOR RD/OCEAN TER,,40.602055,-74.120552,,,0,
846,201689,MANOR RD/CROAK AV,,40.603297999999995,-74.12056700000001,,,0,
847,201690,MANOR RD/TILLMAN ST,,40.604832,-74.120743,,,0,
848,201691,MANOR RD/WESTWOOD AV,,40.60667,-74.12084200000001,,,0,
849,201692,MANOR RD/SCHMIDTS LA,,40.608711,-74.12105600000001,,,0,
850,201693,MANOR RD/N GANNON AV,,40.610477,-74.12146800000001,,,0,
851,201694,MANOR RD/VICTORY BL,,40.612949,-74.122452,,,0,
852,201695,MANOR RD/DONGAN AV,,40.614540000000005,-74.122559,,,0,
853,201696,MANOR RD/STURGES ST,,40.615883000000004,-74.12307,,,0,
854,201697,MANOR RD/RICE AV,,40.617271,-74.123566,,,0,
855,201698,MANOR RD/DRAKE AV,,40.61903,-74.12331400000001,,,0,
856,201699,MANOR RD/MARTLING AV,,40.621284,-74.123795,,,0,
857,201700,MANOR RD/KINGSLEY AV,,40.622566,-74.124298,,,0,
858,201701,MANOR RD/CURTIS AV,,40.624638,-74.12468,,,0,
859,201711,BROADWAY/HENDERSON AV,,40.63686,-74.117439,,,0,
860,201712,BROADWAY/WAYNE ST,,40.637951,-74.117538,,,0,
861,201713,WAYNE ST/N BURGHER AV,,40.638283,-74.115288,,,0,
862,201719,BROADWAY/WAYNE ST,,40.638157,-74.11776,,,0,
863,201720,BROADWAY/HENDERSON AV,,40.63665,-74.117699,,,0,
864,201721,BROADWAY/CASTLETON AV,,40.634712,-74.117363,,,0,
865,201730,MANOR RD/RAVENHURST AV,,40.623764,-74.124794,,,0,
866,201731,MANOR RD/KINGSLEY AV,,40.622017,-74.124222,,,0,
867,201732,MANOR RD/MAINE AV,,40.620678000000005,-74.123711,,,0,
868,201733,MANOR RD/CONSTANT AV,,40.619296999999996,-74.123512,,,0,
869,201734,MANOR RD/JOAN PL,,40.617558,-74.123734,,,0,
870,201735,MANOR RD/CROWELL AV,,40.61607,-74.123398,,,0,
871,201736,MANOR RD/DONGAN AV,,40.614658,-74.12271899999999,,,0,
872,201737,MANOR RD/VICTORY BL,,40.613197,-74.12264300000001,,,0,
873,201738,MANOR RD/N GANNON AV,,40.609989,-74.121475,,,0,
874,201739,MANOR RD/SCHMIDTS LA,,40.608528,-74.121208,,,0,
875,201740,MANOR RD/WESTWOOD AV,,40.606468,-74.12101,,,0,
876,201741,MANOR RD/HOLDEN BL,,40.604286,-74.120941,,,0,
877,201742,MANOR RD/QUEEN ST,,40.602711,-74.120827,,,0,
878,201743,MANOR RD/HAROLD ST,,40.601574,-74.120758,,,0,
879,201744,BRIELLE AV/GOWER ST,,40.599334999999996,-74.123077,,,0,
880,201745,BRIELLE AV/GANSEVOORT BL,,40.598213,-74.125679,,,0,
881,201746,BRIELLE AV/LIVINGSTON AV,,40.598488,-74.12786899999999,,,0,
882,201747,BRIELLE AV/BRADLEY AV,,40.598698,-74.130554,,,0,
883,201754,GUYON AV/CLAWSON ST,,40.561295,-74.121414,,,0,
884,201755,GUYON AV/ELMIRA ST,,40.562416,-74.123238,,,0,
885,201756,GUYON AV/TARRING ST,,40.563763,-74.125458,,,0,
886,201758,AMBOY RD/GUYON AV,,40.565437,-74.129662,,,0,
887,201933,VICTORY BL/FELDMEYERS LA,,40.588543,-74.195862,,,0,
888,201934,VICTORY BL/ALBERTA AV,,40.590881,-74.191963,,,0,
889,201936,VICTORY BL/BURKE AV,,40.593140000000005,-74.18811,,,0,
890,201940,VICTORY BL/BARON BL,,40.597297999999995,-74.181656,,,0,
891,201942,VICTORY BL/TRAVIS AV 1,,40.599628,-74.178398,,,0,
892,201943,VICTORY BL/TRAVIS AV 2,,40.600819,-74.176727,,,0,
893,201944,VICTORY BL/SIGNS RD,,40.603668,-74.17305,,,0,
894,201946,VICTORY BL/LISA PL,,40.606133,-74.16798399999999,,,0,
895,201947,VICTORY BL/ARLENE ST,,40.606758,-74.165474,,,0,
896,201948,VICTORY BL/RICHMOND AV,,40.607246,-74.161209,,,0,
897,201949,VICTORY BL/GOLLER PL,,40.607620000000004,-74.15905,,,0,
898,201950,VICTORY BL/MORANI ST,,40.608078000000006,-74.156837,,,0,
899,201951,VICTORY BL/WILLOWBROOK PK,,40.608684999999994,-74.15377,,,0,
900,201959,VICTORY BL/N GANNON AV,,40.609505,-74.149666,,,0,
901,201960,VICTORY BL/NEPTUNE PL,,40.609783,-74.148232,,,0,
902,201961,VICTORY BL/WILLOWBROOK RD,,40.610188,-74.146477,,,0,
903,201962,VICTORY BL/DECATUR AV,,40.610565,-74.144592,,,0,
904,201964,VICTORY BL/MARTIN AV,,40.611511,-74.139824,,,0,
905,201965,VICTORY BL/SHERADEN AV,,40.611839,-74.138092,,,0,
906,202022,VICTORY BL/MANN AV,,40.612438,-74.133133,,,0,
907,202025,VICTORY BL/OCONNOR AV,,40.611958,-74.138153,,,0,
908,202026,VICTORY BL/LIVERMORE AV,,40.611473,-74.140617,,,0,
909,202027,VICTORY BL/CRYSTAL AV,,40.61092,-74.143456,,,0,
910,202028,VICTORY BL/BRYSON AV,,40.610516,-74.145454,,,0,
911,202029,VICTORY BL/WILLOWBROOK RD,,40.610153000000004,-74.14741500000001,,,0,
912,202039,VICTORY BL/MORANI ST,,40.608055,-74.15778399999999,,,0,
913,202040,VICTORY BL/GOLLER PL,,40.607632,-74.159882,,,0,
914,202041,VICTORY BL/RICHMOND AV,,40.60722,-74.162918,,,0,
915,202042,VICTORY BL/ARLENE ST,,40.606705,-74.16628299999999,,,0,
916,202043,VICTORY BL/GRAHAM AV 1,,40.605587,-74.169624,,,0,
917,202044,VICTORY BL/SIGNS RD,,40.603367,-74.173683,,,0,
918,202047,VICTORY BL/TRAVIS AV,,40.599537,-74.178719,,,0,
919,202048,VICTORY BL/SHENANDOAH AV,,40.598392,-74.18034399999999,,,0,
920,202049,VICTORY BL/BARON BL,,40.597248,-74.181931,,,0,
921,202051,VICTORY BL/CANNON AV,,40.595154,-74.18490600000001,,,0,
922,202052,VICTORY BL/LEROY ST,,40.594215000000005,-74.18650799999999,,,0,
923,202053,VICTORY BL/BURKE AV,,40.593185,-74.18821700000001,,,0,
924,202054,VICTORY BL/WILD AV,,40.591759,-74.19075,,,0,
925,202055,VICTORY BL/GLEN ST,,40.590588000000004,-74.192848,,,0,
926,202056,VICTORY BL/FIELDMEYERS LA,,40.58873,-74.195709,,,0,
927,202057,VICTORY BL/CON EDISON,,40.587631,-74.197731,,,0,
928,202066,ARTHUR KILL RD/YETMAN AV,,40.513577000000005,-74.247353,,,0,
929,202067,ARTHUR KILL RD/WOOD AV,,40.514576,-74.24586500000001,,,0,
930,202068,ARTHUR KILL RD/BARNARD AV,,40.515685999999995,-74.24363699999999,,,0,
931,202069,ARTHUR KILL RD/NASSAU PL,,40.519024,-74.240089,,,0,
932,202073,ARTHUR KILL RD/VETERANS RD W,,40.528511,-74.239273,,,0,
933,202076,ARTHUR KILL RD/SHARROTTS RD,,40.538284000000004,-74.237144,,,0,
934,202078,ARTHUR KILL RD/ELLIS PL,,40.541264,-74.237442,,,0,
935,202079,ARTHUR KILL RD/CLAY PIT RD,,40.542469,-74.23640400000001,,,0,
936,202080,ARTHUR KILL RD/JOHNSON ST,,40.545387,-74.230522,,,0,
937,202083,ARTHUR KILL RD/CORRECTIONAL FACILITY RD,,40.547932,-74.226166,,,0,
938,202084,ARTHUR KILL RD/BLOOMINGDALE RD,,40.550049,-74.221329,,,0,
939,202089,ARTHUR KILL RD/VETERANS RD W,,40.557499,-74.207275,,,0,
940,202090,ARTHUR KILL RD/CARLYLE GRN,,40.557354,-74.199211,,,0,
941,202091,ARTHUR KILL RD/ARDEN AV,,40.559139,-74.19725,,,0,
942,202094,ARTHUR KILL RD/WOODROW RD,,40.565174,-74.181602,,,0,
943,202095,ARTHUR KILL RD/ANNADALE RD,,40.563465,-74.177193,,,0,
944,202096,ARTHUR KILL RD/CROSSFIELD AV,,40.562805,-74.175003,,,0,
945,202097,ELTINGVILLE/TRANSIT CENTER,,40.560759999999995,-74.171089,,,0,
946,202099,ARTHUR KILL RD/ARMSTRONG AV,,40.560898,-74.162277,,,0,
947,202100,ARTHUR KILL RD/COLON AV,,40.561825,-74.159317,,,0,
948,202101,ARTHUR KILL RD/ELVERTON AV,,40.562397,-74.157501,,,0,
949,202103,ARTHUR KILL RD/GREAVES AV,,40.566067,-74.15374,,,0,
950,202121,RICHMOND RD/STEELE AV,,40.576797,-74.118225,,,0,
951,202122,RICHMOND RD/LOCUST AV,,40.577946000000004,-74.11721800000001,,,0,
952,202123,RICHMOND RD/BANCROFT AV,,40.579365,-74.11451,,,0,
953,202124,RICHMOND RD/GREELEY AV,,40.580482,-74.11335,,,0,
954,202125,RICHMOND RD/LINCOLN AV,,40.581154,-74.112259,,,0,
955,202147,TARGEE ST/VANDERBILT AV,,40.61488,-74.084618,,,0,
956,202149,TARGEE ST/OSGOOD AV,,40.619289,-74.084633,,,0,
957,202150,TARGEE ST/YOUNG ST,,40.620682,-74.084282,,,0,
958,202151,TARGEE ST/BROAD ST,,40.622997,-74.08377800000001,,,0,
959,202152,BROAD ST/GORDON ST,,40.623622999999995,-74.08239,,,0,
960,202153,BROAD ST/TOMPKINS AV,,40.624340000000004,-74.080147,,,0,
961,202176,BROAD ST/CEDAR ST,,40.624317,-74.08071899999999,,,0,
962,202177,BROAD ST/GORDON ST,,40.623531,-74.083199,,,0,
963,202179,VAN DUZER ST/BROAD ST,,40.622368,-74.085403,,,0,
964,202180,VAN DUZER ST/YOUNG ST,,40.621223,-74.08564799999999,,,0,
965,202181,VAN DUZER ST/OAKLAND TER,,40.620045000000005,-74.08593,,,0,
966,202182,VAN DUZER ST/BARING PL,,40.618587,-74.08612099999999,,,0,
967,202184,VAN DUZER ST/HILLSIDE AV,,40.615681,-74.087654,,,0,
968,202185,VAN DUZER ST/VANDERBILT AV,,40.613728,-74.087326,,,0,
969,202187,RICHMOND RD/DE KALB ST,,40.610015999999995,-74.089539,,,0,
970,202205,RICHMOND RD/MIDLAND AV,,40.582283000000004,-74.110268,,,0,
971,202206,RICHMOND RD/LINCOLN AV,,40.581103999999996,-74.11264,,,0,
972,202207,RICHMOND RD/TODT HILL RD,,40.580402,-74.11369300000001,,,0,
973,202208,RICHMOND RD/BANCROFT AV,,40.578967999999996,-74.11515,,,0,
974,202209,RICHMOND RD/ALTAMONT ST,,40.577641,-74.11782099999999,,,0,
975,202210,RICHMOND RD/STEELE AV,,40.576397,-74.11885799999999,,,0,
976,202228,ARTHUR KILL RD/GIFFORDS LA,,40.564265999999996,-74.155609,,,0,
977,202229,ARTHUR KILL RD/ELVERTON AV,,40.562862,-74.15696700000001,,,0,
978,202230,ARTHUR KILL RD/BROOKFIELD AV,,40.561909,-74.159492,,,0,
979,202231,ARTHUR KILL RD/ARMSTRONG AV,,40.561091999999995,-74.162109,,,0,
980,202232,ARTHUR KILL RD/RIDGEWOOD AV,,40.560184,-74.16516899999999,,,0,
981,202234,ARTHUR KILL RD/CROSSFIELD AV,,40.563065,-74.175667,,,0,
982,202235,ARTHUR KILL RD/ANNADALE RD,,40.563774,-74.177483,,,0,
983,202236,ARTHUR KILL RD/WOODROW RD,,40.565182,-74.181084,,,0,
984,202237,ARTHUR KILL RD/1547 ARTHUR KILL RD,,40.562571999999996,-74.191994,,,0,
985,202239,ARTHUR KILL RD/ARDEN AV,,40.558578000000004,-74.19811999999999,,,0,
986,202240,ARTHUR KILL RD/CARLYLE GREEN,,40.556976,-74.199753,,,0,
987,202241,ARTHUR KILL RD E/VETERANS RD E,,40.55669,-74.20399499999999,,,0,
988,202242,ARTHUR KILL RD/WEST SERVICE RD,,40.557635999999995,-74.207169,,,0,
989,202248,ARTHUR KILL RD /CORRECTIONAL FACILITY,,40.547989,-74.226318,,,0,
990,202249,ARTHUR KILL RD/JOHNSON ST,,40.54525,-74.23092700000001,,,0,
991,202253,ARTHUR KILL RD/SHARROTTS RD,,40.53796,-74.237373,,,0,
992,202254,ARTHUR KILL RD/WINANT PL,,40.536285,-74.23736600000001,,,0,
993,202255,ARTHUR KILL RD/ANDROVETTE ST,,40.534546,-74.23610699999999,,,0,
994,202256,ARTHUR KILL RD/ALLENTOWN LA,,40.527896999999996,-74.23943299999999,,,0,
995,202260,ARTHUR KILL RD/NASSAU PL,,40.518555,-74.240364,,,0,
996,202262,ARTHUR KILL RD/WOOD AV,,40.514835,-74.245743,,,0,
997,202263,ARTHUR KILL RD/YETMAN AV,,40.513943,-74.247147,,,0,
998,202264,ARTHUR KILL RD/MAIN ST,,40.512478,-74.249969,,,0,
999,202275,FOSTER RD/AMBOY RD,,40.52718,-74.201324,,,0,
1000,202277,FOSTER RD/DRUMGOOLE RD W,,40.532734000000005,-74.203133,,,0,
1001,202278,FOSTER RD/DARLINGTON AV,,40.53413,-74.203796,,,0,
1002,202279,FOSTER RD/RAMONA AV,,40.536728000000004,-74.20503199999999,,,0,
1003,202280,FOSTER RD/SINCLAIR AV,,40.539134999999995,-74.206154,,,0,
1004,202289,ARTHUR KILL RD/VETERANS RD E,,40.556278000000006,-74.203804,,,0,
1005,202292,ARDEN AV/ARTHUR KILL RD,,40.558516999999995,-74.197502,,,0,
1006,202293,ARDEN AV/DOVER GREEN,,40.557632,-74.19651800000001,,,0,
1007,202294,ARDEN AV/FOREST GREEN,,40.555756,-74.194641,,,0,
1008,202295,ARDEN AV/HAMPTON GREEN,,40.554943,-74.19375600000001,,,0,
1009,202304,ANNADALE RD/NORTH PINE TER,,40.537937,-74.178825,,,0,
1010,202305,ANNADALE RD/AMBOY RD,,40.536137,-74.18064100000001,,,0,
1011,202306,AMBOY RD/ALVINE AV,,40.535229,-74.183128,,,0,
1012,202307,AMBOY RD/ARBUTUS AV,,40.534184,-74.186195,,,0,
1013,202309,AMBOY RD/HUGUENOT AV,,40.532021,-74.191696,,,0,
1014,202329,AMBOY RD/KINGDOM AV,,40.532558,-74.1903,,,0,
1015,202330,AMBOY RD/ARBUTUS AV,,40.534027,-74.186348,,,0,
1016,202331,AMBOY RD/RUGGLES ST,,40.534946000000005,-74.183701,,,0,
1017,202332,ANNADALE RD/AMBOY RD,,40.536118,-74.180527,,,0,
1018,202333,ANNADALE RD/HILLIS ST,,40.53857,-74.17794,,,0,
1019,202334,ANNADALE RD/SOUTH RAILROAD ST,,40.539913,-74.177139,,,0,
1020,202335,ANNADALE RD/ARDEN AV,,40.544777,-74.17617,,,0,
1021,202383,NEW DORP LA/ROMA AV,,40.565952,-74.100533,,,0,
1022,202384,NEW DORP LA/FINLEY AV,,40.566673,-74.102005,,,0,
1023,202385,NEW DORP LA/WINHAM ST,,40.567421,-74.103569,,,0,
1024,202386,NEW DORP LA/CUBA AV,,40.568172,-74.105164,,,0,
1025,202387,NEW DORP LA/MILL RD,,40.568813,-74.106514,,,0,
1026,202388,NEW DORP LA/HYLAN BL,,40.570442,-74.109489,,,0,
1027,202389,NEW DORP LA/CLAWSON ST,,40.571467999999996,-74.111488,,,0,
1028,202390,NEW DORP LA/EDISON ST,,40.572643,-74.113708,,,0,
1029,202391,NEW DORP LA/NEW DORP PZ,,40.574146,-74.11655400000001,,,0,
1030,202453,VAN DUZER ST/ROFF ST,,40.617249,-74.086586,,,0,
1031,202482,NEW DORP LA/NEW DORP PZ,,40.573966999999996,-74.116539,,,0,
1032,202483,NEW DORP LA/10 ST,,40.572521,-74.113739,,,0,
1033,202484,NEW DORP LA/CLAWSON ST,,40.571647999999996,-74.112099,,,0,
1034,202486,NEW DORP LA/MILL RD,,40.568596,-74.10635400000001,,,0,
1035,202487,NEW DORP LA/CUBA AV,,40.567867,-74.10479000000001,,,0,
1036,202488,NEW DORP LA/WINHAM AV,,40.56712,-74.10321,,,0,
1037,202489,NEW DORP LA/FINLEY AV,,40.566395,-74.101715,,,0,
1038,202490,NEW DORP LA/ROMA AV,,40.565624,-74.10013599999999,,,0,
1039,202491,NEW DORP LA/CEDAR GROVE AV,,40.564526,-74.097862,,,0,
1040,202494,CEDAR GROVE AV/TOPPING ST,,40.562271,-74.099625,,,0,
1041,202501,MILL RD/EBBITTS ST,,40.564049,-74.110535,,,0,
1042,202502,MILL RD/ISERNIA AV,,40.56263,-74.111542,,,0,
1043,202503,MILL RD/TYSENS LA,,40.561623,-74.112259,,,0,
1044,202519,VANDERBILT AV/TOMPKINS AV,,40.620135999999995,-74.077271,,,0,
1045,202522,MORNINGSTAR RD/INNIS ST,,40.634388,-74.145691,,,0,
1046,202524,VICTORY BL/WILD AV,,40.587334000000006,-74.197815,,,0,
1047,202532,RICHMOND TER/SNUG HARBOR RD,,40.645191,-74.104927,,,0,
1048,202536,GRANDVIEW AV/FOREST AV,,40.627571,-74.165352,,,0,
1049,202537,GRANDVIEW AV/CONTINENTAL PL,,40.630584999999996,-74.165237,,,0,
1050,202538,ST GEORGE FERRY/S46 & S96,,40.643429,-74.073654,,,0,
1051,202545,AMBOY RD/BEHAN CT,,40.570434999999996,-74.12262,,,0,
1052,202546,BRIELLE AV/ROANOKE ST,,40.597244,-74.132622,,,0,
1053,202548,BRADLEY AV/VICTORY BL,,40.612049,-74.132385,,,0,
1054,202549,AMBOY RD/BEACH AV,,40.57185,-74.12151300000001,,,0,
1055,202550,AMBOY RD/THOMAS ST,,40.566154,-74.128922,,,0,
1056,202553,TYSENS LA/FALCON AV,,40.562709999999996,-74.114189,,,0,
1057,202563,CLYDE PL/ARNOLD ST,,40.639114,-74.090187,,,0,
1058,202567,HYLAN BL/BEACH AV,,40.567913,-74.11215200000001,,,0,
1059,202569,ST GEORGE FERRY/S44 & S94,,40.643654,-74.073471,,,0,
1060,202572,RICHMOND RD/NEW DORP LA,,40.575821000000005,-74.120094,,,0,
1061,202577,ST GEORGE FERRY/S40 & S90,,40.643402,-74.074066,,,0,
1062,202579,ST GEORGE FERRY/S42 & S52,,40.643539000000004,-74.073326,,,0,
1063,202581,RICHMOND RD/BARTON AV,,40.584091,-74.107323,,,0,
1064,202586,BROADWAY/RICHMOND TER,,40.639839,-74.11794300000001,,,0,
1065,202588,VICTORY BL/SPARKS LA,,40.602177000000005,-74.174873,,,0,
1066,202589,VICTORY BL/DINSMORE ST,,40.604836,-74.170609,,,0,
1067,202590,VICTORY BL/RICHMOND AV,,40.607098,-74.162766,,,0,
1068,202592,ST GEORGE FERRY/S62 & S92,,40.643177,-74.074303,,,0,
1069,202600,MORNINGSTAR RD/KALVER PL,,40.632431,-74.146576,,,0,
1070,202601,ST PAULS AV/PAXTON ST,,40.632942,-74.07914,,,0,
1071,202602,HYLAN BL/OTIS AV,,40.573387,-74.106651,,,0,
1072,202603,CLOVE RD/CHESHIRE PL,,40.618084,-74.105087,,,0,
1073,202604,VICTORY BL/LABAU AV,,40.615028,-74.107506,,,0,
1074,202605,HYLAN BL/YETMAN AV,,40.504847999999996,-74.24202700000001,,,0,
1075,202608,HAMILTON AV/EGMONT PL,,40.645115000000004,-74.084198,,,0,
1076,202610,ARTHUR KILL RD/1297 ARTHUR KILL RD,,40.565459999999995,-74.1838,,,0,
1077,202611,ARTHUR KILL RD/CORBIN AV,,40.566708,-74.153137,,,0,
1078,202613,ST MARKS PL/83 ST MARKS PL,,40.646618,-74.083534,,,0,
1079,202615,VICTORY BL/SILVER MT CEM,,40.622211,-74.096436,,,0,
1080,202616,RICHMOND AV/ARMAND ST,,40.618988,-74.154434,,,0,
1081,202618,YUKON AV/WATCHMANS OFFICE,,40.574875,-74.16546600000001,,,0,
1082,202620,ARTHUR KILL RD/LADD AV,,40.561896999999995,-74.17244000000001,,,0,
1083,202622,PORT RICHMOND AV/HOOKER PL,,40.630348,-74.13988499999999,,,0,
1084,202625,VICTORY BL/INGRAM AV,,40.612259,-74.13646700000001,,,0,
1085,202626,FINGERBOARD RD/NARROWS RD S,,40.603747999999996,-74.06933599999999,,,0,
1086,202628,ARTHUR KILL RD/TELEPHONE CO,,40.555901,-74.213303,,,0,
1087,202631,ANNADALE RD/SOUTH RAILROAD ST,,40.539936,-74.177299,,,0,
1088,202632,LUTEN AV/EYLANDT ST,,40.527,-74.191353,,,0,
1089,202635,SEGUINE AV/KNOX ST,,40.523003,-74.199326,,,0,
1090,202641,LUTEN AV/EYLANDT ST,,40.526996999999994,-74.191162,,,0,
1091,202646,RICHMOND AV/SHIRLEY AV,,40.537548,-74.158699,,,0,
1092,202647,PORT RICHMOND AV/DIXON AV,,40.627331,-74.142426,,,0,
1093,202650,RICHMOND AV/FOREST ST,,40.605724,-74.162399,,,0,
1094,202651,RICHMOND RD/ST PATRICKS PL,,40.572037,-74.14380600000001,,,0,
1095,202652,CEDER GROVE AV/WAVE CREST AV,,40.563477,-74.098541,,,0,
1096,202657,HYLAN BL/WENDY DR,,40.526684,-74.178276,,,0,
1097,202658,JERSEY ST/PAUW ST,,40.640057,-74.087227,,,0,
1098,202659,RICHMOND AV/AMSTERDAM PL,,40.600132,-74.163025,,,0,
1099,202660,VICTORY BL/CYPRESS AV,,40.614761,-74.10878000000001,,,0,
1100,202661,VICTORY BL/CHESHIRE PL,,40.619499,-74.100052,,,0,
1101,202663,VICTORY BL/INGRAM AV,,40.612213,-74.135719,,,0,
1102,202664,HYLAN BL/PACIFIC AV,,40.53632,-74.151794,,,0,
1103,202665,HYLAN BL/WINCHESTER AV,,40.535309000000005,-74.152969,,,0,
1104,202669,VICTORY BL/SIMMONS LA,,40.594921,-74.18504300000001,,,0,
1105,202672,VICTORY BL/3485 VICTORY BL,,40.602402000000005,-74.174767,,,0,
1106,202678,ROCKLAND AV/BRIELLE AV,,40.589005,-74.13839,,,0,
1107,202681,RICHMOND AV/SIGNS RD,,40.602016,-74.16310899999999,,,0,
1108,202683,WALKER ST/TRANTOR PL,,40.630565999999995,-74.14415,,,0,
1109,202684,WALKER ST/TRANTOR PL,,40.630623,-74.143745,,,0,
1110,202685,MORNINGSTAR RD/WALKER ST,,40.631046000000005,-74.147064,,,0,
1111,202686,EBBITTS ST/HYLAN BL,,40.565525,-74.112297,,,0,
1112,202692,VICTORY BL/SILVER LAKE APTS,,40.620934000000005,-74.098007,,,0,
1113,202693,ST GEORGE FERRY/RAMP A BAY 2,,40.643356,-74.072914,,,0,
1114,202697,TRAVIS AV/NEHRING AV,,40.589783000000004,-74.156715,,,0,
1115,202699,TRAVIS AV/EVANS ST,,40.586403000000004,-74.150574,,,0,
1116,202700,TRAVIS AV/LEWISTON ST,,40.585621,-74.14901,,,0,
1117,202702,FOREST HILL RD/FIELD ST,,40.594528000000004,-74.142914,,,0,
1118,202703,FOREST HILL RD/STEERS ST,,40.596855,-74.14116700000001,,,0,
1119,202704,FOREST HILL RD/DOROTHY ST,,40.59848,-74.139969,,,0,
1120,202705,HAROLD ST/FOREST HILL RD,,40.600689,-74.13930500000001,,,0,
1121,202707,HAROLD ST/SUNSET AV,,40.60107,-74.13414,,,0,
1122,202708,HAROLD ST/BRADLEY AV,,40.601318,-74.131477,,,0,
1123,202709,HAROLD ST/ROOSEVELT AV,,40.601345,-74.132614,,,0,
1124,202710,HAROLD ST/SUNSET AV,,40.601147,-74.13499499999999,,,0,
1125,202711,HAROLD ST/JOSEPH AV,,40.60096,-74.13717700000001,,,0,
1126,202712,HAROLD ST/FOREST HILL RD,,40.600803000000006,-74.14007600000001,,,0,
1127,202715,FOREST HILL RD/1150 FOREST HILL RD,,40.591384999999995,-74.145515,,,0,
1128,202716,TRAVIS AV/BOGOTA ST,,40.585654999999996,-74.148697,,,0,
1129,202717,TRAVIS AV/EVANS ST,,40.586864,-74.151108,,,0,
1130,202718,TRAVIS AV/DENKER PL,,40.588757,-74.15454100000001,,,0,
1131,202719,TRAVIS AV/NEHRING AV,,40.590233000000005,-74.157166,,,0,
1132,202720,MERRYMOUNT ST/TRAVIS AV,,40.590637,-74.158897,,,0,
1133,202721,MERRYMOUNT ST/SHILOH ST,,40.588776,-74.160698,,,0,
1134,202724,ARTHUR KILL RD/CORBIN AV,,40.567001,-74.152611,,,0,
1135,202725,ARTHUR KILL RD/FRANKLIN LA,,40.568676,-74.150795,,,0,
1136,202726,ARTHUR KILL RD/MILES AV,,40.565163,-74.155106,,,0,
1137,202733,OLYMPIA BL/ANDREWS ST,,40.592323,-74.07268499999999,,,0,
1138,202738,RICHMOND TER/PARK AV,,40.639728999999996,-74.130142,,,0,
1139,202740,RICHMOND TER/PARK AV,,40.640045,-74.13063000000001,,,0,
1140,202741,PARK AV/RICHMOND TE,,40.639846999999996,-74.13069200000001,,,0,
1141,202744,RICHMOND TER/PARK AV #3,,40.640167,-74.130966,,,0,
1142,202775,BRIGHTON AV / CASTLETON AV,,40.634128999999994,-74.097267,,,0,
1143,202782,POST AV/PORT RICHMOND AV,,40.633938,-74.135971,,,0,
1144,202784,POST AV/PORT RICHMOND AV,,40.633694,-74.13589499999999,,,0,
1145,202785,HYLAN BL/SPRATT AV,,40.555134,-74.129478,,,0,
1146,202786,AMBOY RD/1 ST,,40.574177,-74.121689,,,0,
1147,202787,CLOVE RD/FOOTE AV,,40.613358000000005,-74.100533,,,0,
1148,202788,CANAL ST/WRIGHT ST,,40.626331,-74.077965,,,0,
1149,202800,ARTHUR KILL RD/UNITED HEB CEM,,40.570488,-74.148315,,,0,
1150,202801,BAY ST/VIRGINIA AV,,40.615864,-74.06736,,,0,
1151,202802,OLGA PL/HYLAN BL,,40.604118,-74.076149,,,0,
1152,202809,RICHMOND TER/ARLINGTON AV,,40.640606,-74.167274,,,0,
1153,202823,SOUTH AV/RICHMOND TER,,40.640133,-74.166122,,,0,
1154,202824,SOUTH AV/ARLINGTON PL,,40.635428999999995,-74.16628299999999,,,0,
1155,202830,SOUTH AV/CABLE WAY,,40.629771999999996,-74.166519,,,0,
1156,202839,RICHMOND AV/MARC ST,,40.620346000000005,-74.152641,,,0,
1157,202840,MARSH AV/RICHMOND HILL RD,,40.584267,-74.160629,,,0,
1158,202841,MARSH AV/ELMWOOD PK DR,,40.581512,-74.162575,,,0,
1159,202842,MARSH AV/WINDHAM LOOP,,40.578094,-74.163536,,,0,
1160,202844,PLATINUM AV/TOYS R US,,40.578247,-74.167366,,,0,
1161,202845,RICHMOND AV/YUKON AV,,40.576012,-74.16951800000001,,,0,
1162,202846,INDEPENDENCE AV/PATHMARK,,40.574009000000004,-74.168686,,,0,
1163,202849,MARSH AV/ELMWOOD PK DR,,40.580849,-74.163078,,,0,
1164,202850,MARSH AV/WINDHAM LOOP,,40.57785,-74.163818,,,0,
1165,202855,RICHMOND AV/KOCH BL,,40.538651,-74.15973699999999,,,0,
1166,202856,HYLAN BL/RICHMOND AV,,40.534259999999996,-74.154213,,,0,
1167,202861,ARTHUR KILL RD/ST JOHN NEWMANN,,40.564147999999996,-74.186485,,,0,
1168,202864,ST GEORGE FERRY/S74 & S84,,40.643184999999995,-74.073814,,,0,
1169,202881,ST GEORGE FERRY/S48 & S98,,40.643475,-74.073555,,,0,
1170,202884,ARDEN AV/DOVER GREEN,,40.557784999999996,-74.196487,,,0,
1171,202885,ARDEN AV/FOREST GREEN,,40.555973,-74.194618,,,0,
1172,202886,ARDEN AV/HAMPTON GREEN,,40.554844,-74.193451,,,0,
1173,202887,ARDEN AV/CORRELL AV,,40.552353000000004,-74.190857,,,0,
1174,202888,ARDEN AV/WOODROW RD,,40.550411,-74.187935,,,0,
1175,202889,WOODROW RD/HOLCOMB AV,,40.547543,-74.190407,,,0,
1176,202890,WOODROW RD/DELMAR AV,,40.545967,-74.192886,,,0,
1177,202892,WOODROW RD/DESEREE AV,,40.542465,-74.201225,,,0,
1178,202893,WOODROW RD/FOSTER RD,,40.541706,-74.206604,,,0,
1179,202894,FOSTER RD/ALBOURNE AV,,40.529522,-74.202492,,,0,
1180,202897,HYLAN BL/LUTEN AV,,40.523014,-74.188553,,,0,
1181,202899,SEGUINE AV/WATERBURY AV,,40.524967,-74.20075200000001,,,0,
1182,202903,FOSTER RD/DRUMGOOLE RD E,,40.53159,-74.202957,,,0,
1183,202904,FOSTER RD/DARLINGTON AV,,40.533530999999996,-74.20366700000001,,,0,
1184,202905,FOSTER RD/RATBURN AV,,40.536877000000004,-74.205261,,,0,
1185,202906,FOSTER RD/SINCLAIR AV,,40.53886,-74.206192,,,0,
1186,202907,FOSTER RD/WOODROW RD,,40.541477,-74.20706899999999,,,0,
1187,202908,WOODROW RD/ALVERSON AV,,40.542053,-74.20517,,,0,
1188,202909,WOODROW RD/ELLSWORTH AV,,40.54295,-74.200165,,,0,
1189,202910,WOODROW RD/VINELAND AV,,40.543461,-74.197227,,,0,
1190,202911,WOODROW RD/DELMAR AV,,40.546131,-74.192902,,,0,
1191,202912,WOODROW RD/CANTON AV,,40.547740999999995,-74.19032299999999,,,0,
1192,202913,WOODROW RD/ALMOND ST,,40.549656,-74.18808,,,0,
1193,202914,ARDEN AV/ROLLING HILL GREEN,,40.551792,-74.19051400000001,,,0,
1194,202917,RICHMOND AV/FOREST HILL RD,,40.570877,-74.16954799999999,,,0,
1195,202918,ANNADALE RD/TOKEN ST,,40.561690999999996,-74.177193,,,0,
1196,202921,ANNADALE RD/GENESEE AV,,40.55191,-74.17527,,,0,
1197,202922,ANNADALE RD/RYE AV,,40.546844,-74.174904,,,0,
1198,202923,ANNADALE RD/ARDEN AV,,40.5443,-74.176773,,,0,
1199,202924,ANNADALE RD/GRANTWOOD AV,,40.547588,-74.175087,,,0,
1200,202925,ANNADALE RD/NOTUS AV,,40.550903000000005,-74.17529300000001,,,0,
1201,202926,ANNADALE RD/DRUMGOOLE RD W,,40.555510999999996,-74.17614,,,0,
1202,202927,ANNADALE RD/DORVAL PL,,40.558624,-74.176781,,,0,
1203,202931,MARSH AV/RICHMOND HILL RD,,40.584576,-74.160721,,,0,
1204,202933,RICHMOND RD/SPRUCE ST,,40.572829999999996,-74.138458,,,0,
1205,202934,SEGUINE AV/DIRENZO CT,,40.520309000000005,-74.197502,,,0,
1206,202935,FOREST AV/WILLOW RD W,,40.625023,-74.147049,,,0,
1207,202936,FOREST AV/BRIGHTON AV,,40.631966,-74.096863,,,0,
1208,202937,FOREST HILL RD/ROCKLAND AV,,40.589034999999996,-74.145737,,,0,
1209,202939,ANNADLE RD/TYNAN ST,,40.56255,-74.177513,,,0,
1210,202941,CLOVE RD/NIAGARA ST,,40.615528000000005,-74.10294300000001,,,0,
1211,202977,VICTORY BL/WHEELER AV,,40.612427000000004,-74.131454,,,0,
1212,202978,MANOR RD/FOREST AV,,40.626957,-74.125046,,,0,
1213,202981,BEACH ST/WATER ST,,40.627361,-74.076675,,,0,
1214,202985,FOREST AV/SOUTH AV,,40.627594,-74.16642,,,0,
1215,202989,LILY POND AV/MAJOR AV,,40.600132,-74.064468,,,0,
1216,202990,RICHMOND HILL RD/VASSAR ST,,40.586159,-74.16256,,,0,
1217,202991,RICHMOND HILL RD/VASSAR ST,,40.585777,-74.16226999999999,,,0,
1218,202993,PARK AV/RICHMOND TER #2,,40.639946,-74.130585,,,0,
1219,202994,RICHMOND TER/UNION AV,,40.636776,-74.157555,,,0,
1220,202995,RICHMOND TER/LAFAYETTE AV,,40.644740999999996,-74.096085,,,0,
1221,202998,FOREST AV/LILAC CT,,40.627514,-74.167763,,,0,
1222,203001,ANNADALE RD/CROSSFIELD AV,,40.557583,-74.176346,,,0,
1223,203002,WOODROW RD/VINELAND AV,,40.543644,-74.19671600000001,,,0,
1224,203006,ST GEORGE FERRY/S61 & S91,,40.643169,-74.073494,,,0,
1225,203008,MIDLAND AV/MASON AV,,40.575066,-74.09832800000001,,,0,
1226,203009,BRIELLE AV/BABE RUTH STADIUM,,40.594376000000004,-74.135124,,,0,
1227,203012,RICHMOND RD/ROSE AV,,40.575111,-74.121307,,,0,
1228,203013,HYLAN BL/W FINGERBOARD RD,,40.600311,-74.072014,,,0,
1229,203016,HYLAN BL/NAUGHTON AV,,40.584064,-74.09506999999999,,,0,
1230,203017,SEGUINE AV/WATERBURY AV,,40.525295,-74.200813,,,0,
1231,203018,BRADLEY AV/BRIELLE AV,,40.598392,-74.131294,,,0,
1232,203026,HAROLD ST/WASHINGTON AV,,40.60091,-74.135986,,,0,
1233,203028,ROCKLAND AV/ST GEORGE RD,,40.577698,-74.127266,,,0,
1234,203030,CLOVE RD/CARY AV,,40.631603000000005,-74.124748,,,0,
1235,203031,CLOVE RD/CASTLETON AV,,40.633743,-74.125862,,,0,
1236,203032,CASTLETON AV/CLOVE RD,,40.633842,-74.12539699999999,,,0,
1237,203034,BROADWAY/CARY AV,,40.632771000000005,-74.11692,,,0,
1238,203035,BROADWAY/DELAFIELD AV,,40.630821000000005,-74.116577,,,0,
1239,203036,BROADWAY/FOREST AV,,40.629044,-74.116272,,,0,
1240,203037,BROADWAY/W RALEIGH AV,,40.626957,-74.115379,,,0,
1241,203038,BROADWAY/COLONIAL CT,,40.625523,-74.114639,,,0,
1242,203039,BROADWAY/CLOVE RD,,40.623325,-74.11350300000001,,,0,
1243,203040,BROADWAY/COUGHLIN AV,,40.624187,-74.113792,,,0,
1244,203043,BROADWAY/FOREST AV,,40.628784,-74.116104,,,0,
1245,203044,BROADWAY/DELAFIELD AV,,40.630688,-74.11643199999999,,,0,
1246,203045,BROADWAY/CARY AV,,40.632565,-74.116753,,,0,
1247,203046,BROADWAY/CASTLETON AV,,40.634392,-74.117088,,,0,
1248,203047,CLOVE RD/POST AV,,40.631802,-74.125015,,,0,
1249,203048,CLOVE RD/DELEFIELD AV,,40.629329999999996,-74.123337,,,0,
1250,203049,MANOR RD/FOREST AV,,40.626839000000004,-74.12513,,,0,
1251,203050,VICTORY BL/S GREENLEAF AV,,40.612984000000004,-74.125038,,,0,
1252,203051,JERSEY ST/CARLYLE ST,,40.642016999999996,-74.08671600000001,,,0,
1253,203052,CLOVE RD/TIOGA ST,,40.612503000000004,-74.099556,,,0,
1254,203057,RICHMOND RD/OLD TOWN RD,,40.597221000000005,-74.092949,,,0,
1255,203059,RICHMOND RD/RARITAN AV,,40.594444,-74.09916700000001,,,0,
1256,203061,GOETHALS RD N/MOBILE PK ROW,,40.627705,-74.18066400000001,,,0,
1257,203063,FOREST AV/HAMLIN PL,,40.626408000000005,-74.133728,,,0,
1258,203065,NEW DORP LA/NEW DORP PZ,,40.574127000000004,-74.116524,,,0,
1259,203066,FR CAPODANNO BL/LINDA AV,,40.592861,-74.063614,,,0,
1260,203067,VICTORY BL/CATERET ST FERRY,,40.586575,-74.199394,,,0,
1261,203068,MAIN ST/CRAIG AV,,40.510155,-74.248062,,,0,
1262,203069,MAIN ST/CRAIG AV,,40.510319,-74.248192,,,0,
1263,203071,ARTHUR KILL RD/STORER AV,,40.539974,-74.237503,,,0,
1264,203072,ARTHUR KILL RD/STORER AV,,40.539509,-74.237587,,,0,
1265,203073,NEW DORP LA/HYLAN BL,,40.569621999999995,-74.108368,,,0,
1266,203074,FOREST HILL RD/STEERS  ST,,40.596844,-74.141426,,,0,
1267,203075,RICHMOND AV/AUGUSTA AV,,40.552063000000004,-74.16800699999999,,,0,
1268,203078,RICHMOND AV/YUKON AV,,40.576378000000005,-74.170013,,,0,
1269,203080,ARTHUR KILL RD/ARDEN HGHTS SHOP,,40.562447,-74.1922,,,0,
1270,203081,ROSE AV/NEW DORP PZ,,40.573153999999995,-74.11766800000001,,,0,
1271,203082,HYLAN BL/RENO AV,,40.564598,-74.115501,,,0,
1272,203083,FR CAPODANNA BL / SAND LA,,40.590076,-74.066795,,,0,
1273,203087,SOUTH AV/BRABANT ST,,40.631901,-74.166412,,,0,
1274,203088,VICTORY BL/RIDGEWAY AV,,40.595993,-74.18351,,,0,
1275,203092,VICTORY BL/SILVER LAKE APTS,,40.620899,-74.09828900000001,,,0,
1276,203093,ARTHUR KILL RD/RIDGEWOOD AV,,40.560261,-74.166069,,,0,
1277,203095,HYLAN BL/W FINGERBOARD RD,,40.59853,-74.072639,,,0,
1278,203096,FR CAPODANNO BL/ALTER AV,,40.581493,-74.07547,,,0,
1279,203097,FR CAPODANNO BL/CROMWELL AV,,40.579903,-74.077263,,,0,
1280,203098,EBBITTS ST/HYLAN BL,,40.565968,-74.113136,,,0,
1281,203100,BROADWAY/E RALEIGH AV,,40.627499,-74.11554699999999,,,0,
1282,203102,RICHMOND TER/TAYLOR ST,,40.637802,-74.123993,,,0,
1283,203104,FR CAPODANNO BL/ATLANTIC AV,,40.582985,-74.073799,,,0,
1284,203105,FR CAPODANNO BL/EVERGREEN AV,,40.584152,-74.07270799999999,,,0,
1285,203110,RICHMOND AV/RIVINGTON AV,,40.597664,-74.162254,,,0,
1286,203113,ARTHUR KILL RD/NEWVALE AV,,40.568832,-74.150314,,,0,
1287,203116,TOMPKINS AV/CHESTNUT AV,,40.615353000000006,-74.07325,,,0,
1288,203117,AMBOY RD/KINGDOM AV,,40.532833000000004,-74.190178,,,0,
1289,203118,ARTHUR KILL RD/1666 ARTHUR KILL RD,,40.561214,-74.19497700000001,,,0,
1290,203128,RICHMOND RD/DELLWOOD RD,,40.597134000000004,-74.09335300000001,,,0,
1291,203130,CEDAR GROVE AV/GARIBALDI AV,,40.56171,-74.100189,,,0,
1292,203131,HYLAN BL/ARBUTUS AV,,40.526053999999995,-74.180687,,,0,
1293,203133,MERRYMOUNT ST/SHILOH ST,,40.588936,-74.160271,,,0,
1294,203141,VICTORY BL/3599 VICTORY BL,,40.600639,-74.177162,,,0,
1295,203146,GIFFORDS LANE/ARTHUR KILL RD,,40.563365999999995,-74.155739,,,0,
1296,203147,GIFFORDS LA/GURLEY AV,,40.561195,-74.154861,,,0,
1297,203148,DELAFIELD AV/MANOR RD,,40.628284,-74.125359,,,0,
1298,203149,EBBITTS ST/CUBA AV,,40.56353,-74.108757,,,0,
1299,203150,EBBITTS ST/MANILA PL,,40.56266,-74.107033,,,0,
1300,203151,EBBITTS ST/FINLEY AV,,40.561825,-74.105408,,,0,
1301,203152,EBBITTS ST/ROMA AV,,40.561188,-74.104301,,,0,
1302,203153,EBBITTS ST/CEDAR GROVE AV,,40.559914,-74.10192099999999,,,0,
1303,203154,CEDAR GROVE AV/CEDAR GROVE CT,,40.560795,-74.100853,,,0,
1304,203155,CEDAR GROVE AV/NEW DORP LA,,40.564358,-74.097679,,,0,
1305,203156,EBBITTS ST/CUBA AV,,40.563705,-74.10883299999999,,,0,
1306,203157,EBBITTS ST/WINHAM AV,,40.562767,-74.10695600000001,,,0,
1307,203158,EBBITTS ST/FINLEY AV,,40.561985,-74.10543100000001,,,0,
1308,203159,EBBITTS ST/ROMA AV,,40.561184000000004,-74.104012,,,0,
1309,203161,WATCHOGUE RD/LIVERMORE AV,,40.616077000000004,-74.13859599999999,,,0,
1310,203162,CEDAR GROVE AV/MAPLE TER,,40.563084,-74.09880799999999,,,0,
1311,203163,WATCHOGUE RD/NEAL DOW AV,,40.615627,-74.135818,,,0,
1312,203164,WATCHOGUE RD/FREDERICK ST,,40.614594,-74.1334,,,0,
1313,203165,WATCHOGUE RD/FREDERICK ST,,40.614742,-74.133415,,,0,
1314,203166,WATCHOGUE RD/NEAL DOW AV,,40.615875,-74.136459,,,0,
1315,203167,WATCHOGUE RD/LIVERMORE AV,,40.616287,-74.139297,,,0,
1316,203173,FR CAPODANNO BL/HEMPSTEAD AV,,40.571220000000004,-74.09004200000001,,,0,
1317,203174,AMBOY RD/THOMAS ST,,40.566544,-74.128105,,,0,
1318,203175,VICTORY BL/opp Con Edison,,40.586791999999996,-74.19914200000001,,,0,
1319,203180,FOSTER RD/ALBOURNE AV,,40.529243,-74.202538,,,0,
1320,203183,ARTHUR KILL RD/FISHER AV,,40.515598,-74.244438,,,0,
1321,203184,PORT RICHMOND AV/SMITH PL,,40.626015,-74.142975,,,0,
1322,203190,BAY ST/VAN DUZER EXT,,40.635056,-74.075592,,,0,
1323,203192,AMBOY RD/FINLEY ST,,40.508102,-74.249893,,,0,
1324,203197,PLATINUM AV/SEARS,,40.578049,-74.16655,,,0,
1325,203199,RING RD/SEARS PLATINUM AV,,40.580096999999995,-74.16840400000001,,,0,
1326,203200,VICTORY BL/WILLOWBROOK PK,,40.608727,-74.154083,,,0,
1327,203204,TARGEE ST/DOCTORS HOSPITAL,,40.603485,-74.091148,,,0,
1328,203205,BAY ST/Bayley Seton Hospital,,40.623837,-74.073914,,,0,
1329,203206,VICTORY BL/SHENANDOAH AV,,40.598347,-74.180199,,,0,
1330,203208,ARTHUR KILL RD/CEMETERY 1 GATE,,40.570946,-74.147926,,,0,
1331,203209,FOSTER RD/WHEELING AV,,40.527279,-74.201553,,,0,
1332,203210,BRADLEY AV/PORTAGE AV,,40.599976,-74.13114200000001,,,0,
1333,203214,GIFFORDS LA/BARLOW AV,,40.559696,-74.153999,,,0,
1334,203215,GIFFORDS LA/GURLEY AV,,40.561687,-74.154877,,,0,
1335,203222,RICHMOND TER/SNUG HARBOR RD,,40.645405,-74.104637,,,0,
1336,203225,VANDERBILT AV/BAYLEY SETON HOSPITAL,,40.622310999999996,-74.07309000000001,,,0,
1337,203226,FR CAPODANNO BL/SAND LA,,40.590107,-74.06707,,,0,
1338,203228,FR CAPODANNO BL/CROMWELL AV,,40.580299,-74.07650799999999,,,0,
1339,203231,SEAVIEW AV/E ENT PSYCH CTR,,40.580172999999995,-74.079285,,,0,
1340,203232,SEAVIEW AV/W ENT PSYCH CTR,,40.581165000000006,-74.081375,,,0,
1341,203236,FR CAPODANNO BL/SEAVIEW AV,,40.579327,-74.077522,,,0,
1342,203238,CEDAR GROVE AV/EBBITTS ST,,40.560059,-74.101685,,,0,
1343,203341,STEUBEN ST/HYLAN BL,,40.598766,-74.07800300000001,,,0,
1344,203342,STEUBEN ST/W FINGERBOARD RD,,40.600792,-74.07639300000001,,,0,
1345,203343,NARROWS RD S/HYLAN BL,,40.605339,-74.07608,,,0,
1346,203344,NARROWS RD S/FINGERBOARD RD,,40.603428,-74.068993,,,0,
1347,203345,NARROWS RD N/FINGERBOARD RD,,40.604595,-74.069366,,,0,
1348,203347,STEUBEN ST/OLGA PL,,40.603775,-74.077713,,,0,
1349,203348,STEUBEN ST/NORMALEE RD,,40.598938000000004,-74.078201,,,0,
1350,203359,TRAVIS AV/DENKER PL,,40.588543,-74.15451800000001,,,0,
1351,203361,HYLAN BL/GOODALL ST,,40.539875,-74.147835,,,0,
1352,203363,WALKER ST/PORT RICHMOND AV,,40.62965,-74.1409,,,0,
1353,203364,HENDERSON AV/CLINTON AV,,40.640343,-74.097488,,,0,
1354,203365,HENDERSON AV/CLINTON AV,,40.640339000000004,-74.09831199999999,,,0,
1355,203368,COLLEGE OF SI/ROADWAY ENT,,40.608771999999995,-74.15325899999999,,,0,
1356,203369,COLLEGE OF SI/ROADWAY ENT,,40.608532000000004,-74.153183,,,0,
1357,203378,BRIGHTON AV/LAFAYETTE AV,,40.635681,-74.09234599999999,,,0,
1358,203379,BAY ST/CLINTON ST,,40.632084000000006,-74.07579799999999,,,0,
1359,203381,SOUTH AV/FOREST AV,,40.627235,-74.166687,,,0,
1360,203382,SOUTH AV/AMADOR ST,,40.623569,-74.167587,,,0,
1361,203383,SOUTH AV/GOETHALS RD N,,40.621696,-74.168495,,,0,
1362,203384,SOUTH AV/TELEPORT DR,,40.607665999999995,-74.179489,,,0,
1363,203386,WEST SHORE PLAZA/CHELSEA ST,,40.602039000000005,-74.190697,,,0,
1364,203387,SOUTH AV/TELEPORT DR,,40.608227,-74.178787,,,0,
1365,203388,SOUTH AV/GOETHALS RD N,,40.621643,-74.16832,,,0,
1366,203389,SOUTH AV/AMADOR ST,,40.624199,-74.167229,,,0,
1367,203390,HYLAN BL/CHELSEA ST,,40.504307,-74.244698,,,0,
1368,203391,SEAVIEW AV/E ENT PSYCH CTR,,40.582275,-74.083961,,,0,
1369,203393,SEGUINE AV/SINGLETON ST,,40.521996,-74.19858599999999,,,0,
1370,203394,SEGUINE AV/OSWALD PL,,40.524075,-74.199936,,,0,
1371,203399,HYLAN BL/ARMSTRONG AV,,40.537571,-74.149986,,,0,
1372,203402,ARLINGTON PL/HOLLAND AV,,40.636002000000005,-74.171074,,,0,
1373,203404,GIFFORDS LA/BALTIMORE ST,,40.551678,-74.15065,,,0,
1374,203406,BRADLEY AV/PURDY AV,,40.610554,-74.132271,,,0,
1375,203407,FOREST AV/ELIZABETH GROVE RD,,40.626469,-74.17486600000001,,,0,
1376,203408,HENDERSON AV/WESTBURY AV,,40.638901000000004,-74.104874,,,0,
1377,203409,VICTORY BL/WILLOW RD,,40.609764,-74.149361,,,0,
1378,203410,VANDERBILT AV/TOMPKINS AV,,40.619965,-74.077179,,,0,
1379,203411,MC CLEAN AV/LILY POND AV,,40.599129,-74.062973,,,0,
1380,203412,NEW YORK AV/DRUM AV- BLDG 120,,40.604248,-74.058784,,,0,
1381,203413,NEW YORK AV/DRUM AV - BLDG 209,,40.604362,-74.05905200000001,,,0,
1382,203414,RICHMOND RD/EDGAR PL,,40.605267,-74.092682,,,0,
1383,203417,VICTORY BL/WILD AV,,40.592163,-74.189644,,,0,
1384,203418,ARLINGTON PL/SOUTH AV,,40.635906,-74.166557,,,0,
1385,203419,ARLINGTON PL/NORTHFIELD AV,,40.635948,-74.168564,,,0,
1386,203420,HOLLAND AV/BENJAMIN PL,,40.639328000000006,-74.171188,,,0,
1387,203423,HOLLAND AV/BENJAMIN PL,,40.637627,-74.17115,,,0,
1388,203426,MIDLAND AV/PATTERSON AV,,40.571201,-74.090897,,,0,
1389,203427,RICHMOND TER/FEDERAL PL,,40.640736,-74.170296,,,0,
1390,203428,SAND LA/FR CAPODANNO BL,,40.590590999999996,-74.06665799999999,,,0,
1391,203429,OLYMPIA BL/PIAVE AV,,40.592831,-74.069008,,,0,
1392,203430,OLYMPIA BL/ORLANDO ST,,40.59285,-74.07034300000001,,,0,
1393,203431,HYLAN BL/RICHMOND AV,,40.534088,-74.15396899999999,,,0,
1394,203433,OLYMPIA BL/ORLANDO ST,,40.59277,-74.070045,,,0,
1395,203438,HYLAN BL/BERTRAM AV,,40.526745,-74.176987,,,0,
1396,203440,LUTEN AV/EYLANDT ST,,40.527172,-74.19158900000001,,,0,
1397,203444,MIDLAND AV/BOUNDARY AV,,40.577304999999996,-74.100975,,,0,
1398,203446,NEW DORP LA/MILL RD,,40.568783,-74.106544,,,0,
1399,203449,ARTHUR KILL RD/CLAY PIT RD,,40.54237,-74.23689300000001,,,0,
1400,203450,ARTHUR KILL RD/KREISCHER ST,,40.5322,-74.23912800000001,,,0,
1401,203453,BRIELLE AV/BABE RUTH STADIUM,,40.594673,-74.135086,,,0,
1402,203454,CASTLETON AV/HAVEN ESPLANADE,,40.63324,-74.092125,,,0,
1403,203455,CLOVE RD/LITTLE CLOVE RD,,40.611492,-74.098549,,,0,
1404,203456,CLOVE RD/ST PETERS CEM ENT,,40.622284,-74.112579,,,0,
1405,203457,CLOVE RD/ST PETERS CEM ENT,,40.622375,-74.11238900000001,,,0,
1406,203460,GIFFORDS LA/BALTIMORE ST,,40.551888,-74.150536,,,0,
1407,203461,HOWARD AV/CAMPUS RD,,40.615555,-74.096405,,,0,
1408,203462,HOWARD AV/HILLSIDE AV,,40.618084,-74.093925,,,0,
1409,203463,HYLAN BL/RICHMOND AV (LOT),,40.53389,-74.153862,,,0,
1410,203464,MC CLEAN AV/RAILROAD AV,,40.598178999999995,-74.066254,,,0,
1411,203466,MIDLAND AV/N RAILROAD AV,,40.580601,-74.107323,,,0,
1412,203469,RICHMOND TER/SAILORS S H GATE,,40.645184,-74.101845,,,0,
1413,203470,ROSE AV/NEW DORP PLZ,,40.573116,-74.117584,,,0,
1414,203471,TARGEE ST/ROFF ST,,40.616882000000004,-74.08473199999999,,,0,
1415,203472,VANDERBILT AV/ERRINGTON PL,,40.621601,-74.07403599999999,,,0,
1416,203474,VICTORY BL/CRYSTAL AV,,40.61095,-74.142685,,,0,
1417,203478,MARSH AV/RING RD,,40.58337,-74.161751,,,0,
1418,203479,RICHMOND TER/VAN NAME AV,,40.636837,-74.152473,,,0,
1419,203480,BROADWAY/COLONIAL CT,,40.626179,-74.11484499999999,,,0,
1420,203481,RICHMOND TER/SNUG HARBOR RD 2,,40.645329,-74.10764300000001,,,0,
1421,203482,MIDLAND AV/COLONY ST,,40.572338,-74.092964,,,0,
1422,203483,HYLAN BL/CRAIG AV,,40.502983,-74.251289,,,0,
1423,203485,CRAIG AV/AMBOY RD,,40.507484000000005,-74.252014,,,0,
1424,203487,SEAVIEW AV/NUGENT AV,,40.583915999999995,-74.086662,,,0,
1425,203491,WILDER AV/WOLVERINE ST,,40.567825,-74.133911,,,0,
1426,203492,WILDER AV/PINEWOOD AV,,40.570602,-74.134338,,,0,
1427,203496,CLARKE AV/WILDER AV,,40.565441,-74.134575,,,0,
1428,203499,CLOVE RD/RHINE AV,,40.608185,-74.090477,,,0,
1429,203500,CLOVE RD/TARGEE ST,,40.607704,-74.089569,,,0,
1430,203501,CLOVE RD/BRITTON AV,,40.606644,-74.087776,,,0,
1431,203502,CLOVE RD/NECKAR AV,,40.605778,-74.086304,,,0,
1432,203503,CLOVE RD/ELBE AV,,40.605003,-74.084953,,,0,
1433,203504,CLOVE RD/GRASMERE STATION,,40.603642,-74.083504,,,0,
1434,203505,CLOVE RD/W FINGERBOARD RD,,40.601589000000004,-74.08197,,,0,
1435,203506,CLOVE RD/W FINGERBOARD RD,,40.601719,-74.081802,,,0,
1436,203507,CLOVE RD/GRASMERE STATION,,40.603767,-74.083473,,,0,
1437,203508,CLOVE RD/MOSEL AV,,40.604973,-74.08470200000001,,,0,
1438,203509,CLOVE RD/NECKAR AV,,40.606235999999996,-74.086876,,,0,
1439,203510,CLOVE RD/BRITTON AV,,40.607082,-74.088318,,,0,
1440,203511,CLOVE RD/TARGEE ST,,40.6077,-74.089218,,,0,
1441,203512,NARROWS RD N/RHINE AV,,40.609123,-74.08931700000001,,,0,
1442,203513,SAND LA/OLYMPIA BL,,40.592484000000006,-74.06824499999999,,,0,
1443,203515,NEW DORP LA/2 ST,,40.575165000000005,-74.118782,,,0,
1444,203516,HYLAN BL/CONNECTICUT AV,,40.503215999999995,-74.25012199999999,,,0,
1445,203517,ROSSVILLE AV/BARRY  ST,,40.551186,-74.21183,,,0,
1446,203519,ROSSVILLE AV/CORRELL AV,,40.546631,-74.21015200000001,,,0,
1447,203521,WOODROW RD/HELIOS PL,,40.541546000000004,-74.21032,,,0,
1448,203522,WOODROW RD/WINANT AV,,40.541443,-74.215187,,,0,
1449,203523,BLOOMINGDALE RD/KRAMER AV,,40.541954,-74.217941,,,0,
1450,203524,BLOOMINGDALE RD/CORRELL AV,,40.54538,-74.21929200000001,,,0,
1451,203525,BLOOMINGDALE RD/VETERANS RD E,,40.548214,-74.220383,,,0,
1452,203526,BLOOMINGDALE RD/VETERANS RD E,,40.547965999999995,-74.220535,,,0,
1453,203527,BLOOMINGDALE RD/OPP SHIEL AV,,40.544415,-74.21914699999999,,,0,
1454,203528,BLOOMINGDALE RD/OPP KRAMER AV,,40.542010999999995,-74.21818499999999,,,0,
1455,203531,ROSSVILLE AV/WOODROW RD,,40.542709,-74.208282,,,0,
1456,203532,ROSSVILLE AV/OPP CORRELL AV,,40.546364000000004,-74.209778,,,0,
1457,203533,ROSSVILLE AV/SELKIRK ST,,40.549847,-74.21109799999999,,,0,
1458,203534,ROSSVILLE AV/POND ST,,40.55188,-74.21189100000001,,,0,
1459,203536,ARTHUR KILL RD/BLOOMINGDALE RD,,40.549713,-74.222252,,,0,
1460,203537,FOREST AV/MAPLE PY,,40.625972999999995,-74.156807,,,0,
1461,203538,BRADLEY AV/S GANNON AV,,40.608433000000005,-74.132011,,,0,
1462,203540,ST GEORGE FERRY/S66,,40.643192,-74.073402,,,0,
1463,203541,DECKER AV/CATHERINE ST,,40.630573,-74.13423900000001,,,0,
1464,203542,ARTHUR KILL RD/RICHMOND VALLEY RD,,40.521198,-74.239418,,,0,
1465,203543,ARTHUR KILL RD/RICHMOND VALLEY RD,,40.522587,-74.239021,,,0,
1466,203544,ARTHUR KILL RD/S BRIDGE ST,,40.524776,-74.23919699999999,,,0,
1467,203545,ARTHUR KILL RD/ENGLEWOOD AV,,40.533848,-74.236687,,,0,
1468,203546,ARTHUR KILL RD/WINANT PL,,40.536564,-74.237381,,,0,
1469,203547,RICHMOND RD/HUNTER AV,,40.583805,-74.10788000000001,,,0,
1470,203548,ARTHUR KILL RD/ELLIS RD,,40.541256,-74.237602,,,0,
1471,203549,ARTHUR KILL RD/S BRIDGE ST,,40.525096999999995,-74.239349,,,0,
1472,203550,ARTHUR KILL RD/RICHMOND VALLEY RD,,40.521351,-74.239502,,,0,
1473,203551,ROSSVILLE AV/MASON BL,,40.544674,-74.209099,,,0,
1474,203552,ROSSVILLE AV/MASON BL,,40.543991,-74.20904499999999,,,0,
1475,203553,LINCOLN AV/EDISON ST,,40.578781,-74.107437,,,0,
1476,203554,CLOVE RD/NIAGARA ST,,40.615646000000005,-74.10298900000001,,,0,
1477,203556,MILL RD/FOX LA,,40.555614,-74.116394,,,0,
1478,203557,MERRYMOUNT ST/TRAVIS AV,,40.590687,-74.15860699999999,,,0,
1479,203558,MILL RD/PROMENADE AV,,40.556995,-74.114914,,,0,
1480,203559,N GANNON AV/BRADLEY AV,,40.60862,-74.132355,,,0,
1481,203560,MILL RD/ROBERTS DR,,40.560352,-74.112915,,,0,
1482,203561,MILL RD/TYSENS LA,,40.561707,-74.111977,,,0,
1483,203562,MILL RD/EBBITTS ST,,40.564194,-74.11011500000001,,,0,
1484,203563,MILL RD/PETER AV,,40.56023,-74.113152,,,0,
1485,203564,MILL RD/ISABELLA AV,,40.55788,-74.11331899999999,,,0,
1486,203565,MILL RD/GUYON AV,,40.557217,-74.11460100000001,,,0,
1487,203566,MILL RD/AVISTON ST,,40.555690999999996,-74.116608,,,0,
1488,203567,GOETHALS RD N/RICHMOND AV,,40.616459000000006,-74.15728,,,0,
1489,203568,GOETHALS RD N/LAMBERT ST,,40.617748,-74.160423,,,0,
1490,203569,ROSSVILLE AV/VETERANS RD W,,40.554913,-74.21328000000001,,,0,
1491,203570,ROSSVILLE AV/VETERANS RD E,,40.554553999999996,-74.212936,,,0,
1492,203572,WOODROW RD/Opp WINANT AV,,40.541439000000004,-74.210083,,,0,
1493,203573,VICTORY BL/FREMONT ST,,40.637146,-74.081047,,,0,
1494,203574,SOUTH AV/TRAVIS AV,,40.602478000000005,-74.184128,,,0,
1495,203575,SOUTH AV/OPP 1000 SOUTH AV,,40.616077000000004,-74.172348,,,0,
1496,203576,SOUTH AV/1000 SOUTH AV,,40.615562,-74.17315699999999,,,0,
1497,203577,SOUTH AV/TRAVIS AV,,40.602409,-74.184563,,,0,
1498,203579,HUGUENOT AV/SINCLAIR AV,,40.542049,-74.196922,,,0,
1499,203580,HUGUENOT AV/RATHBUN AV,,40.539885999999996,-74.195923,,,0,
1500,203581,HUGUENOT AV/IONIA AV,,40.536819,-74.194374,,,0,
1501,203582,HUGUENOT AV/ DRUMGOOLE RD E,,40.534519,-74.193214,,,0,
1502,203583,DRUMGOOLE RD E/EDGEGROVE AV,,40.53944,-74.186447,,,0,
1503,203585,ARDEN AV/DRUMGOOLE RD E,,40.546894,-74.18094599999999,,,0,
1504,203586,ARDEN AV/WOODROW RD,,40.550121000000004,-74.18737800000001,,,0,
1505,203591,ARTHUR KILL RD/HUGUENOT AV,,40.556183000000004,-74.203117,,,0,
1506,203592,WEST SHORE EP/ARTHUR KILL RD,,40.557128999999996,-74.20281999999999,,,0,
1507,203594,RICHMOND HILL RD/COUNTRY DR W,,40.586857,-74.163795,,,0,
1508,203597,ANNADALE RD/DRUMGOOLE RD E,,40.5546,-74.175789,,,0,
1509,203598,ANNADALE RD/DORVAL AV,,40.559185,-74.176727,,,0,
1510,203600,LEVERETT AV/ARMSTRONG AV,,40.555779,-74.160744,,,0,
1511,203601,LEVERETT AV/DOANE AV,,40.556503,-74.155907,,,0,
1512,203602,GIFFORDS LA/KATAN AV,,40.552997999999995,-74.151154,,,0,
1513,203603,WATCHOGUE RD/WILLOW RD E,,40.617515999999995,-74.152,,,0,
1514,203604,S GANNON AV/VICTORY BL,,40.608719,-74.150673,,,0,
1515,203605,PORT RICHMOND AV/WALKER ST,,40.629726,-74.140602,,,0,
1516,203607,WATCHOGUE RD/CAMBRIDGE AV,,40.617107,-74.148376,,,0,
1517,203608,S GANNON AV/WILLOWBROOK RD,,40.607594,-74.147018,,,0,
1518,203609,S GANNON AV/WOOLEY AV,,40.607262,-74.14045,,,0,
1519,203610,S GANNON AV/WARWICK AV,,40.607459999999996,-74.136749,,,0,
1520,203611,S GANNON AV/BRADLEY AV,,40.607693,-74.13170600000001,,,0,
1521,203612,S GANNON/GANSEVOORT BL,,40.608166,-74.12685400000001,,,0,
1522,203613,SCHMIDTS LA/MANOR RD,,40.608818,-74.120621,,,0,
1523,203614,SCHMIDTS LA/SLOSSON AV,,40.609337,-74.116692,,,0,
1524,203615,SLOSSON AV/VICTORY BL,,40.612792999999996,-74.117058,,,0,
1525,203616,MARTLING AV/MANOR RD,,40.621006,-74.12335999999999,,,0,
1526,203617,MARTLING AV/SLOSSON AV,,40.621655,-74.119781,,,0,
1527,203625,RICHMOND RD/MCKINLEY AV,,40.572540000000004,-74.139748,,,0,
1528,203626,WILDER AV/RICHMOND RD,,40.572727,-74.134621,,,0,
1529,203629,SAND LA/ROBIN RD,,40.592682,-74.06819200000001,,,0,
1530,203633,FOREST AV/CLOVE RD,,40.627468,-74.122879,,,0,
1531,203634,FR CAPODANNO BL/GRAHAM BL,,40.574825,-74.084877,,,0,
1532,203635,MILL RD/STONEHAM ST,,40.558529,-74.113312,,,0,
1533,203637,ST GEORGE FERRY/S51 & S81,,40.64349,-74.073441,,,0,
1534,203638,TARGEE ST/DE KALB ST,,40.608788,-74.088226,,,0,
1535,203642,HYLAN BL/CUNNINGHAM RD,,40.509552,-74.218216,,,0,
1536,203643,DELAFIELD AV/CLOVE RD,,40.629169,-74.12326800000001,,,0,
1537,203644,RICHMOND RD/ANDREWS AV,,40.572926,-74.136482,,,0,
1538,203645,RICHMOND RD/LIGHTHOUSE AV,,40.57246,-74.14121999999999,,,0,
1539,203646,RICHMOND RD/ST PATRICKS PL,,40.572037,-74.14670600000001,,,0,
1540,203647,HYLAN BL/KENNY RD,,40.509991,-74.21590400000001,,,0,
1541,203648,RICHMOND AV/PLATINUM AV,,40.57906,-74.169815,,,0,
1542,203649,ARTHUR KILL RD/OPP ASPEN KNOLLS,,40.564358,-74.186378,,,0,
1543,203650,BAY ST/BOROUGH PL,,40.641865,-74.07525600000001,,,0,
1544,203651,ROCKLAND AV/MANOR RD,,40.586121,-74.133522,,,0,
1545,203652,RICHMOND AV/CHRISTOPHER LA,,40.614677,-74.157372,,,0,
1546,203653,RICHMOND AV/JULES DR,,40.618534000000004,-74.155327,,,0,
1547,203655,ARTHUR KILL RD/CENTER ST,,40.571396,-74.147209,,,0,
1548,203656,SEGUINE AV/JOHANNA LA,,40.522762,-74.19941700000001,,,0,
1549,203662,SEAVIEW HOSPITAL/TRAFFIC CIR #1,,40.593047999999996,-74.134331,,,0,
1550,203663,SEAVIEW HOSP/DR E ROBITZEK BLDG,,40.591419,-74.13245400000001,,,0,
1551,203664,SEAVIEW HOSPITAL/TRAFFIC CIR #2,,40.593266,-74.134186,,,0,
1552,203665,ROSSVILLE AV/WOODROW RD,,40.541805,-74.208115,,,0,
1553,203666,DRUMGOOLE RD E/ALBEE AV,,40.541653000000004,-74.184555,,,0,
1554,203672,RICHMOND RD/ROCKLAND AV,,40.576233,-74.12683100000001,,,0,
1555,203674,TOMPKINS AV/SAINT MARYS AV,,40.614028999999995,-74.072212,,,0,
1556,203677,FOREST AV/GOETHALS RD N,,40.62558,-74.17630799999999,,,0,
1557,203680,HYLAN BL/SPRATT AV,,40.555157,-74.129799,,,0,
1558,203682,RICHMOND RD/ROCKLAND AV,,40.576214,-74.126991,,,0,
1559,203683,HYLAN BL/ROSS AV,,40.568619,-74.11145,,,0,
1560,203685,RICHMOND AV/FOREST HILL RD,,40.570709,-74.16957099999999,,,0,
1561,203687,CASTLETON AV/TREADWELL AV,,40.635983,-74.137924,,,0,
1562,203688,RICHMOND RD/NORDEN ST,,40.593578,-74.100075,,,0,
1563,203689,FOREST HILL RD/ROCKLAND AV,,40.589149,-74.145821,,,0,
1564,203690,BAY ST/NAUTILUS ST,,40.610378000000004,-74.063347,,,0,
1565,203691,CEDAR GROVE AV/CEDAR GROVE CT,,40.5616,-74.100143,,,0,
1566,203692,BAY ST/SHORE ACRES DR,,40.608768,-74.062119,,,0,
1567,203693,RICHMOND AV/MONSEY PL,,40.62429,-74.149124,,,0,
1568,203694,NARROWS RD N/ST JOHNS AV,,40.606709,-74.075615,,,0,
1569,203695,HYLAN BL/OLD TOWN RD,,40.595558000000004,-74.086166,,,0,
1570,203696,HYLAN BL/CODDINGTON AV,,40.570171,-74.110237,,,0,
1571,203697,HYLAN BL / ISABELLA AV,,40.56118,-74.119415,,,0,
1572,203698,HYLAN BL/LIBERTY AV,,40.586117,-74.09227800000001,,,0,
1573,203699,HYLAN BL/REID AV,,40.59454,-74.08627299999999,,,0,
1574,203700,HYLAN BL/QUINTARD ST,,40.596222,-74.08557900000001,,,0,
1575,203701,HYLAN BL/MALLORY AV,,40.598499,-74.080826,,,0,
1576,203709,VICTORY BL/CEBRA AV,,40.633778,-74.085983,,,0,
1577,203710,VICTORY BL/WESTCOTT BL,,40.612784999999995,-74.127403,,,0,
1578,203714,WATCHOGUE RD/LEVIT AV,,40.617207,-74.14874300000001,,,0,
1579,203715,WATCHOGUE RD/WILLOW RD E,,40.617619,-74.152237,,,0,
1580,203718,RICHMOND RD/NORDEN ST,,40.593063,-74.100708,,,0,
1581,203719,WATCHOGUE RD/WILLOWBROOK RD,,40.616894,-74.145012,,,0,
1582,203720,SOUTH AV/BRABRANT ST,,40.632065000000004,-74.166267,,,0,
1583,203721,ARDEN AV/DRUMGOOLE RD W,,40.546946999999996,-74.181442,,,0,
1584,203723,CLOVE RD /RICHMOND RD,,40.608631,-74.090675,,,0,
1585,203724,NARROWS RD SO/TARGEE ST,,40.607754,-74.089027,,,0,
1586,203728,STEUBEN ST/W FINGERBOARD R,,40.601219,-74.076584,,,0,
1587,203730,FOREST AV/SOUTH AV,,40.627113,-74.165962,,,0,
1588,203731,MARTLINGS AV/BROOKSPOND PL,,40.623917,-74.118256,,,0,
1589,203733,NARROWS RD N/TARGEE ST,,40.608746000000004,-74.08811999999999,,,0,
1590,203734,CLOVE RD / BROADWAY,,40.623287,-74.113602,,,0,
1591,203735,MARTLINGS AV / SLOSSON AV,,40.621777,-74.119644,,,0,
1592,203736,MARTLINGS AV / MANOR RD,,40.621025,-74.123703,,,0,
1593,203737,NORWAY AV / SCOTT AV,,40.592766,-74.07824699999999,,,0,
1594,203741,NEW YORK AV/COAST GUARD DR,,40.606289000000004,-74.060425,,,0,
1595,203742,BATTERY RD/AIR FORCE RESERVE,,40.601048,-74.057755,,,0,
1596,203743,BATTERY RD/TENNESSEE RD,,40.600388,-74.059639,,,0,
1597,203744,NEW YORK AV/MARSHALL RD,,40.602875,-74.058022,,,0,
1598,203745,NEW YORK AV/SOUTH RD,,40.605548999999996,-74.05974599999999,,,0,
1599,203746,NEW YORK AV/TOMPKINS AV,,40.602764,-74.057632,,,0,
1600,203747,BATTERY RD/TENNESSEE RD,,40.60014,-74.05986,,,0,
1601,203753,FOREST AV / LAWRENCE AV,,40.630363,-74.10707099999999,,,0,
1602,203755,WILDER AV/MORTON ST,,40.572739,-74.134476,,,0,
1603,203756,HYLAN BL/REYNOLDS ST,,40.609951,-74.074501,,,0,
1604,203757,RICHMOND RD / LIGHTHOUSE AV,,40.572418,-74.141541,,,0,
1605,203760,FOREST AV/UA THEATERS,,40.627476,-74.171761,,,0,
1606,203762,FOREST AV/SOUTH AV,,40.627556,-74.167038,,,0,
1607,203763,FOREST AV / HOME DEPOT,,40.627628,-74.172203,,,0,
1608,203765,N GANNON AV / SLOSSON AV,,40.61142,-74.116905,,,0,
1609,203766,N GANNON AV / MANOR RD,,40.610123,-74.121841,,,0,
1610,203767,N GANNON  AV / GANSEVOORT BL,,40.608971000000004,-74.12767,,,0,
1611,203768,N GANNON AV / WARWICK AV,,40.608318,-74.137512,,,0,
1612,203769,N GANNON AV / WOOLLEY AV,,40.608124,-74.141312,,,0,
1613,203770,N GANNON AV / WILLOWBROOK RD,,40.60857,-74.147049,,,0,
1614,203772,RICHMOND AV/YONA AV,,40.612460999999996,-74.15907299999999,,,0,
1615,203776,WILDER AV/PINEWOOD AV,,40.569942,-74.133987,,,0,
1616,203777,WILDER AV/WOLVERINE ST,,40.56731,-74.133514,,,0,
1617,203778,CLARKE AV/WILDER AV,,40.5653,-74.134399,,,0,
1618,203786,RICHMOND RD / AULTMAN AV,,40.572990000000004,-74.13673399999999,,,0,
1619,203798,NARROWS RD S/GRASMERE DR,,40.605015,-74.074005,,,0,
1620,203804,DRUMGOOLE RD W/HUGUENOT AV,,40.535931,-74.193619,,,0,
1621,203805,ARDEN AV/CROWN AV,,40.549683,-74.186844,,,0,
1622,203808,BRADLEY AV/HAROLD ST,,40.601471000000004,-74.131111,,,0,
1623,203809,FOREST AV / ARNPRIOR ST,,40.624783,-74.14299799999999,,,0,
1624,203810,MARTLING AV / CLOVE RD,,40.624363,-74.117012,,,0,
1625,203811,DRUMGOOLE RD E/JEFFERSON BL,,40.544575,-74.18203000000001,,,0,
1626,203812,ARDEN AV/SINCLAIR AV,,40.548491999999996,-74.184242,,,0,
1627,203813,ARDEN AV/SINCLAIR AV,,40.548496,-74.184494,,,0,
1628,203814,DRUMGOOLE RD W/ ANNADALE RD,,40.556647999999996,-74.17585,,,0,
1629,203815,LAMBERTS LA/ RICHMOND AV,,40.614502,-74.15770699999999,,,0,
1630,203817,RICHMOND HILL RD/RICHMOND AV,,40.58876,-74.167419,,,0,
1631,203818,RICHMOND HILL RD/ COUNTRY DR W,,40.587272999999996,-74.16478000000001,,,0,
1632,203820,DRUMGOOLE RD W/JEFFERSON BL,,40.545284,-74.182816,,,0,
1633,203821,DRUMGOOLE RD W/EDGEGROVE AV,,40.539246,-74.188019,,,0,
1634,203822,DRUMGOOLE RD W/RAMONA AV,,40.541832,-74.18602800000001,,,0,
1635,203823,HUGUENOT AV/DARLINGTON AV,,40.536831,-74.194176,,,0,
1636,203824,HUGUENOT AV/RAMONA AV,,40.539390999999995,-74.195465,,,0,
1637,203825,HUGUENOT AV/SHELDON AV,,40.541458,-74.19641899999999,,,0,
1638,203827,ARTHUR KILL RD/WEST SERVICE RD,,40.55788,-74.206856,,,0,
1639,203828,SEAVIEW AV/OLYMPIA BL,,40.582443,-74.08386999999999,,,0,
1640,203829,SOUTH AV/HILTON HOTEL,,40.612026,-74.175957,,,0,
1641,203830,SOUTH AV/HILTON HOTEL,,40.612965,-74.174736,,,0,
1642,203831,YUKON AV/KMART DRWY,,40.575935,-74.167686,,,0,
1643,203832,DRUMGOOLE RD W/NIPPON AV,,40.536537,-74.19181800000001,,,0,
1644,203833,CRAIG AV/HYLAN BL,,40.502983,-74.25147199999999,,,0,
1645,203834,PAGE AV/HYLAN BL,,40.508106,-74.23007199999999,,,0,
1646,203837,WOODROW RD/WINANT AV,,40.541286,-74.214951,,,0,
1647,203838,LEVERETT AV/STEIG AV,,40.557041,-74.154465,,,0,
1648,203849,BLOOMINGDALE RD/VETERANS RD E,,40.528774,-74.217102,,,0,
1649,203853,SOUTH AV/1200 SOUTH AV,,40.610626,-74.176613,,,0,
1650,203855,ROSSVILLE AV/WOOD CT,,40.549168,-74.211044,,,0,
1651,203865,MILL RD/TARLTON ST,,40.554573,-74.11702,,,0,
1652,203871,DRUMGOOLE RD E/HUGUENOT AV,,40.534411999999996,-74.192451,,,0,
1653,203872,ARMSTRONG AV/EAST BRANDIS AV,,40.559143,-74.162262,,,0,
1654,203873,ARMSTRONG AV/LEVERETT AV,,40.556107,-74.161026,,,0,
1655,203874,ARMSTRONG AV/EAST BRANDIS AV,,40.559563,-74.162193,,,0,
1656,203875,LEVERETT AV/COLON AV,,40.5564,-74.157043,,,0,
1657,203876,AMBOY RD/CARTERET ST,,40.508488,-74.248604,,,0,
1658,203880,HYLAN BL/FINLAY ST,,40.503307,-74.24861899999999,,,0,
1659,203882,BLOOMINGDALE RD/ENGLEWOOD AV,,40.531376,-74.217773,,,0,
1660,203883,ARDEN AV/ STAFFORD AV,,40.548889,-74.185059,,,0,
1661,203884,PORT RICHMOND AV/CLINTON PL,,40.632416,-74.137627,,,0,
1662,203891,MC CLEAN AV/CONGER ST,,40.598015000000004,-74.066383,,,0,
1663,203896,MILL RD/DEWITT AV,,40.553871,-74.117172,,,0,
1664,203902,ELTINGVILLE/TRANSIT CENTER,,40.560840999999996,-74.171089,,,0,
1665,203903,ELTINGVILLE/TRANSIT CENTER,,40.56023,-74.170952,,,0,
1666,203919,BLOOMINGDALE RD/ENGLEWOOD AV,,40.531414,-74.217674,,,0,
1667,203922,VICTORY BL/BROOK ST,,40.637508000000004,-74.08036,,,0,
1668,203927,LAMBERTS LA/MAY AV,,40.615562,-74.161583,,,0,
1669,203928,GOETHALS RD N/SOUTH AV,,40.621773,-74.168655,,,0,
1670,203941,RICHMOND AV/DRAPER PL,,40.595207,-74.16201,,,0,
1671,203947,HYLAN BL/WENDY DR,,40.526787,-74.17828399999999,,,0,
1672,203949,BLOOMINGDALE RD/PEMBROOK LOOP,,40.536415000000005,-74.218163,,,0,
1673,203951,AMBOY RD/BAYVIEW AV,,40.525513000000004,-74.205063,,,0,
1674,203957,LUTEN AV/DEISIUS ST,,40.528263,-74.192047,,,0,
1675,203958,AMBOY RD/PETERSONS LN,,40.52449,-74.211372,,,0,
1676,203959,AMBOY RD/PERTERSONS LN,,40.52449,-74.210678,,,0,
1677,203967,HYLAN BL/BROOK AV,,40.559391,-74.122574,,,0,
1678,203972,VICTORY BL/ BROOK ST,,40.637306,-74.08045200000001,,,0,
1679,203973,SEAVIEW HOSPITAL/PARK LA,,40.592384,-74.130791,,,0,
1680,203986,Outerbridge/Park and Ride,,40.523392,-74.22364,,,0,
1681,203991,SEGUINE AV/DIRENZO CT,,40.520454,-74.197456,,,0,
1682,250011,HUGUENOT AV/AVON GRN,,40.54871,-74.199989,,,0,
1683,250012,HUGUENOT AV/SUSSEX GRN,,40.550701000000004,-74.200836,,,0,
1684,250015,HUGUENOT AV/SUSSEX GRN,,40.551186,-74.20124799999999,,,0,
1685,250016,HUGUENOT AV/AVON GREEN,,40.548626,-74.20015699999999,,,0,
1686,250036,BLOOMINGDALE RD/SHARROTTS RD,,40.537495,-74.21791800000001,,,0,
1687,250037,AMBOY RD/BEDELL ST,,40.52124,-74.217308,,,0,
1688,250038,BLOOMINGDALE RD/SOUTH SERVICE RD,,40.52803,-74.216454,,,0,
1689,250039,BLOOMINGDALE RD/ALYSIA CT,,40.537521000000005,-74.21772800000001,,,0,
1690,250041,AMBOY RD/RICHMOND VALLEY RD,,40.519081,-74.229485,,,0,
1691,250042,AMBOY RD/MURRAY ST,,40.516739,-74.23249799999999,,,0,
1692,250043,AMBOY RD/BARNARD AV,,40.512039,-74.239632,,,0,
1693,250044,AMBOY RD/LEE AV,,40.510422,-74.24284399999999,,,0,
1694,250045,AMBOY RD/MAIN ST,,40.508998999999996,-74.247231,,,0,
1695,250046,AMBOY RD/CONNECTICUT ST,,40.507729,-74.25149499999999,,,0,
1696,250048,AMBOY RD/MAIN ST,,40.509009999999996,-74.24675,,,0,
1697,250049,AMBOY RD/SLEIGHT AV,,40.510674,-74.24215699999999,,,0,
1698,250050,AMBOY RD/BREHAUT AV,,40.512375,-74.238876,,,0,
1699,250051,AMBOY RD/RICHMOND VALLEY RD,,40.519135,-74.22731,,,0,
1700,250053,HUGUENOT AV/LOMBARD CT,,40.553447999999996,-74.202126,,,0,
1701,250054,HYLAN BL/CANNON BL,,40.565113000000004,-74.114838,,,0,
1702,250058,GLEN ST/VICTORY BL,,40.591343,-74.19268000000001,,,0,
1703,250059,WEST SHORE EXP/VICTORY BL,,40.589611,-74.194069,,,0,
1704,250062,AMBOY RD/BEDELL ST,,40.521477000000004,-74.216995,,,0,
1705,250064,HUGUENOT AV / ROSEDALE AV,,40.546603999999995,-74.19896700000001,,,0,
1706,250067,HUGUENOT AV/ROSEDALE AV,,40.546448,-74.199089,,,0,
1707,250068,AMBOY RD/PAGE AV,,40.516197,-74.232887,,,0,
1708,301707,86 ST/5 AV,,40.621639,-74.026344,,,0,
1709,306959,92 ST/FT HAMILTON PY,,40.616684,-74.027245,,,0,
1710,307203,92 ST/GATLING PL,,40.616665000000005,-74.026733,,,0,
1711,307501,86 ST/FT HAMILTON PY,,40.620731,-74.024773,,,0,
1712,308032,4 AV/90 ST,,40.619537,-74.029808,,,0,
1713,308533,4 AV/87 ST,,40.621918,-74.02879300000001,,,0,
1714,400018,MADISON AV/E 43 ST,,40.753349,-73.97876,,,0,
1715,400020,MADISON AV/E 48 ST,,40.756496000000006,-73.976463,,,0,
1716,400022,MADISON AV/E 53 ST,,40.759605,-73.974197,,,0,
1717,400023,MADISON AV/E 56 ST,,40.761497,-73.97281600000001,,,0,
1718,400070,TRINITY PL/RECTOR ST,,40.708008,-74.012711,,,0,
1719,400071,CHURCH ST/LIBERTY ST,,40.710014,-74.01136,,,0,
1720,400144,PARK AV SOUTH/E 26 ST,,40.742199,-73.985054,,,0,
1721,400145,PARK AV SOUTH/E 21 ST,,40.739323,-73.987114,,,0,
1722,400153,BROADWAY/WAVERLY PL,,40.729401,-73.993515,,,0,
1723,400163,BROADWAY/THOMAS ST,,40.715832,-74.00502,,,0,
1724,400165,BROADWAY/READE ST,,40.714825,-74.005875,,,0,
1725,400186,MADISON AV/E 27 ST,,40.74366,-73.98584699999999,,,0,
1726,400323,5 AV/W 36 ST,,40.749477,-73.983925,,,0,
1727,400354,MADISON AV/E 34 ST,,40.748329,-73.982437,,,0,
1728,400359,MADISON AV/E 47 ST,,40.756508000000004,-73.976463,,,0,
1729,400555,E 32 ST/5 AV,,40.746986,-73.985374,,,0,
1730,400723,AV OF THE AMERICAS/WAVERLY PL,,40.733006,-73.99984,,,0,
1731,400726,AV OF THE AMERICAS/W 14 ST,,40.737453,-73.996674,,,0,
1732,400732,AV OF THE AMERICAS/W 29 ST,,40.746536,-73.990013,,,0,
1733,400744,W 57 ST/7 AV,,40.765762,-73.980385,,,0,
1734,400745,W 57 ST/BROADWAY,,40.766544,-73.982239,,,0,
1735,400903,STATE ST/BRIDGE ST,,40.704208,-74.014191,,,0,
1736,400911,CHURCH ST/THOMAS ST,,40.71637,-74.006676,,,0,
1737,400929,AV OF THE AMERICAS/W 23 ST,,40.742973,-73.992554,,,0,
1738,400933,AV OF THE AMERICAS/W 34 ST,,40.749882,-73.987534,,,0,
1739,400936,AV OF THE AMERICAS/W 42 ST,,40.755108,-73.983788,,,0,
1740,401666,WATER ST/WALL ST,,40.705288,-74.007111,,,0,
1741,401797,PEARL ST/FRANKFORT ST,,40.7094,-74.001915,,,0,
1742,401800,WATER ST/MAIDEN LA,,40.706055,-74.00631700000001,,,0,
1743,401802,WATER ST/HANOVER SQ,,40.703896,-74.009445,,,0,
1744,401803,WATER ST/BROAD ST,,40.702988,-74.011719,,,0,
1745,401819,W 34 ST/8 AV,,40.751987,-73.993309,,,0,
1746,401821,W 34 ST/BROADWAY,,40.749626,-73.987617,,,0,
1747,401822,E 34 ST/5 AV,,40.748188,-73.984184,,,0,
1748,401832,E 23 ST/2 AV,,40.737625,-73.980553,,,0,
1749,401833,E 23 ST/1 AV,,40.736874,-73.978706,,,0,
1750,401851,W 42 ST/8 AV,,40.757576,-73.990463,,,0,
1751,402128,W 23 ST/AV OF THE AMERICAS,,40.742359,-73.99176,,,0,
1752,402130,E 23 ST/BROADWAY,,40.741141999999996,-73.988792,,,0,
1753,402132,E 23 ST/PARK AV S,,40.739906,-73.985954,,,0,
1754,402133,E 23 ST/LEXINGTON  AV,,40.739208000000005,-73.984299,,,0,
1755,402134,E 23 ST/3 AV,,40.738566999999996,-73.982773,,,0,
1756,402143,E 23 ST/1 AV,,40.737091,-73.97886700000001,,,0,
1757,402144,E 23 ST/2 AV,,40.738312,-73.981712,,,0,
1758,402145,E 23 ST/3 AV,,40.739028999999995,-73.983459,,,0,
1759,402149,E 23 ST/MADISON AV,,40.740921,-73.988304,,,0,
1760,402169,W 50 ST/AV OF THE AMERICAS,,40.759674,-73.98021700000001,,,0,
1761,402205,W 57 ST/11 AV,,40.770035,-73.990974,,,0,
1762,402212,E 57 ST/PARK AV,,40.761326000000004,-73.970322,,,0,
1763,402214,E 57 ST/LEXINGTON AV,,40.760674,-73.968773,,,0,
1764,402215,E 57 ST/3 AV,,40.759876,-73.966827,,,0,
1765,402226,E 57 ST/PARK AV,,40.761897999999995,-73.97120699999999,,,0,
1766,402227,E 57 ST/MADISON AV,,40.762562,-73.972794,,,0,
1767,402228,W 57 ST/5 AV,,40.76321,-73.974319,,,0,
1768,402229,W 57 ST/AV OF THE AMERICAS,,40.764595,-73.977615,,,0,
1769,402233,W 57 ST/9 AV,,40.768085,-73.985893,,,0,
1770,402838,LEXINGTON AV/E 56 ST,,40.760143,-73.969833,,,0,
1771,402839,LEXINGTON AV/E 52 ST,,40.758064000000005,-73.971336,,,0,
1772,402851,LEXINGTON AV/E 28 ST,,40.742393,-73.98275799999999,,,0,
1773,403132,AV OF THE AMERICAS/W 50 ST,,40.759772999999996,-73.980385,,,0,
1774,403133,AV OF THE AMERICAS/W 52 ST,,40.761028,-73.979469,,,0,
1775,403238,W 42 ST/9 AV,,40.757961,-73.991928,,,0,
1776,403239,W 42 ST/8 AV,,40.757228999999995,-73.989838,,,0,
1777,403240,W 42 ST/7 AV,,40.75626,-73.987732,,,0,
1778,403241,W 42 ST/BROADWAY,,40.755272,-73.985336,,,0,
1779,403242,W 42 ST/6TH AVENUE,,40.754536,-73.983643,,,0,
1780,403245,E 42 ST/LEXINGTON AV,,40.751148,-73.97560899999999,,,0,
1781,403247,E 42 ST/2 AV,,40.74958,-73.971878,,,0,
1782,403248,E 42 ST/1 AV,,40.748581,-73.969658,,,0,
1783,403249,E 41 ST/1 AV,,40.748047,-73.969887,,,0,
1784,403251,E 42 ST/1 AV,,40.749077,-73.97028399999999,,,0,
1785,403252,E 42 ST/2 AV,,40.750088,-73.972603,,,0,
1786,403254,E 42 ST/LEXINGTON AV,,40.751442,-73.97604399999999,,,0,
1787,403257,W 42 ST/5 AV,,40.753735,-73.98111,,,0,
1788,403259,W 42 ST/7 AV,,40.756313,-73.98739599999999,,,0,
1789,403293,PEARL ST/PECK SLIP,,40.708626,-74.002922,,,0,
1790,403311,BROADWAY/W HOUSTON ST,,40.725124,-73.997139,,,0,
1791,403353,W 23 ST/5 AV,,40.741528,-73.989777,,,0,
1792,403458,MADISON AV/E 41 ST,,40.752029,-73.979752,,,0,
1793,403465,W 42 ST/5 AV,,40.753319,-73.980751,,,0,
1794,403562,W 57 ST/8 AV,,40.766594,-73.98271899999999,,,0,
1795,403590,PEARL ST/FULTON ST,,40.70763,-74.003998,,,0,
1796,403617,E 57 ST/LEXINGTON AV,,40.761185,-73.969505,,,0,
1797,403620,E 57 ST/MADISON AV,,40.762012,-73.971954,,,0,
1798,403621,W 57 ST/AV OF THE AMERICAS,,40.764034,-73.976753,,,0,
1799,403736,W 57 ST/7 AV,,40.765564000000005,-73.980324,,,0,
1800,403754,WATER ST/WALL ST,,40.705044,-74.007759,,,0,
1801,403804,E 42 ST/PARK AV,,40.752098,-73.97739399999999,,,0,
1802,403830,W 42 ST/AV OF THE AMERICAS,,40.754993,-73.984276,,,0,
1803,403971,BROADWAY/CORTLANDT ST,,40.709236,-74.01056700000001,,,0,
1804,403984,W 57 ST/9 AV,,40.767672999999995,-73.985359,,,0,
1805,403986,W 57 ST/10 AV,,40.769363,-73.98893000000001,,,0,
1806,403992,W 57 ST/10 AV,,40.768840999999995,-73.988152,,,0,
1807,404050,7 AV/W 56 ST,,40.764984000000005,-73.980553,,,0,
1808,404132,AV OF THE AMERICAS/PRINCE ST,,40.727024,-74.003349,,,0,
1809,404173,W 34 ST/8 AV,,40.75219,-73.99368299999999,,,0,
1810,404175,LEXINGTON AV/E 46 ST,,40.754104999999996,-73.974228,,,0,
1811,404176,LEXINGTON AV/E 41 ST,,40.750881,-73.97657,,,0,
1812,404184,BROADWAY/WAVERLY PL,,40.729679,-73.993279,,,0,
1813,404189,BROADWAY/RECTOR ST,,40.707119,-74.01230600000001,,,0,
1814,404190,BROADWAY/MORRIS ST,,40.705261,-74.01396899999999,,,0,
1815,404197,BROADWAY/E 14 ST,,40.734707,-73.990936,,,0,
1816,404199,WORTH ST/BROADWAY,,40.716377,-74.00488299999999,,,0,
1817,404201,BROADWAY/PARK PL,,40.71233,-74.00795699999999,,,0,
1818,404202,BROADWAY/RECTOR ST,,40.707233,-74.01220699999999,,,0,
1819,404204,5 AV/W 46 ST,,40.755852000000004,-73.979248,,,0,
1820,404205,5 AV/W 40 ST,,40.752316,-73.98185699999999,,,0,
1821,404206,5 AV/W 32 ST,,40.747279999999996,-73.985527,,,0,
1822,404207,5 AV/W 27 ST,,40.744244,-73.98774,,,0,
1823,404208,BROADWAY/WORTH ST,,40.716103000000004,-74.004768,,,0,
1824,404211,5 AV/W 28 ST,,40.744396,-73.987625,,,0,
1825,404212,PARK PL/BROADWAY,,40.712536,-74.007858,,,0,
1826,404215,5 AV/W 54 ST,,40.760773,-73.975685,,,0,
1827,404219,BROADWAY/WARREN ST,,40.713764000000005,-74.006752,,,0,
1828,404220,BROADWAY/VESEY ST,,40.711346,-74.00872,,,0,
1829,404221,BROADWAY/LIBERTY ST,,40.709415,-74.01042199999999,,,0,
1830,404222,BROADWAY/EXCHANGE ALLEY,,40.706589,-74.012749,,,0,
1831,404226,CHURCH ST/CORTLANDT ST,,40.710205,-74.011223,,,0,
1832,404228,5 AV/W 41 ST,,40.752548,-73.98168199999999,,,0,
1833,404230,PARK ROW/ANN ST,,40.711479,-74.00747700000001,,,0,
1834,404238,BROADWAY/BARCLAY ST,,40.712143,-74.00811800000001,,,0,
1835,404239,LEXINGTON AV/E 34 ST,,40.74593,-73.980186,,,0,
1836,404240,BROADWAY/CORTLANDT ST,,40.709998999999996,-74.009911,,,0,
1837,404242,WORTH ST/CHURCH ST,,40.716915,-74.00610400000001,,,0,
1838,404280,W 34 ST/7 AV,,40.750832,-73.990471,,,0,
1839,404294,W HOUSTON ST/WASHINGTON  ST,,40.729061,-74.009499,,,0,
1840,404295,MADISON AV/E 25 ST,,40.742004,-73.987083,,,0,
1841,404299,MADISON AV/E 48 ST,,40.756847,-73.976112,,,0,
1842,404300,MADISON AV/E 54 ST,,40.760616,-73.973465,,,0,
1843,404326,W 57 ST/8 AV,,40.766712,-73.98264300000001,,,0,
1844,404820,W 34 ST/7 AV,,40.751118,-73.991112,,,0,
1845,404850,PEARL ST/FULTON ST,,40.70755,-74.00386,,,0,
1846,404873,5 AV/W 48 ST,,40.757003999999995,-73.978432,,,0,
1847,404877,MADISON AV /E 29 ST,,40.74485,-73.984985,,,0,
1848,404887,GREENWICH ST/BATTERY PL,,40.70496,-74.014816,,,0,
1849,404889,CHURCH ST/CORTLANDT ST,,40.71056,-74.010986,,,0,
1850,404890,CHURCH ST/PARK PL,,40.713425,-74.00901,,,0,
1851,404891,CHURCH ST/CHAMBERS ST,,40.715046,-74.007713,,,0,
1852,404892,CHURCH ST/THOMAS ST,,40.716633,-74.00647,,,0,
1853,404894,AV OF THE AMERICAS/LISPENARD ST,,40.719833,-74.005188,,,0,
1854,404923,CENTRAL PARK S/6 AV,,40.766315000000006,-73.97749300000001,,,0,
1855,404931,W HOUSTON ST/MERCER ST,,40.725628,-73.99691800000001,,,0,
1856,404932,BROADWAY/CORTLANDT ST,,40.709656,-74.010223,,,0,
1857,404934,BROADWAY / LIBERTY ST,,40.709282,-74.010536,,,0,
1858,404943,E 23 ST/PARK AV,,40.740559000000005,-73.98696899999999,,,0,
1859,404959,CHURCH ST/WORTH ST,,40.716995000000004,-74.006248,,,0,
1860,404960,BATTERY PL / WASHINGTON ST,,40.704739000000004,-74.01580799999999,,,0,
1861,404966,VESEY ST/NORTH END AV,,40.714607,-74.015907,,,0,
1862,404992,AV OF THE AMERICAS/W 57 ST,,40.7644,-73.976997,,,0,
1863,404993,BROADWAY/E 13 ST,,40.734566,-73.990898,,,0,
1864,405011,E 57 ST/ LEXINGTON AV,,40.760811,-73.968689,,,0,
1865,405013,E 57 ST/3 AV,,40.760428999999995,-73.967674,,,0,
1866,405017,WEST ST/CARLISLE ST,,40.709259,-74.014771,,,0,
1867,405031,WEST ST/VESEY ST,,40.713448,-74.013527,,,0,
1868,405042,5 AV/E 28 ST,,40.74456,-73.987488,,,0,
1869,405043,WATER ST/STATE ST,,40.702469,-74.012711,,,0,
1870,405044,PEARL ST/PECK SLIP,,40.708843,-74.002617,,,0,
1871,405046,6 AV/W 53 ST,,40.761982,-73.97876,,,0,
1872,405177,7 AV/W 53 ST,,40.762783,-73.982162,,,0,
1873,405276,BROADWAY/WHITE ST,,40.718109000000005,-74.003067,,,0,
1874,405277,BROADWAY/BROOME ST,,40.721703000000005,-74.000015,,,0,
1875,405305,WEST ST/N MOORE ST,,40.720257000000004,-74.012421,,,0,
1876,450040,MADISON AV/E 41 ST,,40.752415,-73.979469,,,0,
1877,450126,5 AV/W 45 ST,,40.755508,-73.97953000000001,,,0,
1878,450402,CHURCH ST/FULTON ST,,40.711735,-74.0103,,,0,
1879,801069,4 AV/86 ST,,40.622646,-74.028534,,,0,
1880,803031,FDR Service Rd/e 16 st,,40.729687,-73.972351,,,0,
1881,803032,Robert Wagner Sr Pl/R. Wagner Sr.pl.,,40.709148,-73.999954,,,0,
1882,803033,WATER ST/HANOVER SQ,,40.703629,-74.009537,,,0,
1883,803042,BBT/west st,,40.707256,-74.015823,,,0,
1884,803071,PEARL ST/FRANKFORT ST,,40.709305,-74.001755,,,0,
1885,803072,WORTH ST/BROADWAY,,40.716454,-74.005081,,,0,
1886,803074,PEARL ST/PECK SLIP,,40.708908,-74.002296,,,0,
1887,803102,W 57 ST/11 AV,,40.770233000000005,-73.99101999999999,,,0,
1888,804066,WATCHOGUE RD/WILLOWBROOK RD,,40.617065000000004,-74.145325,,,0,
1889,805002,CASTLETON AV/BEMENT AV,,40.634871999999994,-74.112724,,,0,
1890,805003,CASTLETON AV/BRIGHTON AV,,40.633942,-74.096939,,,0,
1891,805005,GOETHALS RD N/MOBILE HOME PARK ROW A,,40.627537,-74.18042,,,0,
1892,805006,ST GEORGE FERRY /ST GEORGE FERRY,,40.643772,-74.07315799999999,,,0,
1893,805010,SEAVIEW HOSPITAL/TRAFFIC CIR #1,,40.592934,-74.134117,,,0,
1894,805011,SEAVIEW HOSPITAL/E ROBITZEK  BLDG,,40.591518,-74.132515,,,0,
1895,805012,SEAVIEW HOSPITAL/TRAFFIC CIR #2,,40.593098,-74.133896,,,0,
1896,805013,MILL RD/EBBITTS ST,,40.564228,-74.110336,,,0,
1897,805014,ST GEORGE FERRY/ST GEORGE FERRY,,40.643570000000004,-74.073227,,,0,
1898,805015,ST GEORGE FERRY/ST GEORGE FERRY,,40.643584999999995,-74.072609,,,0,
1899,805016,ST GEORGE FERRY/ST GEORGE FERRY,,40.643741999999996,-74.073212,,,0,
1900,805017,ST GEORGE FERRY/ST GEORGE FERRY,,40.643597,-74.073128,,,0,
1901,805019,DRUMGOOLE RD W/ANNADALE RD,,40.556744,-74.17576600000001,,,0,
1902,805020,ST GEORGE FERRY/ST GEORGE FERRY,,40.643260999999995,-74.073059,,,0,
1903,805021,HYLAN BL/BUFFALO ST,,40.557007,-74.127945,,,0,
1904,805023,RICHMOND AV/AUGUSTA AV,,40.551922,-74.167793,,,0,
1905,805025,HYLAN BL/QUINTARD ST,,40.596046,-74.085983,,,0,
1906,805026,HYLAN BL/ELMTREE AV,,40.574509,-74.10588100000001,,,0,
1907,805027,HYLAN BL/NEW DORP LA,,40.570454,-74.110069,,,0,
1908,805029,ROSSVILLE AV/CORRELL AV,,40.546543,-74.210091,,,0,
1909,805030,VICTORY BL / SILVER LAKE APTS,,40.620991,-74.098213,,,0,
1910,805031,Gowanus Exp./Lee Av (S.B.),,40.610912,-74.031876,,,0,
1911,805032,Gowanus Exp./78 Street (S.B.),,40.625027,-74.019234,,,0,
1912,805033,Verrazano Bridge/Lee Av (N.B.),,40.610797999999996,-74.031212,,,0,
1913,805034,Gowanus Exp./65 St (N.B.),,40.637446999999995,-74.01992800000001,,,0,
1914,805035,Gowanus Exp./78 St (N.B.),,40.624893,-74.01889,,,0,
1915,805036,Gowanus Exp./63 St. (S.B.),,40.636982,-74.019661,,,0,
1916,805037,Gowanus Exp./3 Av (N.B.),,40.64045,-74.021469,,,0,
1917,805038,Gowanus Exp./Hicks St (N.B.),,40.679867,-74.003952,,,0,
1918,805039,Gowanus Exp./22 St (N.B.),,40.663357,-73.998154,,,0,
1919,805040,SOUTH AV/1200 SOUTH AV,,40.610504,-74.177269,,,0,
1920,805043,NONSTOP/FOR LTD SERVICE,,40.634628,-74.11196899999999,,,0,
1921,805045,HYLAN BL/WENDY DR,,40.526802,-74.178207,,,0,
1922,805054,RT 440/34 ST HBLR STA LOOP,,40.671684,-74.10746,,,0,
1923,805056,RT 440/34 ST HBLR STA LOOP,,40.671665000000004,-74.107437,,,0,
1924,805067,NARROWS RD N/TARGEE ST,,40.60873,-74.088211,,,0,
1925,805071,RICHMOND AV/ MONSEY PL,,40.624297999999996,-74.14907099999999,,,0,
1926,805073,HYLAN BL/CORNELIA AV,,40.522667,-74.189926,,,0,
1927,805079,BLOOMINGDALE RD/AMBOY RD,,40.524158,-74.215485,,,0,
1928,805082,BLOOMINGDALE RD/MARVIN RD,,40.535389,-74.21822399999999,,,0,
1929,805084,BLOOMINGDALE RD/CLAY PIT RD,,40.540039,-74.217598,,,0,
1930,805087,BLOOMINGDALE RD/VETERANS RD E,,40.547996999999995,-74.220345,,,0,
1931,805093,BLOOMINGDALE RD/CLAY PIT RD,,40.540039,-74.217751,,,0,
1932,805094,BLOOMINGDALE RD/SHARROTTS RD,,40.537601,-74.217957,,,0,
1933,805096,BLOOMINGDALE RD/ENGLEWOOD AV,,40.531326,-74.217873,,,0,
1934,805098,AMBOY RD/BLOOMINGDALE RD,,40.523823,-74.215416,,,0,
1935,805105,LUTEN AV/HYLAN BL,,40.523384,-74.18852199999999,,,0,
1936,805108,EYLENDT ST/ LUTEN AV,,40.526806,-74.19104,,,0,
1937,805113,Bridge loop,,40.604355,-74.066711,,,0,
1938,805114,gulf av/forest av,,40.624846999999995,-74.178787,,,0,
1939,805115,goethals br app/goethals br,,40.633835,-74.193764,,,0,
1940,805116,lincoln tnl ap/lincoln tnl ap,,40.758606,-73.99789399999999,,,0,
1941,805117,goethals br app/goethals br app,,40.630337,-74.186562,,,0,
1942,805118,lincoln tnl app/lincoln tnl app,,40.756744,-73.995651,,,0,
1943,805119,WARREN ST/BROADWAY,,40.713612,-74.006897,,,0,
1944,805120,WARREN ST/BROADWAY,,40.713596,-74.00685899999999,,,0,
1945,805124,UNIVERSITY DRIVE/MEDICAL ARTS PAV E,,40.586937,-74.08641800000001,,,0,
1946,805127,UNIVERSITY DRIVE/MEDICAL ARTS PAVILION EAST,,40.586739,-74.086586,,,0,
1947,805128,CENTER ST/ST PATRICK'S PL,,40.571415,-74.144165,,,0,
1948,805138,TELEPORT DR/SOUTH AV #1,,40.606625,-74.177933,,,0,
1949,805139,TELEPORT DR/SOUTH AV #2,,40.606796,-74.177757,,,0,
1950,805140,HYLAN BL/HUGUENOT AV,,40.52383,-74.186249,,,0,
1951,805143,BLOOMINGDALE RD/VETERANS RD W,,40.548874,-74.22085600000001,,,0,
1952,805147,Drumgoole rd E/Bloomingdale rd,,40.527924,-74.216286,,,0,
1953,805148,Outerbridge/Park and Ride,,40.523392,-74.22364,,,0,
1954,805149,drumgoole rd W/maguire Av,,40.530066999999995,-74.212082,,,0,
1955,805150,Richmond Py/West Shore Ep,,40.526917,-74.223763,,,0,
1956,805151,Outerbridge/Park and Ride,,40.523315000000004,-74.22364,,,0,
1957,805152,Drumgoole rd W/maguire av,,40.530094,-74.212006,,,0,
1958,805153,drumgoole rd w/maguire av,,40.530159000000005,-74.2117,,,0,
1959,805154,slosson av/si ep en eb,,40.610657,-74.117149,,,0,
1960,805155,LAMBERTS LA/RICHMOND AV,,40.614399,-74.15778399999999,,,0,
1961,805156,PORT RICHMOND AV/VAN  RIPPER  AV,,40.625389,-74.144417,,,0,
1962,805158,richmond av/sumner av,,40.616291,-74.157539,,,0,
1963,805159,SIE/Gansevoort bl,,40.608776,-74.127251,,,0,
1964,805160,richmond av/sumner av,,40.608681,-74.14817,,,0,
1965,805161,West Shore ep/SIE(S),,40.622105,-74.171852,,,0,
1966,805162,West Shore ep/SIE(N),,40.620827,-74.17246999999999,,,0,
1967,805163,ST GEORGE FERRY/S 76 & S86,,40.643184999999995,-74.073814,,,0,
1968,805164,ST GEORGE FERRY/S78,,40.643654,-74.073471,,,0,
1969,805165,ELTINGVILLE/TRANSIT CENTER,,40.560802,-74.170456,,,0,
1970,805166,B ST/1 AV,,40.598827,-74.151634,,,0,
1971,805167,C ST/1 AV,,40.598827,-74.151756,,,0,
1972,805168,HYLAN BL/NEW DORP LA,,40.570271000000005,-74.10977199999999,,,0,
1973,805189,MARSH AV/RING RD,,40.583221,-74.16194899999999,,,0,
1974,805190,MARSH AV/RING RD,,40.583351,-74.161812,,,0,
1975,901108,gowanus py/6 av(NB),,40.635365,-74.016678,,,0,
1976,901109,gowanus py/6 av,,40.635135999999996,-74.016823,,,0,
1977,901110,fdr/beekman st,,40.706646,-74.002312,,,0,
1978,901111,fdr/catherine slip,,40.708861999999996,-73.996208,,,0,
1979,901112,fdr/battery pl,,40.703995,-74.017014,,,0,
1980,901113,fdr/battery pl,,40.704456,-74.01657900000001,,,0,
1981,901114,Gowanus Exp./6 Av (N.B.),,40.63538,-74.016663,,,0,
1982,901115,Gowanus PY/6 Av,,40.635357,-74.016624,,,0,
1983,901116,Gowanus Exp./7 Av. (S.B.),,40.63345,-74.01621999999999,,,0,
1984,901169,Gowanus EXP./ 29 St. (S.B.),,40.659512,-74.002472,,,0,
1985,901171,B.B.T./Andes Road (N.B.),,40.691059,-74.010849,,,0,
1986,901177,Gowanus Exp./Lorraine St (S.B.),,40.672016,-73.998924,,,0,
1987,901194,fdr dr s/fdr dr s,,40.710827,-73.98246800000001,,,0,
1988,901225,4 AV/86 ST,,40.62252,-74.028343,,,0,
1989,901226,4 AV/86 ST,,40.622658,-74.028343,,,0,
1990,903013,VESEY ST/WEST ST,,40.714123,-74.014862,,,0,
1991,903015,CHURCH ST/PARK PL,,40.713146,-74.009247,,,0,
1992,903034,AV OF THE AMERICAS/W 23 ST,,40.744694,-73.99140899999999,,,0,
1993,903035,CHURCH AV/LIPSENARD ST,,40.720141999999996,-74.003754,,,0,
1994,903036,CENTRAL PARK S/6 AV,,40.766006,-73.976807,,,0,
1995,903037,AV OF THE AMERICAS/W 41 ST,,40.754307,-73.984398,,,0,
1996,903095,TRINITY PL/RECTOR ST,,40.707874,-74.01275600000001,,,0,
1997,903096,CHURCH ST/CORTLANDT ST,,40.710907,-74.01078000000001,,,0,
1998,903098,PARK ROW/ANN ST,,40.711517,-74.007233,,,0,
1999,903100,WATER ST/JOHN ST,,40.706478000000004,-74.005661,,,0,
2000,903101,WATER ST/MAIDEN LA,,40.705959,-74.00617199999999,,,0,
2001,903115,BATTERY PL/GREENWICH ST,,40.704552,-74.014816,,,0,
2002,903117,BROADWAY/CEDAR ST,,40.708958,-74.01087199999999,,,0,
2003,903118,BROADWAY /DEY ST,,40.710522,-74.009476,,,0,
2004,903205,Battery Pl/Greenwich St,,40.704605,-74.015129,,,0,
2005,903208,richmond av/yukon av,,40.577206,-74.169945,,,0,
2006,904045,E 57 ST/3 AV,,40.759918,-73.966972,,,0,
2007,905002,VICTORY BL / BAY ST,,40.637676,-74.076195,,,0,
2008,905003,VICTORY BL / BAY ST,,40.637814,-74.076157,,,0,
2009,905004,GRANDVIEW AV/FOREST AV,,40.627823,-74.165207,,,0,
2010,905007,ARLO RD / STRATFORD AV,,40.620067999999996,-74.094475,,,0,
2011,905010,EYLANDT ST/LUTEN AV,,40.526835999999996,-74.191544,,,0,
2012,905011,MERRILL AV / RICHMOND AV,,40.610229,-74.16372700000001,,,0,
2013,905014,HYLAN BL/LUTEN AV,,40.523098,-74.188141,,,0,
2014,905015,LUTEN AV/EYLANDT ST,,40.526962,-74.19133000000001,,,0,
2015,905016,MILFORD DR/OCEAN TERR,,40.609852000000004,-74.10382800000001,,,0,
2016,905017,NEW DORP LA / MILL RD,,40.569096,-74.106895,,,0,
2017,905018,HYLAN BL / NARROWS RD S,,40.605381,-74.078102,,,0,
2018,905019,CASTLETON AV/JEWETT AV,,40.63385,-74.129616,,,0,
2019,905020,NARROWS RD S/FINGERBOARD RD,,40.603481,-74.069099,,,0,
2020,905021,CASTLETON AV/JEWETT AV,,40.633697999999995,-74.129776,,,0,
2021,905030,E 23 ST / PARK AV,,40.740398,-73.986595,,,0,
2022,905033,E 23 ST / BROADWAY,,40.741108000000004,-73.988831,,,0,
2023,905034,AV C / E 23 ST,,40.734916999999996,-73.975151,,,0,
2024,905043,W 57 ST / 11 AV,,40.769798,-73.990349,,,0,
2025,905044,FOREST AV/SOUTH AV,,40.627113,-74.165573,,,0,
2026,905046,ELTINGVILLE/TRANSIT CENTER,,40.560837,-74.17112,,,0,
2027,905051,LILY POND AV / MC CLEAN AV,,40.598827,-74.063766,,,0,
2028,905056,VICTORY BL / PERRY AV,,40.612453,-74.129768,,,0,
2029,905057,W 57 ST / 11 AV,,40.770592,-73.991783,,,0,
2030,905059,4 AV/86 ST,,40.622310999999996,-74.028687,,,0,
2031,905063,N.J. Tpke/route 439 (S.B.),,40.6427,-74.210167,,,0,
2032,905065,LINDBERGH AV/CLAWSON ST,,40.5681,-74.11544,,,0,
2033,905067,MADISON AV/E 23 ST,,40.741058,-73.987831,,,0,
2034,905068,MADISON AV/E 23 ST,,40.741207,-73.98769399999999,,,0,
2035,905079,WATER ST/BROAD ST,,40.702969,-74.011833,,,0,
2036,905083,RICHMOND RD/ST PATRICK PL,,40.572094,-74.144348,,,0,
2037,905086,VETERANS RD E/ARTHUR KILL RD,,40.556667,-74.203712,,,0,
2038,905088,W 34 ST/9 AV,,40.753845,-73.997574,,,0,
2039,905089,BRADLEY AV/S GANNON AV,,40.607548,-74.13205699999999,,,0,
2040,905090,WEST ST/SPRING ST,,40.726002,-74.01074200000001,,,0,
2041,905103,LINCOLN AV/RICHMOND RD,,40.580952,-74.11144300000001,,,0,
2042,905105,RICHMOND TER/PARK AV #1,,40.640297,-74.131332,,,0,
2043,905106,BROADWAY/RICHMOND TER,,40.640209000000006,-74.11801899999999,,,0,
2044,905107,HYLAN BL/RICHMOND AV,,40.533653,-74.154137,,,0,
2045,905110,RICHMOND TER/PARK AV #2,,40.640198,-74.131111,,,0,
2046,905111,RICHMOND TER/PARK AV #3,,40.640297,-74.13125600000001,,,0,
2047,905112,MILL RD/TARLTON ST,,40.55386,-74.117317,,,0,
2048,905114,WEST SHORE PLAZA/CHELSEA ST,,40.601971,-74.19133000000001,,,0,
2049,905121,bayonne br/bayonne br-north,,40.644946999999995,-74.140816,,,0,
2050,905122,bayonne br/bayonne br-south,,40.645042,-74.141129,,,0,
2051,905130,ARTHUR KILL RD/CHARLESTON DEPOT,,40.532368,-74.23895300000001,,,0,
2052,905140,NEW DORP LA/3 ST,,40.575218,-74.118523,,,0,
2053,905141,RICHMOND RD/NEW DORP LA,,40.575829,-74.120026,,,0,
2054,905142,4 AV/87 ST,,40.621978999999996,-74.02877,,,0,
2055,905144,MARSH AV/WESTPORT ST,,40.584103000000006,-74.160767,,,0,
2056,905148,west st/morris st,,40.706863,-74.015762,,,0,
2057,905149,murray st/north end av,,40.715824,-74.015198,,,0,
2058,905150,west st/morris st,,40.706837,-74.01576999999999,,,0,
2059,905153,staten island expy/wooley av,,40.60751,-74.140701,,,0,
2060,905154,TELEPORT DR/CORP COMMONS BLDG,,40.604549,-74.178421,,,0,
2061,905155,TELEPORT DR/CORP COMMONS BLDG,,40.604706,-74.17858100000001,,,0,
2062,905156,TELEPORT DR/SOUTH AV #1,,40.60688,-74.1782,,,0,
2063,905157,TELEPORT DR/SOUTH AV #2,,40.607052,-74.178001,,,0,
2064,905160,N.J. Tpke/route 439 (N.B.),,40.643555,-74.209991,,,0,
2065,905161,MARSH AV/RING RD,,40.583721000000004,-74.161423,,,0,
2066,905162,MARSH AV/RING RD,,40.583744,-74.1614,,,0,
2067,905167,MARSH AV/RING RD,,40.583690999999995,-74.161263,,,0,
2068,905169,AMBOY RD/TYSENS LA,,40.568897,-74.125137,,,0,
2069,905179,BRICKTOWN SHOPPING CENTER,,40.53006,-74.22665400000001,,,0,
2070,905180,BRICKTOWN SHOPPING/CENTER,,40.530102,-74.226295,,,0,
2071,905182,PARK LA/SEAVIEW HOSPITAL,,40.592552000000005,-74.13059200000001,,,0,
2072,905185,Annadale Rd /Dorval Av,,40.559032,-74.176674,,,0,
2073,905186,Annadale Rd /Token St,,40.561607,-74.1772,,,0,
2074,905187,Arthur Kill Rd/Annadale Rd,,40.563373999999996,-74.17710100000001,,,0,
2075,905190,MAIN ST/AMBOY RD,,40.508942,-74.246948,,,0,
2076,940152,DAHLGREN PLACE/86 STREET,,40.619221,-74.022873,,,0,
2077,940153,GATLING PLACE/86 STREET,,40.619907,-74.023888,,,0,
